"Product","Blackbox flight data recorder by Nicholas Sherlock"
"firmwareType",3
"firmware","3.3"
"firmwarePatch",3
"firmwareVersion","3.3.3"
"Firmware revision","Betaflight 3.3.3 (6bfd3c22e) MATEKF722"
"Firmware date","May 28 2020 15:37:36"
"Log start datetime","0000-01-01T00:00:00.000+00:00"
"Craft name","neuroflight"
"frameIntervalI",32
"frameIntervalPNum",1
"frameIntervalPDenom",1
"minthrottle",1070
"maxthrottle",2000
"gyroScale",1.7453292519943295e-8
"motorOutput","138,2047"
"acc_1G",0
"vbatscale",110
"vbatmincellvoltage",33
"vbatwarningcellvoltage",35
"vbatmaxcellvoltage",43
"vbatref",163
"currentMeterOffset",0
"currentMeterScale",179
"looptime",250
"gyro_sync_denom",2
"pid_process_denom",4
"thrMid",50
"thrExpo",0
"dynThrPID",10
"tpa_breakpoint",1650
"rc_rates","100,100,100"
"rc_expo","0,0,0"
"rates","70,70,70"
"rollPID","40,40,30"
"pitchPID","58,50,35"
"yawPID","70,45,20"
"altPID","50,0,0"
"posPID","15,0,0"
"posrPID","34,14,53"
"navrPID","25,33,83"
"levelPID","50,50,75"
"magPID","40,,"
"velPID","55,55,75"
"dterm_filter_type",1
"dterm_lpf_hz",100
"yaw_lpf_hz",0
"dterm_notch_hz",260
"dterm_notch_cutoff",160
"itermWindupPointPercent",50
"vbat_pid_compensation",0
"pidAtMinThrottle",1
"anti_gravity_threshold",350
"anti_gravity_gain",1000
"setpointRelaxRatio",100
"dtermSetpointWeight",0
"yawRateAccelLimit",0.1
"rateAccelLimit",0
"pidSumLimit",500
"pidSumLimitYaw",400
"deadband",0
"yaw_deadband",0
"gyro_lpf",0
"gyro_soft_type",0
"gyro_lowpass_hz",100
"gyro_notch_hz","400,200"
"gyro_notch_cutoff","300,100"
"acc_lpf_hz",1000
"acc_hardware",1
"baro_hardware",1
"mag_hardware",1
"gyro_cal_on_first_arm",0
"rc_interpolation",2
"rc_interpolation_interval",19
"airmode_activate_throttle",32
"serialrx_provider",2
"unsynced_fast_pwm",0
"fast_pwm_protocol",7
"motor_pwm_rate",480
"digitalIdleOffset",450
"debug_mode",31
"features",4457480
"loopIteration","time","axisP[0]","axisP[1]","axisP[2]","axisI[0]","axisI[1]","axisI[2]","axisD[0]","axisD[1]","axisD[2]","rcCommand[0]","rcCommand[1]","rcCommand[2]","rcCommand[3]","vbatLatest","amperageLatest","rssi","gyroADC[0]","gyroADC[1]","gyroADC[2]","debug[0]","debug[1]","debug[2]","debug[3]","motor[0]","motor[1]","motor[2]","motor[3]","flightModeFlags","stateFlags","failsafePhase","rxSignalReceived","rxFlightChannelsValid","heading[0]","heading[1]","heading[2]","axisSum[0]","axisSum[1]","axisSum[2]","rcCommands[0]","rcCommands[1]","rcCommands[2]","rcCommands[3]","axisError[0]","axisError[1]","axisError[2]"
0,61203519,0,0,0,0,0,0,0,0,0,0,0,-10,1000,163,0,512,0,0,0,0,0,-4056,0,138,156,169,138,"","","","","",0,0,4.396484385773716,0,0,0,0,0,-4,0,0,0,4,"",""
1,61204860,0,0,0,0,0,0,0,0,0,0,0,-10,1000,163,0,512,0,0,0,0,0,-4056,0,138,157,169,138,1,8,0,1,1,0,0,4.396484385773716,0,0,0,0,0,-4,0,0,0,4,"",""
2,61206337,0,0,0,0,0,0,0,0,0,0,0,-10,1000,163,0,512,0,0,0,0,0,-4056,0,138,156,169,138,1,8,0,1,1,0,0,4.396484385773716,0,0,0,0,0,-4,0,0,0,4,"",""
3,61207802,0,0,0,0,0,0,0,0,0,0,0,-10,1000,163,0,512,0,0,0,0,0,-4056,0,138,157,169,138,1,8,0,1,1,0,0,4.396484385773716,0,0,0,0,0,-4,0,0,0,4,"",""
4,61209128,0,0,0,0,0,0,0,0,0,0,0,-10,1000,163,0,512,0,0,0,-80,0,-4056,0,138,157,169,138,1,8,0,1,1,0,0,4.396484385773716,0,0,0,0,0,-4,0,0,0,4,"",""
5,61210439,0,0,0,0,0,0,0,0,0,0,0,-10,1000,163,0,512,0,0,0,-160,0,-4056,0,138,157,169,138,1,8,0,1,1,0,0,4.396484385773716,0,0,0,0,0,-4,0,0,0,4,"",""
6,61211758,0,0,0,0,0,0,0,0,0,0,0,-10,1000,163,0,512,0,0,0,-240,0,-4056,0,138,157,169,138,1,8,0,1,1,0,0,4.396484385773716,0,0,0,0,0,-4,0,0,0,4,"",""
7,61213070,0,0,0,0,0,0,0,0,0,-1,0,-10,1000,163,0,512,0,0,0,-320,0,-4056,0,138,157,168,138,1,8,0,1,1,0,0,4.396484385773716,0,0,0,-1,0,-4,0,1,0,4,"",""
8,61214398,0,0,0,0,0,0,0,0,0,-1,0,-10,1000,163,0,512,0,0,0,-400,0,-4056,0,139,158,168,138,1,8,0,1,1,0,0,4.396484385773716,0,0,0,-1,0,-4,0,1,0,4,"",""
9,61215730,0,0,0,0,0,0,0,0,0,-1,0,-10,1000,163,0,512,0,0,0,-480,0,-4056,0,140,159,168,138,1,8,0,1,1,0,0,4.396484385773716,0,0,0,-1,0,-4,0,1,0,4,"",""
10,61217051,0,0,0,0,0,0,0,0,0,0,0,-10,1000,163,0,512,0,0,0,-427,0,-4056,0,138,158,168,138,1,8,0,1,1,0,0,4.396484385773716,0,0,0,0,0,-4,0,0,0,4,"",""
11,61218365,0,0,0,0,0,0,0,0,0,0,0,-10,1000,163,0,512,0,0,0,-373,0,-4056,0,139,158,168,138,1,8,0,1,1,0,0,4.396484385773716,0,0,0,0,0,-4,0,0,0,4,"",""
12,61219686,0,0,0,0,0,0,0,0,0,0,0,-10,1000,163,0,512,0,0,0,-320,0,-4056,0,139,158,168,138,1,8,0,1,1,0,0,4.396484385773716,0,0,0,0,0,-4,0,0,0,4,"",""
13,61221007,0,0,0,0,0,0,0,0,0,0,0,-10,1000,163,0,512,0,0,0,-266,0,-4056,0,138,157,168,138,1,8,0,1,1,0,0,4.396484385773716,0,0,0,0,0,-4,0,0,0,4,"",""
14,61222333,0,0,0,0,0,0,0,0,0,0,0,-10,1000,163,0,512,0,0,0,-213,0,-4056,0,138,158,168,138,1,8,0,1,1,0,0,4.396484385773716,0,0,0,0,0,-4,0,0,0,4,"",""
15,61223670,0,0,0,0,0,0,0,0,0,0,0,-10,1000,163,0,512,0,0,0,-160,0,-4056,0,138,158,168,138,1,8,0,1,1,0,0,4.396484385773716,0,0,0,0,0,-4,0,0,0,4,"",""
16,61224999,0,0,0,0,0,0,0,0,0,0,0,-10,1000,163,0,512,0,0,0,-106,0,-4056,0,138,157,168,138,1,8,0,1,1,0,0,4.396484385773716,0,0,0,0,0,-4,0,0,0,4,"",""
17,61226327,0,0,0,0,0,0,0,0,0,0,0,-10,1000,163,0,512,0,0,0,-96,0,-4056,0,138,158,168,138,1,8,0,1,1,0,0,4.396484385773716,0,0,0,0,0,-4,0,0,0,4,"",""
18,61227644,0,0,0,0,0,0,0,0,0,0,0,-10,1000,163,0,512,0,0,0,-85,0,-4056,0,138,157,168,138,1,8,0,1,1,0,0,4.396484385773716,0,0,0,0,0,-4,0,0,0,4,"",""
19,61228959,0,0,0,0,0,0,0,0,0,0,0,-10,1000,163,0,512,0,0,0,-74,0,-4056,0,138,157,168,138,1,8,0,1,1,0,0,4.396484385773716,0,0,0,0,0,-4,0,0,0,4,"",""
20,61230274,0,0,0,0,0,0,0,0,0,0,0,-10,1000,163,0,512,0,0,0,-64,0,-4056,0,138,157,168,138,1,8,0,1,1,0,0,4.396484385773716,0,0,0,0,0,-4,0,0,0,4,"",""
21,61231602,0,0,0,0,0,0,0,0,0,0,0,-10,1000,163,0,512,0,0,0,-53,0,-4056,0,138,157,168,138,1,8,0,1,1,0,0,4.396484385773716,0,0,0,0,0,-4,0,0,0,4,"",""
22,61232935,0,0,0,0,0,0,0,0,0,0,0,-10,1000,163,0,512,0,0,0,-42,0,-4056,0,138,158,168,138,1,8,0,1,1,0,0,4.396484385773716,0,0,0,0,0,-4,0,0,0,4,"",""
23,61234273,0,0,0,0,0,0,0,0,0,0,0,-10,1000,163,0,512,0,0,0,-32,0,-4056,0,138,158,168,138,1,8,0,1,1,0,0,4.396484385773716,0,0,0,0,0,-4,0,0,0,4,"",""
24,61235729,0,0,0,0,0,0,0,0,0,0,0,-10,1000,163,0,512,0,0,0,-28,0,-4056,0,138,158,168,138,1,8,0,1,1,0,0,4.396484385773716,0,0,0,0,0,-4,0,0,0,4,"",""
25,61237185,0,0,0,0,0,0,0,0,0,0,0,-10,1000,163,0,512,0,0,0,-25,0,-4056,0,138,158,168,138,1,8,0,1,1,0,0,4.396484385773716,0,0,0,0,0,-4,0,0,0,4,"",""
26,61238502,0,0,0,0,0,0,0,0,0,0,0,-10,1000,163,27,512,0,0,0,-22,0,-4056,0,138,157,168,138,1,8,0,1,1,0,0,4.396484385773716,0,0,0,0,0,-4,0,0,0,4,"",""
27,61239817,0,0,0,0,0,0,0,0,0,0,0,-10,1000,163,27,512,0,0,0,-19,0,-4056,0,138,157,168,138,1,8,0,1,1,0,0,4.396484385773716,0,0,0,0,0,-4,0,0,0,4,"",""
28,61241145,0,0,0,0,0,0,0,0,0,0,0,-10,1000,163,27,512,0,0,0,-16,0,-4056,0,138,157,168,138,1,8,0,1,1,0,0,4.396484385773716,0,0,0,0,0,-4,0,0,0,4,"",""
29,61242474,0,0,0,0,0,0,0,0,0,0,0,-10,1000,163,27,512,0,0,0,-12,0,-4056,0,138,157,168,138,1,8,0,1,1,0,0,4.396484385773716,0,0,0,0,0,-4,0,0,0,4,"",""
30,61243797,0,0,0,0,0,0,0,0,0,0,0,-10,1000,163,27,512,0,0,0,-11,0,-4056,0,138,156,168,138,1,8,0,1,1,0,0,4.396484385773716,0,0,0,0,0,-4,0,0,0,4,"",""
31,61245115,0,0,0,0,0,0,0,0,0,0,0,-10,1000,163,27,512,0,0,0,-9,0,-4056,0,138,157,168,138,1,8,0,1,1,0,0,4.396484385773716,0,0,0,0,0,-4,0,0,0,4,"",""
32,61246424,0,0,0,0,0,0,0,0,0,0,0,-10,1000,163,27,512,0,0,0,-8,0,-4056,0,138,157,168,138,1,8,0,1,1,0,0,4.396484385773716,0,0,0,0,0,-4,0,0,0,4,"",""
33,61247754,0,0,0,0,0,0,0,0,0,0,0,-10,1000,163,27,512,0,0,0,-7,0,-4056,0,138,157,168,138,1,8,0,1,1,0,0,4.396484385773716,0,0,0,0,0,-4,0,0,0,4,"",""
34,61249069,0,0,0,0,0,0,0,0,0,0,0,-10,1000,163,27,512,0,0,0,-5,0,-4056,0,138,157,168,138,1,8,0,1,1,0,0,4.396484385773716,0,0,0,0,0,-4,0,0,0,4,"",""
35,61250395,0,0,0,0,0,0,0,0,0,0,0,-10,1000,163,27,512,0,0,0,-4,0,-4056,0,138,157,168,138,1,8,0,1,1,0,0,4.396484385773716,0,0,0,0,0,-4,0,0,0,4,"",""
36,61251723,0,0,0,0,0,0,0,0,0,0,0,-10,1000,163,27,512,0,0,0,-2,0,-4056,0,138,157,168,138,1,8,0,1,1,0,0,4.396484385773716,0,0,0,0,0,-4,0,0,0,4,"",""
37,61253040,0,0,0,0,0,0,0,0,0,0,0,-10,1000,163,27,512,0,0,0,-82,0,-4056,0,139,158,168,138,1,8,0,1,1,0,0,4.396484385773716,0,0,0,0,0,-4,0,0,0,4,"",""
38,61254352,0,0,0,0,0,0,0,0,0,0,0,-10,1000,163,27,512,0,0,0,-162,0,-4056,0,138,157,168,138,1,8,0,1,1,0,0,4.396484385773716,0,0,0,0,0,-4,0,0,0,4,"",""
39,61255668,0,0,0,0,0,0,0,0,0,0,0,-10,1000,163,27,512,0,0,0,-242,0,-4056,0,139,158,168,138,1,8,0,1,1,0,0,4.396484385773716,0,0,0,0,0,-4,0,0,0,4,"",""
40,61256985,0,0,0,0,0,0,0,0,0,-1,0,-10,1000,163,27,512,0,0,0,-322,0,-4056,0,139,158,168,138,1,8,0,1,1,0,0,4.396484385773716,0,0,0,-1,0,-4,0,1,0,4,"",""
41,61258307,0,0,0,0,0,0,0,0,0,-1,0,-10,1000,163,0,512,0,0,0,-401,0,-4056,0,139,158,168,138,1,8,0,1,1,0,0,4.396484385773716,0,0,0,-1,0,-4,0,1,0,4,"",""
42,61259635,0,0,0,0,0,0,0,0,0,-1,0,-10,1000,163,0,512,0,0,0,-481,0,-4056,0,139,158,168,138,1,8,0,1,1,0,0,4.396484385773716,0,0,0,-1,0,-4,0,1,0,4,"",""
43,61260964,0,0,0,0,0,0,0,0,0,-1,0,-10,1000,163,0,512,0,0,0,-561,0,-4056,0,140,158,168,138,1,8,0,1,1,0,0,4.396484385773716,0,0,0,-1,0,-4,0,1,0,4,"",""
44,61262280,0,0,0,0,0,0,0,0,0,-1,0,-10,1000,163,0,512,0,0,0,-505,0,-4056,0,140,158,168,138,1,8,0,1,1,0,0,4.396484385773716,0,0,0,-1,0,-4,0,1,0,4,"",""
45,61263610,0,0,0,0,0,0,0,0,0,0,0,-10,1000,163,0,512,0,0,0,-449,0,-4056,0,140,158,168,138,1,8,0,1,1,0,0,4.396484385773716,0,0,0,0,0,-4,0,0,0,4,"",""
46,61265062,0,0,0,0,0,0,0,0,0,0,0,-10,1000,163,0,512,0,0,0,-393,0,-4056,0,139,157,168,138,1,8,0,1,1,0,0,4.396484385773716,0,0,0,0,0,-4,0,0,0,4,"",""
47,61266518,0,0,0,0,0,0,0,0,0,0,0,-10,1000,163,0,512,0,0,0,-336,0,-4056,0,138,157,168,138,1,8,0,1,1,0,0,4.396484385773716,0,0,0,0,0,-4,0,0,0,4,"",""
48,61267846,0,0,0,0,0,0,0,0,0,0,0,-10,1000,163,0,512,0,0,0,-280,0,-4056,0,138,157,168,138,1,8,0,1,1,0,0,4.396484385773716,0,0,0,0,0,-4,0,0,0,4,"",""
49,61269178,0,0,0,0,0,0,0,0,0,0,0,-10,1000,163,0,512,0,0,0,-224,0,-4056,0,138,157,168,138,1,8,0,1,1,0,0,4.396484385773716,0,0,0,0,0,-4,0,0,0,4,"",""
50,61270499,0,0,0,0,0,0,0,0,0,0,0,-10,1000,163,0,512,0,0,0,-168,0,-4056,0,138,157,168,138,1,8,0,1,1,0,0,4.396484385773716,0,0,0,0,0,-4,0,0,0,4,"",""
51,61271831,0,0,0,0,0,0,0,0,0,0,0,-10,1000,163,0,512,0,0,0,-151,0,-4056,0,138,157,168,138,1,8,0,1,1,0,0,4.396484385773716,0,0,0,0,0,-4,0,0,0,4,"",""
52,61273143,0,0,0,0,0,0,0,0,0,0,0,-10,1000,163,0,512,0,0,0,-134,0,-4056,0,138,157,168,138,1,8,0,1,1,0,0,4.396484385773716,0,0,0,0,0,-4,0,0,0,4,"",""
53,61274458,0,0,0,0,0,0,0,0,0,0,0,-10,1000,163,0,512,0,0,0,-117,0,-4056,0,139,157,169,138,1,8,0,1,1,0,0,4.396484385773716,0,0,0,0,0,-4,0,0,0,4,"",""
54,61275780,0,0,0,0,0,0,0,0,0,0,0,-10,1000,163,0,512,0,0,0,-100,0,-4056,0,138,157,169,138,1,8,0,1,1,0,0,4.396484385773716,0,0,0,0,0,-4,0,0,0,4,"",""
55,61277105,0,0,0,0,0,0,0,0,0,0,0,-10,1000,163,0,512,0,0,0,-84,0,-4056,0,138,157,169,138,1,8,0,1,1,0,0,4.396484385773716,0,0,0,0,0,-4,0,0,0,4,"",""
56,61278451,0,0,0,0,0,0,0,0,0,0,0,-10,1000,163,0,512,0,0,0,-67,0,-4056,0,138,157,169,138,1,8,0,1,1,0,0,4.396484385773716,0,0,0,0,0,-4,0,0,0,4,"",""
57,61279766,0,0,0,0,0,0,0,0,0,0,0,-10,1000,163,0,512,0,0,0,-59,0,-4056,0,138,157,169,138,1,8,0,1,1,0,0,4.396484385773716,0,0,0,0,0,-4,0,0,0,4,"",""
58,61281085,0,0,0,0,0,0,0,0,0,0,0,-10,1000,163,0,512,0,0,0,-52,0,-4056,0,138,157,169,138,1,8,0,1,1,0,0,4.396484385773716,0,0,0,0,0,-4,0,0,0,4,"",""
59,61282392,0,0,0,0,0,0,0,0,0,0,0,-10,1000,163,0,512,0,0,0,-44,0,-4056,0,138,157,169,138,1,8,0,1,1,0,0,4.396484385773716,0,0,0,0,0,-4,0,0,0,4,"",""
60,61283705,0,0,0,0,0,0,0,0,0,0,0,-10,1000,163,0,512,0,0,0,-37,0,-4056,0,138,157,169,138,1,8,0,1,1,0,0,4.396484385773716,0,0,0,0,0,-4,0,0,0,4,"",""
61,61285022,0,0,0,0,0,0,0,0,0,0,0,-10,1000,163,0,512,0,0,0,-29,0,-4056,0,138,157,169,138,1,8,0,1,1,0,0,4.396484385773716,0,0,0,0,0,-4,0,0,0,4,"",""
62,61286344,0,0,0,0,0,0,0,0,0,0,0,-10,1000,163,0,512,0,0,0,-22,0,-4056,0,138,157,170,138,1,8,0,1,1,0,0,4.396484385773716,0,0,0,0,0,-4,0,0,0,4,"",""
63,61287690,0,0,0,0,0,0,0,0,0,0,0,-10,1000,163,0,512,0,0,0,-14,0,-4056,0,138,157,170,139,1,8,0,1,1,0,0,4.396484385773716,0,0,0,0,0,-4,0,0,0,4,"",""
64,61289011,0,0,0,0,0,0,0,0,0,0,0,-10,1000,163,0,512,0,0,0,-13,0,-4056,0,138,158,170,139,1,8,0,1,1,0,0,4.396484385773716,0,0,0,0,0,-4,0,0,0,4,"",""
65,61290326,0,0,0,0,0,0,0,0,0,0,0,-10,1000,163,0,512,0,0,0,-11,0,-4056,0,138,157,170,139,1,8,0,1,1,0,0,4.396484385773716,0,0,0,0,0,-4,0,0,0,4,"",""
66,61291634,0,0,0,0,0,0,0,0,0,0,0,-10,1000,163,0,512,0,0,0,-9,0,-4056,0,138,157,169,138,1,8,0,1,1,0,0,4.396484385773716,0,0,0,0,0,-4,0,0,0,4,"",""
67,61292962,0,0,0,0,0,0,0,0,0,0,0,-10,1000,163,0,512,0,0,0,-8,0,-4056,0,138,157,169,138,1,8,0,1,1,0,0,4.396484385773716,0,0,0,0,0,-4,0,0,0,4,"",""
68,61294423,0,0,0,0,0,0,0,0,0,0,0,-10,1000,163,0,512,0,0,0,-6,0,-4056,0,138,157,169,138,1,8,0,1,1,0,0,4.396484385773716,0,0,0,0,0,-4,0,0,0,4,"",""
69,61295909,0,0,0,0,0,0,0,0,0,0,0,-10,1000,163,0,512,0,0,0,-4,0,-4056,0,138,156,169,138,1,8,0,1,1,0,0,4.396484385773716,0,0,0,0,0,-4,0,0,0,4,"",""
70,61297234,0,0,0,0,0,0,0,0,0,0,0,-10,1000,163,0,512,0,0,0,-3,0,-4056,0,138,156,169,138,1,8,0,1,1,0,0,4.396484385773716,0,0,0,0,0,-4,0,0,0,4,"",""
71,61298553,0,0,0,0,0,0,0,0,0,0,0,-10,1000,163,39,512,0,0,0,-2,0,-4056,0,138,157,170,139,1,8,0,1,1,0,0,4.396484385773716,0,0,0,0,0,-4,0,0,0,4,"",""
72,61299868,0,0,0,0,0,0,0,0,0,0,0,-10,1000,163,39,512,0,0,0,-2,0,-4056,0,138,157,170,139,1,8,0,1,1,0,0,4.396484385773716,0,0,0,0,0,-4,0,0,0,4,"",""
73,61301185,0,0,0,0,0,0,0,0,0,0,0,-10,1000,163,39,512,0,0,0,-2,0,-4056,0,138,157,170,139,1,8,0,1,1,0,0,4.396484385773716,0,0,0,0,0,-4,0,0,0,4,"",""
74,61302499,0,0,0,0,0,0,0,0,0,0,0,-10,1000,163,39,512,0,0,0,-1,0,-4056,0,138,157,170,139,1,8,0,1,1,0,0,4.396484385773716,0,0,0,0,0,-4,0,0,0,4,"",""
75,61303831,0,0,0,0,0,0,0,0,0,0,0,-10,1000,163,39,512,0,0,0,-1,0,-4056,0,138,158,170,139,1,8,0,1,1,0,0,4.396484385773716,0,0,0,0,0,-4,0,0,0,4,"",""
76,61305159,0,0,0,0,0,0,0,0,0,0,0,-10,1000,163,39,512,0,0,0,-1,0,-4056,0,138,158,170,139,1,8,0,1,1,0,0,4.396484385773716,0,0,0,0,0,-4,0,0,0,4,"",""
77,61306483,0,0,0,0,0,0,0,0,0,0,0,-10,1000,163,39,512,0,0,0,0,0,-4056,0,138,157,170,139,1,8,0,1,1,0,0,4.396484385773716,0,0,0,0,0,-4,0,0,0,4,"",""
78,61307803,0,0,0,0,0,0,0,0,0,0,0,-10,1000,163,39,512,0,0,0,0,0,-4056,0,138,157,170,139,1,8,0,1,1,0,0,4.396484385773716,0,0,0,0,0,-4,0,0,0,4,"",""
79,61309115,0,0,0,0,0,0,0,0,0,0,0,-10,1000,163,39,512,0,0,0,0,0,-4056,0,138,157,170,139,1,8,0,1,1,0,0,4.396484385773716,0,0,0,0,0,-4,0,0,0,4,"",""
80,61310426,0,0,0,0,0,0,0,0,0,0,0,-10,1000,163,39,512,0,0,0,0,0,-4056,0,138,157,170,139,1,8,0,1,1,0,0,4.396484385773716,0,0,0,0,0,-4,0,0,0,4,"",""
81,61311741,0,0,0,0,0,0,0,0,0,0,0,-10,1000,163,39,512,0,0,0,0,0,-4056,0,138,156,170,138,1,8,0,1,1,0,0,4.396484385773716,0,0,0,0,0,-4,0,0,0,4,"",""
82,61313064,0,0,0,0,0,0,0,0,0,0,0,-10,1000,163,39,512,0,0,0,0,0,-4056,0,138,156,171,139,1,8,0,1,1,0,0,4.396484385773716,0,0,0,0,0,-4,0,0,0,4,"",""
83,61314406,0,0,0,0,0,0,0,0,0,0,0,-10,1000,163,39,512,0,0,0,0,0,-4056,0,138,155,170,138,1,8,0,1,1,0,0,4.396484385773716,0,0,0,0,0,-4,0,0,0,4,"",""
84,61315717,0,0,0,0,0,0,0,0,0,0,0,-10,1000,163,39,512,0,0,0,0,0,-4056,0,138,156,170,139,1,8,0,1,1,0,0,4.396484385773716,0,0,0,0,0,-4,0,0,0,4,"",""
85,61317031,0,0,0,0,0,0,0,0,0,0,0,-10,1000,163,39,512,0,0,0,0,0,-4056,0,138,157,171,140,1,8,0,1,1,0,0,4.396484385773716,0,0,0,0,0,-4,0,0,0,4,"",""
86,61318343,0,0,0,0,0,0,0,0,0,0,0,-10,1000,163,0,512,0,0,0,0,0,-4056,0,138,157,171,140,1,8,0,1,1,0,0,4.396484385773716,0,0,0,0,0,-4,0,0,0,4,"",""
87,61319667,0,0,0,0,0,0,0,0,0,0,0,-10,1000,163,0,512,0,0,0,0,0,-4056,0,138,157,171,140,1,8,0,1,1,0,0,4.396484385773716,0,0,0,0,0,-4,0,0,0,4,"",""
88,61320980,0,0,0,0,0,0,0,0,0,0,0,-10,1000,163,0,512,-1,0,0,0,0,-4056,0,138,158,172,141,1,8,0,1,1,0,0,4.396484385773716,0,0,0,0,0,-4,0,-1,0,4,"",""
89,61322317,0,0,0,0,0,0,0,0,0,0,0,-10,1000,163,0,512,-1,0,0,0,0,-4056,0,138,157,171,140,1,8,0,1,1,0,0,4.396484385773716,0,0,0,0,0,-4,0,-1,0,4,"",""
90,61323652,0,0,0,0,0,0,0,0,0,0,0,-10,1000,163,0,512,-1,0,0,0,0,-4056,0,138,157,171,140,1,8,0,1,1,0,0,4.396484385773716,0,0,0,0,0,-4,0,-1,0,4,"",""
91,61325104,0,0,0,0,0,0,0,0,0,0,0,-10,1000,163,0,512,-1,0,0,0,0,-4056,0,138,157,171,140,1,8,0,1,1,0,0,4.396484385773716,0,0,0,0,0,-4,0,-1,0,4,"",""
92,61326552,0,0,0,0,0,0,0,0,0,0,0,-10,1000,163,0,512,-1,0,0,0,0,-4056,0,138,156,171,140,1,8,0,1,1,0,0,4.396484385773716,0,0,0,0,0,-4,0,-1,0,4,"",""
93,61327864,0,0,0,0,0,0,0,0,0,0,0,-10,1000,163,0,512,-1,0,0,0,0,-4056,0,138,156,171,140,1,8,0,1,1,0,0,4.396484385773716,0,0,0,0,0,-4,0,-1,0,4,"",""
94,61329178,0,0,0,0,0,0,0,0,0,0,0,-10,1000,163,0,512,-1,0,0,0,0,-4056,0,138,156,171,140,1,8,0,1,1,0,0,4.396484385773716,0,0,0,0,0,-4,0,-1,0,4,"",""
95,61330501,0,0,0,0,0,0,0,0,0,0,0,-10,1000,163,0,512,-1,0,0,0,0,-4056,0,138,156,170,139,1,8,0,1,1,0,0,4.396484385773716,0,0,0,0,0,-4,0,-1,0,4,"",""
96,61331827,0,0,0,0,0,0,0,0,0,0,0,-10,1000,163,0,512,-1,0,0,0,0,-4056,0,138,156,171,140,1,8,0,1,1,0,0,4.396484385773716,0,0,0,0,0,-4,0,-1,0,4,"",""
97,61333160,0,0,0,0,0,0,0,0,0,0,0,-10,1000,163,0,512,-1,0,0,0,0,-4056,0,138,157,171,140,1,8,0,1,1,0,0,4.396484385773716,0,0,0,0,0,-4,0,-1,0,4,"",""
98,61334475,0,0,0,0,0,0,0,0,0,0,0,-10,1000,163,0,512,-1,0,0,0,0,-4056,0,138,157,171,140,1,8,0,1,1,0,0,4.396484385773716,0,0,0,0,0,-4,0,-1,0,4,"",""
99,61335790,0,0,0,0,0,0,0,0,0,0,0,-10,1000,163,0,512,-1,0,0,0,0,-4056,0,138,157,171,141,1,8,0,1,1,0,0,4.396484385773716,0,0,0,0,0,-4,0,-1,0,4,"",""
100,61337110,0,0,0,0,0,0,0,0,0,0,0,-10,1000,163,0,512,-1,0,0,0,0,-4056,0,138,157,171,140,1,8,0,1,1,0,0,4.396484385773716,0,0,0,0,0,-4,0,-1,0,4,"",""
101,61338420,0,0,0,0,0,0,0,0,0,0,0,-10,1000,163,0,512,-1,0,0,0,0,-4056,0,138,157,171,140,1,8,0,1,1,0,0,4.396484385773716,0,0,0,0,0,-4,0,-1,0,4,"",""
102,61339741,0,0,0,0,0,0,0,0,0,0,0,-10,1000,163,0,512,-1,0,0,0,0,-4056,0,138,156,170,140,1,8,0,1,1,0,0,4.396484385773716,0,0,0,0,0,-4,0,-1,0,4,"",""
103,61341071,0,0,0,0,0,0,0,0,0,0,0,-10,1000,163,0,512,-1,0,0,0,0,-4056,0,138,157,170,140,1,8,0,1,1,0,0,4.396484385773716,0,0,0,0,0,-4,0,-1,0,4,"",""
104,61342394,0,0,0,0,0,0,0,0,0,0,0,-10,1000,163,0,512,0,0,0,0,0,-4056,0,138,157,170,139,1,8,0,1,1,0,0,4.396484385773716,0,0,0,0,0,-4,0,0,0,4,"",""
105,61343720,0,0,0,0,0,0,0,0,0,0,0,-10,1000,163,0,512,0,0,0,0,0,-4056,0,138,157,171,140,1,8,0,1,1,0,0,4.396484385773716,0,0,0,0,0,-4,0,0,0,4,"",""
106,61345039,0,0,0,0,0,0,0,0,0,0,0,-10,1000,163,0,512,0,0,0,0,0,-4056,0,138,157,171,140,1,8,0,1,1,0,0,4.396484385773716,0,0,0,0,0,-4,0,0,0,4,"",""
107,61346351,0,0,0,0,0,0,0,0,0,0,0,-10,1000,163,0,512,0,0,0,0,0,-4056,0,138,156,171,140,1,8,0,1,1,0,0,4.396484385773716,0,0,0,0,0,-4,0,0,0,4,"",""
108,61347662,0,0,0,0,0,0,0,0,0,0,0,-10,1000,163,0,512,0,0,0,0,0,-4056,0,138,156,170,139,1,8,0,1,1,0,0,4.396484385773716,0,0,0,0,0,-4,0,0,0,4,"",""
109,61348986,0,0,0,0,0,0,0,0,0,0,0,-10,1000,163,0,512,0,0,0,0,0,-4056,0,138,156,170,139,1,8,0,1,1,0,0,4.396484385773716,0,0,0,0,0,-4,0,0,0,4,"",""
110,61350307,0,0,0,0,0,0,0,0,0,0,0,-10,1000,163,0,512,0,0,0,0,0,-4056,0,138,156,170,139,1,8,0,1,1,0,0,4.396484385773716,0,0,0,0,0,-4,0,0,0,4,"",""
111,61351625,0,0,0,0,0,0,0,0,0,0,0,-10,1000,163,0,512,0,0,0,0,0,-4056,0,138,156,170,138,1,8,0,1,1,0,0,4.396484385773716,0,0,0,0,0,-4,0,0,0,4,"",""
112,61352950,0,0,0,0,0,0,0,0,0,0,0,-10,1000,163,0,512,0,0,0,0,0,-4056,0,138,156,170,138,1,8,0,1,1,0,0,4.396484385773716,0,0,0,0,0,-4,0,0,0,4,"",""
113,61354275,0,0,0,0,0,0,0,0,0,0,0,-10,1000,163,0,512,0,0,0,0,0,-4056,0,138,156,170,139,1,8,0,1,1,0,0,4.396484385773716,0,0,0,0,0,-4,0,0,0,4,"",""
114,61355729,0,0,0,0,0,0,0,0,0,0,0,-10,1000,163,0,512,0,0,0,0,0,-4056,0,138,157,170,139,1,8,0,1,1,0,0,4.396484385773716,0,0,0,0,0,-4,0,0,0,4,"",""
115,61357183,0,0,0,0,0,0,0,0,0,0,0,-10,1000,163,0,512,0,0,0,0,0,-4056,0,138,157,170,138,1,8,0,1,1,0,0,4.396484385773716,0,0,0,0,0,-4,0,0,0,4,"",""
116,61358516,0,0,0,0,0,0,0,0,0,0,0,-10,1000,163,0,512,0,0,0,0,0,-4056,0,138,157,169,138,1,8,0,1,1,0,0,4.396484385773716,0,0,0,0,0,-4,0,0,0,4,"",""
117,61359848,0,0,0,0,0,0,0,0,0,0,0,-10,1000,163,0,512,0,0,0,0,0,-4056,0,138,157,169,138,1,8,0,1,1,0,0,4.396484385773716,0,0,0,0,0,-4,0,0,0,4,"",""
118,61361161,0,0,0,0,0,0,0,0,0,0,0,-10,1000,163,0,512,0,0,0,0,0,-4056,0,138,157,169,138,1,8,0,1,1,0,0,4.396484385773716,0,0,0,0,0,-4,0,0,0,4,"",""
119,61362476,0,0,0,0,0,0,0,0,0,0,0,-10,1000,163,0,512,0,0,0,0,0,-4056,0,138,156,169,138,1,8,0,1,1,0,0,4.396484385773716,0,0,0,0,0,-4,0,0,0,4,"",""
120,61363793,0,0,0,0,0,0,0,0,0,0,0,-10,1000,163,0,512,0,0,0,0,0,-4056,0,138,156,170,138,1,8,0,1,1,0,0,4.396484385773716,0,0,0,0,0,-4,0,0,0,4,"",""
121,61365106,0,0,0,0,0,0,0,0,0,0,0,-10,1000,163,0,512,0,0,0,0,0,-4056,0,138,157,170,139,1,8,0,1,1,0,0,4.396484385773716,0,0,0,0,0,-4,0,0,0,4,"",""
122,61366443,0,0,0,0,0,0,0,0,0,0,0,-10,1000,163,0,512,0,0,0,0,0,-4056,0,138,157,170,138,1,8,0,1,1,0,0,4.396484385773716,0,0,0,0,0,-4,0,0,0,4,"",""
123,61367782,0,0,0,0,0,0,0,0,0,0,0,-10,1000,163,0,512,0,0,0,0,0,-4056,0,138,157,170,138,1,8,0,1,1,0,0,4.396484385773716,0,0,0,0,0,-4,0,0,0,4,"",""
124,61369111,0,0,0,0,0,0,0,0,0,0,0,-10,1000,163,0,512,0,0,0,0,0,-4056,0,138,157,170,138,1,8,0,1,1,0,0,4.396484385773716,0,0,0,0,0,-4,0,0,0,4,"",""
125,61370440,0,0,0,0,0,0,0,0,0,0,0,-10,1000,163,0,512,0,0,0,0,0,-4056,0,138,157,169,138,1,8,0,1,1,0,0,4.396484385773716,0,0,0,0,0,-4,0,0,0,4,"",""
126,61371758,0,0,0,0,0,0,0,0,0,0,0,-10,1000,163,0,512,0,0,0,0,0,-4056,0,138,157,168,138,1,8,0,1,1,0,0,4.396484385773716,0,0,0,0,0,-4,0,0,0,4,"",""
127,61373067,0,0,0,0,0,0,0,0,0,0,0,-10,1000,163,0,512,0,0,0,0,0,-4056,0,138,157,169,138,1,8,0,1,1,0,0,4.396484385773716,0,0,0,0,0,-4,0,0,0,4,"",""
128,61374379,0,0,0,0,0,0,0,0,0,0,0,-10,1000,163,0,512,0,0,0,0,0,-4056,0,138,157,168,138,1,8,0,1,1,0,0,4.396484385773716,0,0,0,0,0,-4,0,0,0,4,"",""
129,61375711,0,0,0,0,0,0,0,0,0,0,0,-10,1000,163,0,512,0,0,0,0,0,-4056,0,138,157,168,138,1,8,0,1,1,0,0,4.396484385773716,0,0,0,0,0,-4,0,0,0,4,"",""
130,61377044,0,0,0,0,0,0,0,0,0,0,0,-10,1000,163,0,512,0,0,0,0,0,-4056,0,138,157,169,138,1,8,0,1,1,0,0,4.396484385773716,0,0,0,0,0,-4,0,0,0,4,"",""
131,61378367,0,0,0,0,0,0,0,0,0,0,0,-10,1000,163,0,512,0,0,0,0,0,-4056,0,138,157,168,138,1,8,0,1,1,0,0,4.396484385773716,0,0,0,0,0,-4,0,0,0,4,"",""
132,61379684,0,0,0,0,0,0,0,0,0,0,0,-10,1000,163,0,512,0,0,0,0,0,-4056,0,138,157,168,138,1,8,0,1,1,0,0,4.396484385773716,0,0,0,0,0,-4,0,0,0,4,"",""
133,61380997,0,0,0,0,0,0,0,0,0,0,0,-10,1000,163,0,512,0,0,0,0,0,-4056,0,138,157,168,138,1,8,0,1,1,0,0,4.396484385773716,0,0,0,0,0,-4,0,0,0,4,"",""
134,61382309,0,0,0,0,0,0,0,0,0,0,0,-10,1000,163,0,512,0,0,0,0,0,-4056,0,138,157,168,138,1,8,0,1,1,0,0,4.396484385773716,0,0,0,0,0,-4,0,0,0,4,"",""
135,61383631,0,0,0,0,0,0,0,0,0,0,0,-10,1000,163,0,512,0,0,0,0,0,-4056,0,138,157,168,138,1,8,0,1,1,0,0,4.396484385773716,0,0,0,0,0,-4,0,0,0,4,"",""
136,61385100,0,0,0,0,0,0,0,0,0,0,0,-10,1000,163,0,512,0,0,0,0,0,-4056,0,138,157,168,138,1,8,0,1,1,0,0,4.396484385773716,0,0,0,0,0,-4,0,0,0,4,"",""
137,61386563,0,0,0,0,0,0,0,0,0,0,0,-10,1000,163,0,512,0,0,0,0,0,-4056,0,138,157,169,138,1,8,0,1,1,0,0,4.396484385773716,0,0,0,0,0,-4,0,0,0,4,"",""
138,61387883,0,0,0,0,0,0,0,0,0,0,0,-10,1000,163,0,512,0,0,0,0,0,-4056,0,138,157,168,138,1,8,0,1,1,0,0,4.396484385773716,0,0,0,0,0,-4,0,0,0,4,"",""
139,61389211,0,0,0,0,0,0,0,0,0,0,0,-10,1000,163,0,512,0,0,0,0,0,-4056,0,138,157,168,138,1,8,0,1,1,0,0,4.396484385773716,0,0,0,0,0,-4,0,0,0,4,"",""
140,61390521,0,0,0,0,0,0,0,0,0,0,0,-10,1000,163,0,512,0,0,0,0,0,-4056,0,138,158,168,138,1,8,0,1,1,0,0,4.396484385773716,0,0,0,0,0,-4,0,0,0,4,"",""
141,61391851,0,0,0,0,0,0,0,0,0,0,0,-10,1000,163,0,512,0,0,0,0,0,-4056,0,138,157,168,138,1,8,0,1,1,0,0,4.396484385773716,0,0,0,0,0,-4,0,0,0,4,"",""
142,61393163,0,0,0,0,0,0,0,0,0,0,0,-10,1000,163,0,512,0,0,0,0,0,-4056,0,138,157,168,138,1,8,0,1,1,0,0,4.396484385773716,0,0,0,0,0,-4,0,0,0,4,"",""
143,61394487,0,0,0,0,0,0,0,0,0,0,0,-10,1000,163,0,512,0,0,0,0,0,-4056,0,138,157,168,138,1,8,0,1,1,0,0,4.396484385773716,0,0,0,0,0,-4,0,0,0,4,"",""
144,61395815,0,0,0,0,0,0,0,0,0,0,0,-10,1000,163,0,512,0,0,0,0,0,-4056,0,138,157,169,138,1,8,0,1,1,0,0,4.396484385773716,0,0,0,0,0,-4,0,0,0,4,"",""
145,61397130,0,0,0,0,0,0,0,0,0,0,0,-10,1000,163,0,512,0,0,0,0,0,-4056,0,138,157,169,138,1,8,0,1,1,0,0,4.396484385773716,0,0,0,0,0,-4,0,0,0,4,"",""
146,61398447,0,0,0,0,0,0,0,0,0,0,0,-10,1000,163,0,512,0,0,0,0,0,-4056,0,138,157,169,138,1,8,0,1,1,0,0,4.396484385773716,0,0,0,0,0,-4,0,0,0,4,"",""
147,61399765,0,0,0,0,0,0,0,0,0,0,0,-10,1000,163,0,512,0,0,0,0,0,-4056,0,138,157,168,138,1,8,0,1,1,0,0,4.396484385773716,0,0,0,0,0,-4,0,0,0,4,"",""
148,61401082,0,0,0,0,0,0,0,0,0,0,0,-10,1000,163,0,512,0,0,0,0,0,-4056,0,138,157,168,138,1,8,0,1,1,0,0,4.396484385773716,0,0,0,0,0,-4,0,0,0,4,"",""
149,61402396,0,0,0,0,0,0,0,0,0,0,0,-10,1000,163,0,512,0,0,0,0,0,-4056,0,138,157,168,138,1,8,0,1,1,0,0,4.396484385773716,0,0,0,0,0,-4,0,0,0,4,"",""
150,61403728,0,0,0,0,0,0,0,0,0,0,0,-10,1000,163,0,512,0,0,0,0,0,-4056,0,138,157,168,138,1,8,0,1,1,0,0,4.396484385773716,0,0,0,0,0,-4,0,0,0,4,"",""
151,61405053,0,0,0,0,0,0,0,0,0,0,0,-10,1000,163,0,512,0,0,0,0,0,-4056,0,138,157,167,138,1,8,0,1,1,0,0,4.396484385773716,0,0,0,0,0,-4,0,0,0,4,"",""
152,61406365,0,0,0,0,0,0,0,0,0,0,0,-10,1000,163,0,512,0,0,0,0,0,-4056,0,138,157,168,138,1,8,0,1,1,0,0,4.396484385773716,0,0,0,0,0,-4,0,0,0,4,"",""
153,61407680,0,0,0,0,0,0,0,0,0,0,0,-10,1000,163,0,512,0,0,0,0,0,-4056,0,138,157,168,138,1,8,0,1,1,0,0,4.396484385773716,0,0,0,0,0,-4,0,0,0,4,"",""
154,61409001,0,0,0,0,0,0,0,0,0,0,0,-10,1000,163,0,512,0,0,0,0,0,-4056,0,138,157,168,138,1,8,0,1,1,0,0,4.396484385773716,0,0,0,0,0,-4,0,0,0,4,"",""
155,61410310,0,0,0,0,0,0,0,0,0,0,0,-10,1000,163,0,512,0,0,0,0,0,-4056,0,138,157,168,138,1,8,0,1,1,0,0,4.396484385773716,0,0,0,0,0,-4,0,0,0,4,"",""
156,61411637,0,0,0,0,0,0,0,0,0,0,0,-10,1000,163,0,512,0,0,0,0,0,-4056,0,138,156,169,138,1,8,0,1,1,0,0,4.396484385773716,0,0,0,0,0,-4,0,0,0,4,"",""
157,61412971,0,0,0,0,0,0,0,0,0,0,0,-10,1000,163,0,512,0,0,0,0,0,-4056,0,138,156,168,138,1,8,0,1,1,0,0,4.396484385773716,0,0,0,0,0,-4,0,0,0,4,"",""
158,61414309,0,0,0,0,0,0,0,0,0,0,0,-10,1000,163,0,512,0,0,0,0,0,-4056,0,138,156,169,138,1,8,0,1,1,0,0,4.396484385773716,0,0,0,0,0,-4,0,0,0,4,"",""
159,61415774,0,0,0,0,0,0,0,0,0,0,0,-10,1000,163,0,512,0,0,0,0,0,-4056,0,138,156,169,138,1,8,0,1,1,0,0,4.396484385773716,0,0,0,0,0,-4,0,0,0,4,"",""
160,61417225,0,0,0,0,0,0,0,0,0,0,0,-10,1000,163,0,512,0,0,0,0,0,-4056,0,138,156,168,138,1,8,0,1,1,0,0,4.396484385773716,0,0,0,0,0,-4,0,0,0,4,"",""
161,61418537,0,0,0,0,0,0,0,0,0,0,0,-10,1000,163,0,512,0,0,0,0,0,-4056,0,138,157,169,138,1,8,0,1,1,0,0,4.396484385773716,0,0,0,0,0,-4,0,0,0,4,"",""
162,61419844,0,0,0,0,0,0,0,0,0,0,0,-10,1000,163,0,512,0,0,0,0,0,-4056,0,138,157,169,138,1,8,0,1,1,0,0,4.396484385773716,0,0,0,0,0,-4,0,0,0,4,"",""
163,61421171,0,0,0,0,0,0,0,0,0,0,0,-10,1000,163,0,512,0,0,0,0,0,-4056,0,138,157,169,138,1,8,0,1,1,0,0,4.396484385773716,0,0,0,0,0,-4,0,0,0,4,"",""
164,61422499,0,0,0,0,0,0,0,0,0,0,0,-10,1000,163,0,512,0,0,0,0,0,-4056,0,138,157,169,138,1,8,0,1,1,0,0,4.396484385773716,0,0,0,0,0,-4,0,0,0,4,"",""
165,61423816,0,0,0,0,0,0,0,0,0,0,0,-10,1000,163,0,512,0,0,0,0,0,-4056,0,138,158,169,138,1,8,0,1,1,0,0,4.396484385773716,0,0,0,0,0,-4,0,0,0,4,"",""
166,61425138,0,0,0,0,0,0,0,0,0,0,0,-10,1000,163,0,512,0,0,0,0,0,-4056,0,138,157,169,138,1,8,0,1,1,0,0,4.396484385773716,0,0,0,0,0,-4,0,0,0,4,"",""
167,61426448,0,0,0,0,0,0,0,0,0,0,0,-10,1000,163,0,512,0,0,0,0,0,-4056,0,138,157,169,138,1,8,0,1,1,0,0,4.396484385773716,0,0,0,0,0,-4,0,0,0,4,"",""
168,61427769,0,0,0,0,0,0,0,0,0,0,0,-10,1000,163,0,512,0,0,0,0,0,-4056,0,138,157,169,138,1,8,0,1,1,0,0,4.396484385773716,0,0,0,0,0,-4,0,0,0,4,"",""
169,61429087,0,0,0,0,0,0,0,0,0,0,0,-10,1000,163,0,512,0,0,0,0,0,-4056,0,138,157,169,138,1,8,0,1,1,0,0,4.396484385773716,0,0,0,0,0,-4,0,0,0,4,"",""
170,61430416,0,0,0,0,0,0,0,0,0,0,0,-10,1000,163,0,512,0,0,0,0,0,-4056,0,138,156,168,138,1,8,0,1,1,0,0,4.396484385773716,0,0,0,0,0,-4,0,0,0,4,"",""
171,61431750,0,0,0,0,0,0,0,0,0,0,0,-10,1000,163,0,512,0,0,0,0,0,-4056,0,138,157,169,139,1,8,0,1,1,0,0,4.396484385773716,0,0,0,0,0,-4,0,0,0,4,"",""
172,61433067,0,0,0,0,0,0,0,0,0,0,0,-10,1000,163,0,512,0,0,0,0,0,-4056,0,138,157,169,138,1,8,0,1,1,0,0,4.396484385773716,0,0,0,0,0,-4,0,0,0,4,"",""
173,61434376,0,0,0,0,0,0,0,0,0,0,0,-10,1000,163,0,512,0,0,0,0,0,-4056,0,138,156,168,138,1,8,0,1,1,0,0,4.396484385773716,0,0,0,0,0,-4,0,0,0,4,"",""
174,61435691,0,0,0,0,0,0,0,0,0,0,0,-10,1000,163,0,512,0,0,0,0,0,-4056,0,138,156,168,138,1,8,0,1,1,0,0,4.396484385773716,0,0,0,0,0,-4,0,0,0,4,"",""
175,61437007,0,0,0,0,0,0,0,0,0,0,0,-10,1000,163,0,512,0,0,0,0,0,-4056,0,138,156,169,138,1,8,0,1,1,0,0,4.396484385773716,0,0,0,0,0,-4,0,0,0,4,"",""
176,61438318,0,0,0,0,0,0,0,0,0,0,0,-10,1000,163,0,512,0,0,0,0,0,-4056,0,138,156,169,138,1,8,0,1,1,0,0,4.396484385773716,0,0,0,0,0,-4,0,0,0,4,"",""
177,61439655,0,0,0,0,0,0,0,0,0,0,0,-10,1000,163,0,512,0,0,0,0,0,-4056,0,138,156,169,138,1,8,0,1,1,0,0,4.396484385773716,0,0,0,0,0,-4,0,0,0,4,"",""
178,61440992,0,0,0,0,0,0,0,0,0,0,0,-10,1000,163,0,512,0,0,0,0,0,-4056,0,138,156,169,138,1,8,0,1,1,0,0,4.396484385773716,0,0,0,0,0,-4,0,0,0,4,"",""
179,61442313,0,0,0,0,0,0,0,0,0,0,0,-10,1000,163,0,512,0,0,0,0,0,-4056,0,138,156,169,139,1,8,0,1,1,0,0,4.396484385773716,0,0,0,0,0,-4,0,0,0,4,"",""
180,61443639,0,0,0,0,0,0,0,0,0,0,0,-10,1000,163,0,512,0,0,0,0,0,-4056,0,138,156,169,138,1,8,0,1,1,0,0,4.396484385773716,0,0,0,0,0,-4,0,0,0,4,"",""
181,61445095,0,0,0,0,0,0,0,0,0,0,0,-10,1000,163,0,512,0,0,0,0,0,-4056,0,138,156,169,138,1,8,0,1,1,0,0,4.396484385773716,0,0,0,0,0,-4,0,0,0,4,"",""
182,61446545,0,0,0,0,0,0,0,0,0,0,0,-10,1000,163,0,512,0,0,0,0,0,-4056,0,138,156,169,138,1,8,0,1,1,0,0,4.396484385773716,0,0,0,0,0,-4,0,0,0,4,"",""
183,61447884,0,0,0,0,0,0,0,0,0,0,0,-10,1000,163,0,512,0,0,0,0,0,-4056,0,138,156,169,138,1,8,0,1,1,0,0,4.396484385773716,0,0,0,0,0,-4,0,0,0,4,"",""
184,61449219,0,0,0,0,0,0,0,0,0,0,0,-10,1000,163,0,512,0,0,0,0,0,-4056,0,138,156,169,138,1,8,0,1,1,0,0,4.396484385773716,0,0,0,0,0,-4,0,0,0,4,"",""
185,61450535,0,0,0,0,0,0,0,0,0,0,0,-10,1000,163,0,512,0,0,0,0,0,-4056,0,138,156,170,139,1,8,0,1,1,0,0,4.396484385773716,0,0,0,0,0,-4,0,0,0,4,"",""
186,61451851,0,0,0,0,0,0,0,0,0,0,0,-10,1000,163,0,512,0,0,0,0,0,-4056,0,138,156,171,139,1,8,0,1,1,0,0,4.396484385773716,0,0,0,0,0,-4,0,0,0,4,"",""
187,61453164,0,0,0,0,0,0,0,0,0,0,0,-10,1000,163,0,512,0,0,0,0,0,-4056,0,138,157,171,140,1,8,0,1,1,0,0,4.396484385773716,0,0,0,0,0,-4,0,0,0,4,"",""
188,61454481,0,0,0,0,0,0,0,0,0,0,0,-10,1000,163,0,512,0,0,0,0,0,-4056,0,138,157,171,140,1,8,0,1,1,0,0,4.396484385773716,0,0,0,0,0,-4,0,0,0,4,"",""
189,61455805,0,0,0,0,0,0,0,0,0,0,0,-10,1000,163,0,512,0,0,0,0,0,-4056,0,138,157,171,139,1,8,0,1,1,0,0,4.396484385773716,0,0,0,0,0,-4,0,0,0,4,"",""
190,61457135,0,0,0,0,0,0,0,0,0,0,0,-10,1000,163,0,512,0,0,0,0,0,-4056,0,138,157,170,139,1,8,0,1,1,0,0,4.396484385773716,0,0,0,0,0,-4,0,0,0,4,"",""
191,61458495,0,0,0,0,0,0,0,0,0,0,0,-10,1000,163,0,512,0,0,0,0,0,-4056,0,138,156,170,139,1,8,0,1,1,0,0,4.396484385773716,0,0,0,0,0,-4,0,0,0,4,"",""
192,61459819,0,0,0,0,0,0,0,0,0,0,0,-10,1000,163,0,512,0,0,0,0,0,-4056,0,138,156,171,139,1,8,0,1,1,0,0,4.396484385773716,0,0,0,0,0,-4,0,0,0,4,"",""
193,61461134,0,0,0,0,0,0,0,0,0,0,0,-10,1000,163,0,512,0,0,0,0,0,-4056,0,138,157,171,140,1,8,0,1,1,0,0,4.396484385773716,0,0,0,0,0,-4,0,0,0,4,"",""
194,61462449,0,0,0,0,0,0,0,0,0,0,0,-10,1000,163,0,512,0,0,0,0,0,-4056,0,138,156,171,139,1,8,0,1,1,0,0,4.396484385773716,0,0,0,0,0,-4,0,0,0,4,"",""
195,61463776,0,0,0,0,0,0,0,0,0,0,0,-10,1000,163,0,512,0,0,0,0,0,-4056,0,138,157,170,139,1,8,0,1,1,0,0,4.396484385773716,0,0,0,0,0,-4,0,0,0,4,"",""
196,61465095,0,0,0,0,0,0,0,0,0,0,0,-10,1000,163,0,512,0,0,0,0,0,-4056,0,138,157,171,139,1,8,0,1,1,0,0,4.396484385773716,0,0,0,0,0,-4,0,0,0,4,"",""
197,61466421,0,0,0,0,0,0,0,0,0,0,0,-10,1000,163,0,512,0,0,0,0,0,-4056,0,138,157,171,140,1,8,0,1,1,0,0,4.396484385773716,0,0,0,0,0,-4,0,0,0,4,"",""
198,61467753,0,0,0,0,0,0,0,0,0,0,0,-10,1000,163,0,512,0,0,0,0,0,-4056,0,138,157,170,139,1,8,0,1,1,0,0,4.396484385773716,0,0,0,0,0,-4,0,0,0,4,"",""
199,61469071,0,0,0,0,0,0,0,0,0,0,0,-10,1000,163,0,512,0,0,0,0,0,-4056,0,138,157,171,140,1,8,0,1,1,0,0,4.396484385773716,0,0,0,0,0,-4,0,0,0,4,"",""
200,61470388,0,0,0,0,0,0,0,0,0,0,0,-10,1000,163,0,512,0,0,0,0,0,-4056,0,138,157,171,140,1,8,0,1,1,0,0,4.396484385773716,0,0,0,0,0,-4,0,0,0,4,"",""
201,61471705,0,0,0,0,0,0,0,0,0,0,0,-10,1000,163,0,512,0,0,0,0,0,-4056,0,138,157,171,140,1,8,0,1,1,0,0,4.396484385773716,0,0,0,0,0,-4,0,0,0,4,"",""
202,61473018,0,0,0,0,0,0,0,0,0,0,0,-10,1000,163,0,512,0,0,0,0,0,-4056,0,138,157,170,139,1,8,0,1,1,0,0,4.396484385773716,0,0,0,0,0,-4,0,0,0,4,"",""
203,61474349,0,0,0,0,0,0,0,0,0,0,0,-10,1000,163,0,512,0,0,0,0,0,-4056,0,138,157,170,139,1,8,0,1,1,0,0,4.396484385773716,0,0,0,0,0,-4,0,0,0,4,"",""
204,61475819,0,0,0,0,0,0,0,0,0,0,0,-10,1000,163,0,512,0,0,0,0,0,-4056,0,138,157,170,139,1,8,0,1,1,0,0,4.396484385773716,0,0,0,0,0,-4,0,0,0,4,"",""
205,61477292,0,0,0,0,0,0,0,0,0,0,0,-10,1000,163,0,512,0,0,0,0,0,-4056,0,138,157,170,139,1,8,0,1,1,0,0,4.396484385773716,0,0,0,0,0,-4,0,0,0,4,"",""
206,61478610,0,0,0,0,0,0,0,0,0,0,0,-10,1000,163,39,512,0,0,0,0,0,-4056,0,138,157,170,139,1,8,0,1,1,0,0,4.396484385773716,0,0,0,0,0,-4,0,0,0,4,"",""
207,61479922,0,0,0,0,0,0,0,0,0,0,0,-10,1000,163,39,512,0,0,0,0,0,-4056,0,138,157,171,140,1,8,0,1,1,0,0,4.396484385773716,0,0,0,0,0,-4,0,0,0,4,"",""
208,61481236,0,0,0,0,0,0,0,0,0,0,0,-10,1000,163,39,512,0,0,0,0,0,-4056,0,138,157,171,140,1,8,0,1,1,0,0,4.396484385773716,0,0,0,0,0,-4,0,0,0,4,"",""
209,61482551,0,0,0,0,0,0,0,0,0,0,0,-10,1000,163,39,512,0,0,0,0,0,-4056,0,138,156,171,140,1,8,0,1,1,0,0,4.396484385773716,0,0,0,0,0,-4,0,0,0,4,"",""
210,61483881,0,0,0,0,0,0,0,0,0,0,0,-10,1000,163,39,512,0,0,0,0,0,-4056,0,138,156,170,139,1,8,0,1,1,0,0,4.396484385773716,0,0,0,0,0,-4,0,0,0,4,"",""
211,61485216,0,0,0,0,0,0,0,0,0,0,0,-10,1000,163,39,512,0,0,0,0,0,-4056,0,138,157,171,140,1,8,0,1,1,0,0,4.396484385773716,0,0,0,0,0,-4,0,0,0,4,"",""
212,61486544,0,0,0,0,0,0,0,0,0,0,0,-10,1000,163,39,512,0,0,0,0,0,-4056,0,138,157,171,140,1,8,0,1,1,0,0,4.396484385773716,0,0,0,0,0,-4,0,0,0,4,"",""
213,61487868,0,0,0,0,0,0,0,0,0,0,0,-10,1000,163,39,512,0,0,0,0,0,-4056,0,138,157,170,140,1,8,0,1,1,0,0,4.396484385773716,0,0,0,0,0,-4,0,0,0,4,"",""
214,61489187,0,0,0,0,0,0,0,0,0,0,0,-10,1000,163,39,512,0,0,0,0,0,-4056,0,138,157,170,140,1,8,0,1,1,0,0,4.396484385773716,0,0,0,0,0,-4,0,0,0,4,"",""
215,61490504,0,0,0,0,0,0,0,0,0,0,0,-10,1000,163,39,512,0,0,0,0,0,-4056,0,138,157,171,140,1,8,0,1,1,0,0,4.396484385773716,0,0,0,0,0,-4,0,0,0,4,"",""
216,61491821,0,0,0,0,0,0,0,0,0,0,0,-10,1000,163,39,512,0,0,0,0,0,-4056,0,138,157,170,139,1,8,0,1,1,0,0,4.396484385773716,0,0,0,0,0,-4,0,0,0,4,"",""
217,61493147,0,0,0,0,0,0,0,0,0,0,0,-10,1000,163,39,512,0,0,0,0,0,-4056,0,138,157,170,139,1,8,0,1,1,0,0,4.396484385773716,0,0,0,0,0,-4,0,0,0,4,"",""
218,61494484,0,0,0,0,0,0,0,0,0,0,0,-10,1000,163,39,512,0,0,0,0,0,-4056,0,138,157,170,139,1,8,0,1,1,0,0,4.396484385773716,0,0,0,0,0,-4,0,0,0,4,"",""
219,61495803,0,0,0,0,0,0,0,0,0,0,0,-10,1000,163,39,512,0,0,0,0,0,-4056,0,138,157,170,139,1,8,0,1,1,0,0,4.396484385773716,0,0,0,0,0,-4,0,0,0,4,"",""
220,61497118,0,0,0,0,0,0,0,0,0,0,0,-10,1000,163,39,512,0,0,0,0,0,-4056,0,138,156,170,139,1,8,0,1,1,0,0,4.396484385773716,0,0,0,0,0,-4,0,0,0,4,"",""
221,61498430,0,0,0,0,0,0,0,0,0,0,0,-10,1000,163,0,512,0,0,0,0,0,-4056,0,138,157,170,139,1,8,0,1,1,0,0,4.396484385773716,0,0,0,0,0,-4,0,0,0,4,"",""
222,61499745,0,0,0,0,0,0,0,0,0,0,0,-10,1000,163,0,512,0,0,0,0,0,-4056,0,138,157,170,139,1,8,0,1,1,0,0,4.396484385773716,0,0,0,0,0,-4,0,0,0,4,"",""
223,61501063,0,0,0,0,0,0,0,0,0,0,0,-10,1000,163,0,512,0,0,0,0,0,-4056,0,138,156,170,139,1,8,0,1,1,0,0,4.396484385773716,0,0,0,0,0,-4,0,0,0,4,"",""
224,61502390,0,0,0,0,0,0,0,0,0,0,0,-10,1000,163,0,512,0,0,0,0,0,-4056,0,138,156,170,139,1,8,0,1,1,0,0,4.396484385773716,0,0,0,0,0,-4,0,0,0,4,"",""
225,61503748,0,0,0,0,0,0,0,0,0,0,0,-10,1000,163,0,512,0,0,0,0,0,-4056,0,138,157,170,139,1,8,0,1,1,0,0,4.396484385773716,0,0,0,0,0,-4,0,0,0,4,"",""
226,61505202,0,0,0,0,0,0,0,0,0,0,0,-10,1000,163,0,512,0,0,0,0,0,-4056,0,138,156,170,138,1,8,0,1,1,0,0,4.396484385773716,0,0,0,0,0,-4,0,0,0,4,"",""
227,61506650,0,0,0,0,0,0,0,0,0,0,0,-10,1000,163,0,512,0,0,0,0,0,-4056,0,138,156,170,138,1,8,0,1,1,0,0,4.396484385773716,0,0,0,0,0,-4,0,0,0,4,"",""
228,61507970,0,0,0,0,0,0,0,0,0,0,0,-10,1000,163,0,512,0,0,0,0,0,-4056,0,138,157,170,139,1,8,0,1,1,0,0,4.396484385773716,0,0,0,0,0,-4,0,0,0,4,"",""
229,61509283,0,0,0,0,0,0,0,0,0,0,0,-10,1000,163,0,512,0,0,0,0,0,-4056,0,138,157,170,139,1,8,0,1,1,0,0,4.396484385773716,0,0,0,0,0,-4,0,0,0,4,"",""
230,61510607,0,0,0,0,0,0,0,0,0,0,0,-10,1000,163,0,512,0,0,0,0,0,-4056,0,138,157,169,138,1,8,0,1,1,0,0,4.396484385773716,0,0,0,0,0,-4,0,0,0,4,"",""
231,61511953,0,0,0,0,0,0,0,0,0,0,0,-10,1000,163,0,512,0,0,0,0,0,-4056,0,138,157,170,139,1,8,0,1,1,0,0,4.396484385773716,0,0,0,0,0,-4,0,0,0,4,"",""
232,61513285,0,0,0,0,0,0,0,0,0,0,0,-10,1000,163,0,512,0,0,0,0,0,-4056,0,138,156,169,138,1,8,0,1,1,0,0,4.396484385773716,0,0,0,0,0,-4,0,0,0,4,"",""
233,61514606,0,0,0,0,0,0,0,0,0,0,0,-10,1000,163,0,512,0,0,0,0,0,-4056,0,138,156,169,138,1,8,0,1,1,0,0,4.396484385773716,0,0,0,0,0,-4,0,0,0,4,"",""
234,61515922,0,0,0,0,0,0,0,0,0,0,0,-10,1000,163,0,512,0,0,0,0,0,-4056,0,138,156,169,138,1,8,0,1,1,0,0,4.396484385773716,0,0,0,0,0,-4,0,0,0,4,"",""
235,61517236,0,0,0,0,0,0,0,0,0,0,0,-10,1000,163,0,512,0,0,0,0,0,-4056,0,138,156,169,138,1,8,0,1,1,0,0,4.396484385773716,0,0,0,0,0,-4,0,0,0,4,"",""
236,61518552,0,0,0,0,0,0,0,0,0,0,0,-10,1000,163,5,512,0,0,0,0,0,-4056,0,138,156,170,139,1,8,0,1,1,0,0,4.396484385773716,0,0,0,0,0,-4,0,0,0,4,"",""
237,61519889,0,0,0,0,0,0,0,0,0,0,0,-10,1000,163,5,512,0,0,0,0,0,-4056,0,138,157,170,139,1,8,0,1,1,0,0,4.396484385773716,0,0,0,0,0,-4,0,0,0,4,"",""
238,61521217,0,0,0,0,0,0,0,0,0,0,0,-10,1000,163,5,512,0,0,0,0,0,-4056,0,138,157,170,139,1,8,0,1,1,0,0,4.396484385773716,0,0,0,0,0,-4,0,0,0,4,"",""
239,61522542,0,0,0,0,0,0,0,0,0,0,0,-10,1000,163,5,512,0,0,0,0,0,-4056,0,138,157,170,139,1,8,0,1,1,0,0,4.396484385773716,0,0,0,0,0,-4,0,0,0,4,"",""
240,61523864,0,0,0,0,0,0,0,0,0,0,0,-10,1000,163,5,512,0,0,0,0,0,-4056,0,138,157,170,138,1,8,0,1,1,0,0,4.396484385773716,0,0,0,0,0,-4,0,0,0,4,"",""
241,61525174,0,0,0,0,0,0,0,0,0,0,0,-10,1000,163,5,512,0,0,0,0,0,-4056,0,138,156,169,138,1,8,0,1,1,0,0,4.396484385773716,0,0,0,0,0,-4,0,0,0,4,"",""
242,61526487,0,0,0,0,0,0,0,0,0,0,0,-10,1000,163,5,512,0,0,0,0,0,-4056,0,138,156,169,138,1,8,0,1,1,0,0,4.396484385773716,0,0,0,0,0,-4,0,0,0,4,"",""
243,61527798,0,0,0,0,0,0,0,0,0,0,0,-10,1000,163,5,512,0,0,0,0,0,-4056,0,138,156,169,138,1,8,0,1,1,0,0,4.396484385773716,0,0,0,0,0,-4,0,0,0,4,"",""
244,61529132,0,0,0,0,0,0,0,0,0,0,0,-10,1000,163,5,512,0,0,0,0,0,-4056,0,138,156,169,138,1,8,0,1,1,0,0,4.396484385773716,0,0,0,0,0,-4,0,0,0,4,"",""
245,61530460,0,0,0,0,0,0,0,0,0,0,0,-10,1000,163,5,512,0,0,0,0,0,-4056,0,138,156,169,138,1,8,0,1,1,0,0,4.396484385773716,0,0,0,0,0,-4,0,0,0,4,"",""
246,61531778,0,0,0,0,0,0,0,0,0,0,0,-10,1000,163,5,512,0,0,0,0,0,-4056,0,138,156,169,138,1,8,0,1,1,0,0,4.396484385773716,0,0,0,0,0,-4,0,0,0,4,"",""
247,61533094,0,0,0,0,0,0,0,0,0,0,0,-10,1000,163,5,512,0,0,0,0,0,-4056,0,138,156,169,138,1,8,0,1,1,0,0,4.396484385773716,0,0,0,0,0,-4,0,0,0,4,"",""
248,61534423,0,0,0,0,0,0,0,0,0,0,0,-10,1000,163,5,512,0,0,0,0,0,-4056,0,138,156,169,138,1,8,0,1,1,0,0,4.396484385773716,0,0,0,0,0,-4,0,0,0,4,"",""
249,61535885,0,0,0,0,0,0,0,0,0,0,0,-10,1000,163,5,512,0,0,0,0,0,-4056,0,138,156,169,138,1,8,0,1,1,0,0,4.396484385773716,0,0,0,0,0,-4,0,0,0,4,"",""
250,61537343,0,0,0,0,0,0,0,0,0,0,0,-10,1000,163,5,512,0,0,0,0,0,-4056,0,138,156,169,138,1,8,0,1,1,0,0,4.396484385773716,0,0,0,0,0,-4,0,0,0,4,"",""
251,61538676,0,0,0,0,0,0,0,0,0,0,0,-10,1000,163,0,512,0,0,0,0,0,-4056,0,138,156,169,138,1,8,0,1,1,0,0,4.396484385773716,0,0,0,0,0,-4,0,0,0,4,"",""
252,61540012,0,0,0,0,0,0,0,0,0,0,0,-10,1000,163,0,512,0,0,0,0,0,-4056,0,138,156,168,138,1,8,0,1,1,0,0,4.396484385773716,0,0,0,0,0,-4,0,0,0,4,"",""
253,61541325,0,0,0,0,0,0,0,0,0,0,0,-10,1000,163,0,512,0,0,0,0,0,-4056,0,138,156,169,138,1,8,0,1,1,0,0,4.396484385773716,0,0,0,0,0,-4,0,0,0,4,"",""
254,61542642,0,0,0,0,0,0,0,0,0,0,0,-10,1000,163,0,512,0,0,0,0,0,-4056,0,138,156,169,138,1,8,0,1,1,0,0,4.396484385773716,0,0,0,0,0,-4,0,0,0,4,"",""
255,61543958,0,0,0,0,0,0,0,0,0,0,0,-10,1000,163,0,512,0,0,0,0,0,-4056,0,138,156,168,138,1,8,0,1,1,0,0,4.396484385773716,0,0,0,0,0,-4,0,0,0,4,"",""
256,61545273,0,0,0,0,0,0,0,0,0,0,0,-10,1000,163,0,512,0,0,0,0,0,-4056,0,138,156,168,138,1,8,0,1,1,0,0,4.396484385773716,0,0,0,0,0,-4,0,0,0,4,"",""
257,61546601,0,0,0,0,0,0,0,0,0,0,0,-10,1000,163,0,512,0,0,0,0,0,-4056,0,138,156,168,138,1,8,0,1,1,0,0,4.396484385773716,0,0,0,0,0,-4,0,0,0,4,"",""
258,61547931,0,0,0,0,0,0,0,0,0,0,0,-10,1000,163,0,512,0,0,0,0,0,-4056,0,138,156,168,138,1,8,0,1,1,0,0,4.396484385773716,0,0,0,0,0,-4,0,0,0,4,"",""
259,61549261,0,0,0,0,0,0,0,0,0,0,0,-10,1000,163,0,512,0,0,0,0,0,-4056,0,138,156,168,138,1,8,0,1,1,0,0,4.396484385773716,0,0,0,0,0,-4,0,0,0,4,"",""
260,61550588,0,0,0,0,0,0,0,0,0,0,0,-10,1000,163,0,512,0,0,0,0,0,-4056,0,138,156,168,138,1,8,0,1,1,0,0,4.396484385773716,0,0,0,0,0,-4,0,0,0,4,"",""
261,61551905,0,0,0,0,0,0,0,0,0,0,0,-10,1000,163,0,512,0,0,0,0,0,-4056,0,138,156,169,139,1,8,0,1,1,0,0,4.396484385773716,0,0,0,0,0,-4,0,0,0,4,"",""
262,61553217,0,0,0,0,0,0,0,0,0,0,0,-10,1000,163,0,512,0,0,0,0,0,-4056,0,138,156,168,138,1,8,0,1,1,0,0,4.396484385773716,0,0,0,0,0,-4,0,0,0,4,"",""
263,61554532,0,0,0,0,0,0,0,0,0,0,0,-10,1000,163,0,512,0,0,0,0,0,-4056,0,138,156,169,139,1,8,0,1,1,0,0,4.396484385773716,0,0,0,0,0,-4,0,0,0,4,"",""
264,61555862,0,0,0,0,0,0,0,0,0,0,0,-10,1000,163,0,512,0,0,0,0,0,-4056,0,138,156,169,139,1,8,0,1,1,0,0,4.396484385773716,0,0,0,0,0,-4,0,0,0,4,"",""
265,61557191,0,0,0,0,0,0,0,0,0,0,0,-10,1000,163,0,512,0,0,0,0,0,-4056,0,138,156,168,139,1,8,0,1,1,0,0,4.396484385773716,0,0,0,0,0,-4,0,0,0,4,"",""
266,61558523,0,0,0,0,0,0,0,0,0,0,0,-10,1000,163,0,512,0,0,0,0,0,-4056,0,138,156,169,139,1,8,0,1,1,0,0,4.396484385773716,0,0,0,0,0,-4,0,0,0,4,"",""
267,61559851,0,0,0,0,0,0,0,0,0,0,0,-10,1000,163,0,512,0,0,0,0,0,-4056,0,138,156,169,138,1,8,0,1,1,0,0,4.396484385773716,0,0,0,0,0,-4,0,0,0,4,"",""
268,61561163,0,0,0,0,0,0,0,0,0,0,0,-10,1000,163,0,512,0,0,0,0,0,-4056,0,138,156,169,138,1,8,0,1,1,0,0,4.396484385773716,0,0,0,0,0,-4,0,0,0,4,"",""
269,61562480,0,0,0,0,0,0,0,0,0,0,0,-10,1000,163,0,512,0,0,0,0,0,-4056,0,138,156,168,138,1,8,0,1,1,0,0,4.396484385773716,0,0,0,0,0,-4,0,0,0,4,"",""
270,61563805,0,0,0,0,0,0,0,0,0,0,0,-10,1000,163,0,512,0,0,0,0,0,-4056,0,138,156,169,138,1,8,0,1,1,0,0,4.396484385773716,0,0,0,0,0,-4,0,0,0,4,"",""
271,61565282,0,0,0,0,0,0,0,0,0,0,0,-10,1000,163,0,512,0,0,0,0,0,-4056,0,138,157,169,139,1,8,0,1,1,0,0,4.396484385773716,0,0,0,0,0,-4,0,0,0,4,"",""
272,61566764,0,0,0,0,0,0,0,0,0,0,0,-10,1000,163,0,512,0,0,0,0,0,-4056,0,138,157,169,138,1,8,0,1,1,0,0,4.396484385773716,0,0,0,0,0,-4,0,0,0,4,"",""
273,61568087,0,0,0,0,0,0,0,0,0,0,0,-10,1000,163,0,512,0,0,0,0,0,-4056,0,138,157,169,139,1,8,0,1,1,0,0,4.396484385773716,0,0,0,0,0,-4,0,0,0,4,"",""
274,61569403,0,0,0,0,0,0,0,0,0,0,0,-10,1000,163,0,512,0,0,0,0,0,-4056,0,138,156,169,139,1,8,0,1,1,0,0,4.396484385773716,0,0,0,0,0,-4,0,0,0,4,"",""
275,61570720,0,0,0,0,0,0,0,0,0,0,0,-10,1000,163,0,512,0,0,0,0,0,-4056,0,138,156,169,138,1,8,0,1,1,0,0,4.396484385773716,0,0,0,0,0,-4,0,0,0,4,"",""
276,61572034,0,0,0,0,0,0,0,0,0,0,0,-10,1000,163,0,512,0,0,0,0,0,-4056,0,138,156,169,138,1,8,0,1,1,0,0,4.396484385773716,0,0,0,0,0,-4,0,0,0,4,"",""
277,61573350,0,0,0,0,0,0,0,0,0,0,0,-10,1000,163,0,512,0,0,0,0,0,-4056,0,138,156,169,139,1,8,0,1,1,0,0,4.396484385773716,0,0,0,0,0,-4,0,0,0,4,"",""
278,61574678,0,0,0,0,0,0,0,0,0,0,0,-10,1000,163,0,512,0,0,0,0,0,-4056,0,138,157,169,139,1,8,0,1,1,0,0,4.396484385773716,0,0,0,0,0,-4,0,0,0,4,"",""
279,61576020,0,0,0,0,0,0,0,0,0,0,0,-10,1000,163,0,512,0,0,0,0,0,-4056,0,138,156,169,138,1,8,0,1,1,0,0,4.396484385773716,0,0,0,0,0,-4,0,0,0,4,"",""
280,61577340,0,0,0,0,0,0,0,0,0,0,0,-10,1000,163,0,512,0,0,0,0,0,-4056,0,138,156,169,138,1,8,0,1,1,0,0,4.396484385773716,0,0,0,0,0,-4,0,0,0,4,"",""
281,61578649,0,0,0,0,0,0,0,0,0,0,0,-10,1000,163,0,512,0,0,0,0,0,-4056,0,138,157,169,138,1,8,0,1,1,0,0,4.396484385773716,0,0,0,0,0,-4,0,0,0,4,"",""
282,61579972,0,0,0,0,0,0,0,0,0,0,0,-10,1000,163,0,512,0,0,0,0,0,-4056,0,138,156,169,138,1,8,0,1,1,0,0,4.396484385773716,0,0,0,0,0,-4,0,0,0,4,"",""
283,61581289,0,0,0,0,0,0,0,0,0,0,0,-10,1000,163,0,512,0,0,0,0,0,-4056,0,138,156,169,138,1,8,0,1,1,0,0,4.396484385773716,0,0,0,0,0,-4,0,0,0,4,"",""
284,61582626,0,0,0,0,0,0,0,0,0,0,0,-10,1000,163,0,512,0,0,0,0,0,-4056,0,138,156,169,138,1,8,0,1,1,0,0,4.396484385773716,0,0,0,0,0,-4,0,0,0,4,"",""
285,61583965,0,0,0,0,0,0,0,0,0,0,0,-10,1000,163,0,512,0,0,0,0,0,-4056,0,138,156,169,138,1,8,0,1,1,0,0,4.396484385773716,0,0,0,0,0,-4,0,0,0,4,"",""
286,61585295,0,0,0,0,0,0,0,0,0,0,0,-10,1000,163,0,512,0,0,0,0,0,-4056,0,138,156,169,138,1,8,0,1,1,0,0,4.396484385773716,0,0,0,0,0,-4,0,0,0,4,"",""
287,61586623,0,0,0,0,0,0,0,0,0,0,0,-10,1000,163,0,512,0,0,0,0,0,-4056,0,138,157,169,139,1,8,0,1,1,0,0,4.396484385773716,0,0,0,0,0,-4,0,0,0,4,"",""
288,61587941,0,0,0,0,0,0,0,0,0,0,0,-10,1000,163,0,512,0,0,0,0,0,-4056,0,138,157,170,139,1,8,0,1,1,0,0,4.396484385773716,0,0,0,0,0,-4,0,0,0,4,"",""
289,61589258,0,0,0,0,0,0,0,0,0,0,0,-10,1000,163,0,512,0,0,0,0,0,-4056,0,138,157,169,139,1,8,0,1,1,0,0,4.396484385773716,0,0,0,0,0,-4,0,0,0,4,"",""
290,61590570,0,0,0,0,0,0,0,0,0,0,0,-10,1000,163,0,512,0,0,0,0,0,-4056,0,138,157,169,139,1,8,0,1,1,0,0,4.396484385773716,0,0,0,0,0,-4,0,0,0,4,"",""
291,61591899,0,0,0,0,0,0,0,0,0,0,0,-10,1000,163,0,512,0,0,0,0,0,-4056,0,138,157,169,139,1,8,0,1,1,0,0,4.396484385773716,0,0,0,0,0,-4,0,0,0,4,"",""
292,61593222,0,0,0,0,0,0,0,0,0,0,0,-10,1000,163,0,512,0,0,0,0,0,-4056,0,138,157,169,138,1,8,0,1,1,0,0,4.396484385773716,0,0,0,0,0,-4,0,0,0,4,"",""
293,61594556,0,0,0,0,0,0,0,0,0,0,0,-10,1000,163,0,512,0,0,0,0,0,-4056,0,138,157,169,139,1,8,0,1,1,0,0,4.396484385773716,0,0,0,0,0,-4,0,0,0,4,"",""
294,61596015,0,0,0,0,0,0,0,0,0,0,0,-10,1000,163,0,512,0,0,0,0,0,-4056,0,138,157,170,139,1,8,0,1,1,0,0,4.396484385773716,0,0,0,0,0,-4,0,0,0,4,"",""
295,61597472,0,0,0,0,0,0,0,0,0,0,0,-10,1000,163,0,512,0,0,0,0,0,-4056,0,138,157,169,138,1,8,0,1,1,0,0,4.396484385773716,0,0,0,0,0,-4,0,0,0,4,"",""
296,61598785,0,0,0,0,0,0,0,0,0,0,0,-10,1000,163,27,512,0,0,0,0,0,-4056,0,138,156,168,138,1,8,0,1,1,0,0,4.396484385773716,0,0,0,0,0,-4,0,0,0,4,"",""
297,61600108,0,0,0,0,0,0,0,0,0,0,0,-10,1000,163,27,512,0,0,0,0,0,-4056,0,138,156,169,138,1,8,0,1,1,0,0,4.396484385773716,0,0,0,0,0,-4,0,0,0,4,"",""
298,61601436,0,0,0,0,0,0,0,0,0,0,0,-10,1000,163,27,512,0,0,0,0,0,-4056,0,138,157,169,138,1,8,0,1,1,0,0,4.396484385773716,0,0,0,0,0,-4,0,0,0,4,"",""
299,61602775,0,0,0,0,0,0,0,0,0,0,0,-10,1000,163,27,512,0,0,0,0,0,-4056,0,138,157,169,138,1,8,0,1,1,0,0,4.396484385773716,0,0,0,0,0,-4,0,0,0,4,"",""
300,61604092,0,0,0,0,0,0,0,0,0,0,0,-10,1000,163,27,512,0,0,0,0,0,-4056,0,138,157,169,138,1,8,0,1,1,0,0,4.396484385773716,0,0,0,0,0,-4,0,0,0,4,"",""
301,61605409,0,0,0,0,0,0,0,0,0,0,0,-10,1000,163,27,512,0,0,0,0,0,-4056,0,138,157,169,139,1,8,0,1,1,0,0,4.396484385773716,0,0,0,0,0,-4,0,0,0,4,"",""
302,61606730,0,0,0,0,0,0,0,0,0,0,0,-10,1000,163,27,512,0,0,0,0,0,-4056,0,138,157,170,139,1,8,0,1,1,0,0,4.396484385773716,0,0,0,0,0,-4,0,0,0,4,"",""
303,61608053,0,0,0,0,0,0,0,0,0,0,0,-10,1000,163,27,512,0,0,0,0,0,-4056,0,138,157,169,139,1,8,0,1,1,0,0,4.396484385773716,0,0,0,0,0,-4,0,0,0,4,"",""
304,61609369,0,0,0,0,0,0,0,0,0,0,0,-10,1000,163,27,512,0,0,0,0,0,-4056,0,138,157,168,138,1,8,0,1,1,0,0,4.396484385773716,0,0,0,0,0,-4,0,0,0,4,"",""
305,61610702,0,0,0,0,0,0,0,0,0,0,0,-10,1000,163,27,512,0,0,0,0,0,-4056,0,138,156,169,138,1,8,0,1,1,0,0,4.396484385773716,0,0,0,0,0,-4,0,0,0,4,"",""
306,61612032,0,0,0,0,0,0,0,0,0,0,0,-10,1000,163,27,512,0,0,0,0,0,-4056,0,138,157,169,138,1,8,0,1,1,0,0,4.396484385773716,0,0,0,0,0,-4,0,0,0,4,"",""
307,61613351,0,0,0,0,0,0,0,0,0,0,0,-10,1000,163,27,512,0,0,0,0,0,-4056,0,138,157,169,138,1,8,0,1,1,0,0,4.396484385773716,0,0,0,0,0,-4,0,0,0,4,"",""
308,61614662,0,0,0,0,0,0,0,0,0,0,0,-10,1000,163,27,512,0,0,0,0,0,-4056,0,138,157,169,138,1,8,0,1,1,0,0,4.396484385773716,0,0,0,0,0,-4,0,0,0,4,"",""
309,61615980,0,0,0,0,0,0,0,0,0,0,0,-10,1000,163,27,512,0,0,0,0,0,-4056,0,138,157,169,139,1,8,0,1,1,0,0,4.396484385773716,0,0,0,0,0,-4,0,0,0,4,"",""
310,61617292,0,0,0,0,0,0,0,0,0,0,0,-10,1000,163,27,512,0,0,0,0,0,-4056,0,138,157,169,138,1,8,0,1,1,0,0,4.396484385773716,0,0,0,0,0,-4,0,0,0,4,"",""
311,61618624,0,0,0,0,0,0,0,0,0,0,0,-10,1000,163,0,512,0,0,0,0,0,-4056,0,138,157,168,138,1,8,0,1,1,0,0,4.396484385773716,0,0,0,0,0,-4,0,0,0,4,"",""
312,61619954,0,0,0,0,0,0,0,0,0,0,0,-10,1000,163,0,512,0,0,0,0,0,-4056,0,138,157,168,138,1,8,0,1,1,0,0,4.396484385773716,0,0,0,0,0,-4,0,0,0,4,"",""
313,61621287,0,0,0,0,0,0,0,0,0,0,0,-10,1000,163,0,512,0,0,0,0,0,-4056,0,138,157,168,138,1,8,0,1,1,0,0,4.396484385773716,0,0,0,0,0,-4,0,0,0,4,"",""
314,61622600,0,0,0,0,0,0,0,0,0,0,0,-10,1000,163,0,512,0,0,0,0,0,-4056,0,138,156,168,138,1,8,0,1,1,0,0,4.396484385773716,0,0,0,0,0,-4,0,0,0,4,"",""
315,61623915,0,0,0,0,0,0,0,0,0,0,0,-10,1000,163,0,512,0,0,0,0,0,-4056,0,138,157,168,138,1,8,0,1,1,0,0,4.396484385773716,0,0,0,0,0,-4,0,0,0,4,"",""
316,61625242,0,0,0,0,0,0,0,0,0,0,0,-10,1000,163,0,512,0,0,0,0,0,-4056,0,138,157,168,138,1,8,0,1,1,0,0,4.396484385773716,0,0,0,0,0,-4,0,0,0,4,"",""
317,61626692,0,0,0,0,0,0,0,0,0,0,0,-10,1000,163,0,512,0,0,0,0,0,-4056,0,138,157,169,138,1,8,0,1,1,0,0,4.396484385773716,0,0,0,0,0,-4,0,0,0,4,"",""
318,61628162,0,0,0,0,0,0,0,0,0,0,0,-10,1000,163,0,512,0,0,0,0,0,-4056,0,138,157,169,138,1,8,0,1,1,0,0,4.396484385773716,0,0,0,0,0,-4,0,0,0,4,"",""
319,61629526,0,0,0,0,0,0,0,0,0,0,0,-10,1000,163,0,512,0,0,0,0,0,-4056,0,138,157,169,138,1,8,0,1,1,0,0,4.396484385773716,0,0,0,0,0,-4,0,0,0,4,"",""
320,61630848,0,0,0,0,0,0,0,0,0,0,0,-10,1000,163,0,512,0,0,0,0,0,-4056,0,138,156,169,138,1,8,0,1,1,0,0,4.396484385773716,0,0,0,0,0,-4,0,0,0,4,"",""
321,61632176,0,0,0,0,0,0,0,0,0,0,0,-10,1000,163,0,512,0,0,0,0,0,-4056,0,138,156,169,138,1,8,0,1,1,0,0,4.396484385773716,0,0,0,0,0,-4,0,0,0,4,"",""
322,61633489,0,0,0,0,0,0,0,0,0,0,0,-10,1000,163,0,512,0,0,0,0,0,-4056,0,138,156,169,138,1,8,0,1,1,0,0,4.396484385773716,0,0,0,0,0,-4,0,0,0,4,"",""
323,61634802,0,0,0,0,0,0,0,0,0,0,0,-10,1000,163,0,512,0,0,0,0,0,-4056,0,138,157,169,138,1,8,0,1,1,0,0,4.396484385773716,0,0,0,0,0,-4,0,0,0,4,"",""
324,61636118,0,0,0,0,0,0,0,0,0,0,0,-10,1000,163,0,512,0,0,0,0,0,-4056,0,138,156,169,138,1,8,0,1,1,0,0,4.396484385773716,0,0,0,0,0,-4,0,0,0,4,"",""
325,61637447,0,0,0,0,0,0,0,0,0,0,0,-10,1000,163,0,512,0,0,0,0,0,-4056,0,138,157,169,138,1,8,0,1,1,0,0,4.396484385773716,0,0,0,0,0,-4,0,0,0,4,"",""
326,61638785,0,0,0,0,0,0,0,0,0,0,0,-10,1000,163,0,512,0,0,0,0,0,-4056,0,138,157,169,138,1,8,0,1,1,0,0,4.396484385773716,0,0,0,0,0,-4,0,0,0,4,"",""
327,61640109,0,0,0,0,0,0,0,0,0,0,0,-10,1000,163,0,512,0,0,0,0,0,-4056,0,138,156,168,138,1,8,0,1,1,0,0,4.396484385773716,0,0,0,0,0,-4,0,0,0,4,"",""
328,61641422,0,0,0,0,0,0,0,0,0,0,0,-10,1000,163,0,512,0,0,0,0,0,-4056,0,138,156,169,138,1,8,0,1,1,0,0,4.396484385773716,0,0,0,0,0,-4,0,0,0,4,"",""
329,61642736,0,0,0,0,0,0,0,0,0,0,0,-10,1000,163,0,512,0,0,0,0,0,-4056,0,138,156,168,138,1,8,0,1,1,0,0,4.396484385773716,0,0,0,0,0,-4,0,0,0,4,"",""
330,61644054,0,0,0,0,0,0,0,0,0,0,0,-10,1000,163,0,512,0,0,0,0,0,-4056,0,138,156,169,138,1,8,0,1,1,0,0,4.396484385773716,0,0,0,0,0,-4,0,0,0,4,"",""
331,61645368,0,0,0,0,0,0,0,0,0,0,0,-10,1000,163,0,512,0,0,0,0,0,-4056,0,138,156,169,138,1,8,0,1,1,0,0,4.396484385773716,0,0,0,0,0,-4,0,0,0,4,"",""
332,61646696,0,0,0,0,0,0,0,0,0,0,0,-10,1000,163,0,512,0,0,0,0,0,-4056,0,138,156,169,138,1,8,0,1,1,0,0,4.396484385773716,0,0,0,0,0,-4,0,0,0,4,"",""
333,61648044,0,0,0,0,0,0,0,0,0,0,0,-10,1000,163,0,512,0,0,0,0,0,-4056,0,138,157,169,138,1,8,0,1,1,0,0,4.396484385773716,0,0,0,0,0,-4,0,0,0,4,"",""
334,61649364,0,0,0,0,0,0,0,0,0,0,0,-10,1000,163,0,512,0,0,0,0,0,-4056,0,138,157,169,138,1,8,0,1,1,0,0,4.396484385773716,0,0,0,0,0,-4,0,0,0,4,"",""
335,61650673,0,0,0,0,0,0,0,0,0,0,0,-10,1000,163,0,512,0,0,0,0,0,-4056,0,138,156,168,138,1,8,0,1,1,0,0,4.396484385773716,0,0,0,0,0,-4,0,0,0,4,"",""
336,61651987,0,0,0,0,0,0,0,0,0,0,0,-10,1000,163,0,512,0,0,0,0,0,-4056,0,138,157,169,138,1,8,0,1,1,0,0,4.396484385773716,0,0,0,0,0,-4,0,0,0,4,"",""
337,61653294,0,0,0,0,0,0,0,0,0,0,0,-10,1000,163,0,512,0,0,0,0,0,-4056,0,138,157,169,138,1,8,0,1,1,0,0,4.396484385773716,0,0,0,0,0,-4,0,0,0,4,"",""
338,61654626,0,0,0,0,0,0,0,0,0,0,0,-10,1000,163,0,512,0,0,0,0,0,-4056,0,138,156,169,138,1,8,0,1,1,0,0,4.396484385773716,0,0,0,0,0,-4,0,0,0,4,"",""
339,61656110,0,0,0,0,0,0,0,0,0,0,0,-10,1000,163,0,512,0,0,0,0,0,-4056,0,138,156,169,138,1,8,0,1,1,0,0,4.396484385773716,0,0,0,0,0,-4,0,0,0,4,"",""
340,61657576,0,0,0,0,0,0,0,0,0,0,0,-10,1000,163,0,512,0,0,0,0,0,-4056,0,138,156,168,138,1,8,0,1,1,0,0,4.396484385773716,0,0,0,0,0,-4,0,0,0,4,"",""
341,61658899,0,0,0,0,0,0,0,0,0,0,0,-10,1000,163,0,512,0,0,0,0,0,-4056,0,138,156,168,138,1,8,0,1,1,0,0,4.396484385773716,0,0,0,0,0,-4,0,0,0,4,"",""
342,61660209,0,0,0,0,0,0,0,0,0,0,0,-10,1000,163,0,512,0,0,0,0,0,-4056,0,138,156,168,138,1,8,0,1,1,0,0,4.396484385773716,0,0,0,0,0,-4,0,0,0,4,"",""
343,61661522,0,0,0,0,0,0,0,0,0,0,0,-10,1000,163,0,512,0,0,0,0,0,-4056,0,138,156,168,138,1,8,0,1,1,0,0,4.396484385773716,0,0,0,0,0,-4,0,0,0,4,"",""
344,61662834,0,0,0,0,0,0,0,0,0,0,0,-10,1000,163,0,512,0,0,0,0,0,-4056,0,138,156,169,138,1,8,0,1,1,0,0,4.396484385773716,0,0,0,0,0,-4,0,0,0,4,"",""
345,61664163,0,0,0,0,0,0,0,0,0,0,0,-10,1000,163,0,512,0,0,0,0,0,-4056,0,138,156,169,138,1,8,0,1,1,0,0,4.396484385773716,0,0,0,0,0,-4,0,0,0,4,"",""
346,61665490,0,0,0,0,0,0,0,0,0,0,0,-10,1000,163,0,512,0,0,0,0,0,-4056,0,138,156,169,138,1,8,0,1,1,0,0,4.396484385773716,0,0,0,0,0,-4,0,0,0,4,"",""
347,61666804,0,0,0,0,0,0,0,0,0,0,0,-10,1000,163,0,512,0,0,0,0,0,-4056,0,138,156,169,138,1,8,0,1,1,0,0,4.396484385773716,0,0,0,0,0,-4,0,0,0,4,"",""
348,61668121,0,0,0,0,0,0,0,0,0,0,0,-10,1000,163,0,512,0,0,0,0,0,-4056,0,138,156,169,138,1,8,0,1,1,0,0,4.396484385773716,0,0,0,0,0,-4,0,0,0,4,"",""
349,61669435,0,0,0,0,0,0,0,0,0,0,0,-10,1000,163,0,512,0,0,0,0,0,-4056,0,138,156,169,138,1,8,0,1,1,0,0,4.396484385773716,0,0,0,0,0,-4,0,0,0,4,"",""
350,61670747,0,0,0,0,0,0,0,0,0,0,0,-10,1000,163,0,512,0,0,0,0,0,-4056,0,138,156,169,138,1,8,0,1,1,0,0,4.396484385773716,0,0,0,0,0,-4,0,0,0,4,"",""
351,61672064,0,0,0,0,0,0,0,0,0,0,0,-10,1000,163,0,512,0,0,0,0,0,-4056,0,138,156,169,138,1,8,0,1,1,0,0,4.396484385773716,0,0,0,0,0,-4,0,0,0,4,"",""
352,61673388,0,0,0,0,0,0,0,0,0,0,0,-10,1000,163,0,512,0,0,0,0,0,-4056,0,138,157,169,138,1,8,0,1,1,0,0,4.396484385773716,0,0,0,0,0,-4,0,0,0,4,"",""
353,61674716,0,0,0,0,0,0,0,0,0,0,0,-10,1000,163,0,512,0,0,0,0,0,-4056,0,138,157,169,138,1,8,0,1,1,0,0,4.396484385773716,0,0,0,0,0,-4,0,0,0,4,"",""
354,61676036,0,0,0,0,0,0,0,0,0,0,0,-10,1000,163,0,512,0,0,0,0,0,-4056,0,138,157,168,138,1,8,0,1,1,0,0,4.396484385773716,0,0,0,0,0,-4,0,0,0,4,"",""
355,61677351,0,0,0,0,0,0,0,0,0,0,0,-10,1000,163,0,512,0,0,0,0,0,-4056,0,138,157,169,138,1,8,0,1,1,0,0,4.396484385773716,0,0,0,0,0,-4,0,0,0,4,"",""
356,61678662,0,0,0,0,0,0,0,0,0,0,0,-10,1000,163,0,512,0,0,0,0,0,-4056,0,138,156,169,138,1,8,0,1,1,0,0,4.396484385773716,0,0,0,0,0,-4,0,0,0,4,"",""
357,61679981,0,0,0,0,0,0,0,0,0,0,0,-10,1000,163,0,512,0,0,0,0,0,-4056,0,138,156,169,138,1,8,0,1,1,0,0,4.396484385773716,0,0,0,0,0,-4,0,0,0,4,"",""
358,61681294,0,0,0,0,0,0,0,0,0,0,0,-10,1000,163,0,512,0,0,0,0,0,-4056,0,138,156,169,138,1,8,0,1,1,0,0,4.396484385773716,0,0,0,0,0,-4,0,0,0,4,"",""
359,61682624,0,0,0,0,0,0,0,0,0,0,0,-10,1000,163,0,512,0,0,0,0,0,-4056,0,138,157,169,138,1,8,0,1,1,0,0,4.396484385773716,0,0,0,0,0,-4,0,0,0,4,"",""
360,61683975,0,0,0,0,0,0,0,0,0,0,0,-10,1000,163,0,512,0,0,0,0,0,-4056,0,138,157,169,139,1,8,0,1,1,0,0,4.396484385773716,0,0,0,0,0,-4,0,0,0,4,"",""
361,61685425,0,0,0,0,0,0,0,0,0,0,0,-10,1000,163,0,512,0,0,0,0,0,-4056,0,138,157,169,139,1,8,0,1,1,0,0,4.396484385773716,0,0,0,0,0,-4,0,0,0,4,"",""
362,61686876,0,0,0,0,0,0,0,0,0,0,0,-10,1000,163,0,512,0,0,0,0,0,-4056,0,138,156,169,138,1,8,0,1,1,0,0,4.396484385773716,0,0,0,0,0,-4,0,0,0,4,"",""
363,61688195,0,0,0,0,0,0,0,0,0,0,0,-10,1000,163,0,512,0,0,0,0,0,-4056,0,138,157,169,138,1,8,0,1,1,0,0,4.396484385773716,0,0,0,0,0,-4,0,0,0,4,"",""
364,61689516,0,0,0,0,0,0,0,0,0,0,0,-10,1000,163,0,512,0,0,0,0,0,-4056,0,138,157,169,138,1,8,0,1,1,0,0,4.396484385773716,0,0,0,0,0,-4,0,0,0,4,"",""
365,61690842,0,0,0,0,0,0,0,0,0,0,0,-10,1000,163,0,512,0,0,0,0,0,-4056,0,138,157,169,139,1,8,0,1,1,0,0,4.396484385773716,0,0,0,0,0,-4,0,0,0,4,"",""
366,61692172,0,0,0,0,0,0,0,0,0,0,0,-10,1000,163,0,512,0,0,0,0,0,-4056,0,138,157,169,139,1,8,0,1,1,0,0,4.396484385773716,0,0,0,0,0,-4,0,0,0,4,"",""
367,61693493,0,0,0,0,0,0,0,0,0,0,0,-10,1000,163,0,512,0,0,0,0,0,-4056,0,138,157,169,139,1,8,0,1,1,0,0,4.396484385773716,0,0,0,0,0,-4,0,0,0,4,"",""
368,61694812,0,0,0,0,0,0,0,0,0,0,0,-10,1000,163,0,512,0,0,0,0,0,-4056,0,138,157,169,139,1,8,0,1,1,0,0,4.396484385773716,0,0,0,0,0,-4,0,0,0,4,"",""
369,61696128,0,0,0,0,0,0,0,0,0,0,0,-10,1000,163,0,512,0,0,0,0,0,-4056,0,138,157,169,139,1,8,0,1,1,0,0,4.396484385773716,0,0,0,0,0,-4,0,0,0,4,"",""
370,61697442,0,0,0,0,0,0,0,0,0,0,0,-10,1000,163,0,512,0,0,0,0,0,-4056,0,138,157,169,138,1,8,0,1,1,0,0,4.396484385773716,0,0,0,0,0,-4,0,0,0,4,"",""
371,61698756,0,0,0,0,0,0,0,0,0,0,0,-10,1000,163,0,512,0,0,0,0,0,-4056,0,138,158,169,138,1,8,0,1,1,0,0,4.396484385773716,0,0,0,0,0,-4,0,0,0,4,"",""
372,61700087,0,0,0,0,0,0,0,0,0,0,0,-10,1000,163,0,512,0,0,0,0,0,-4056,0,138,157,169,139,1,8,0,1,1,0,0,4.396484385773716,0,0,0,0,0,-4,0,0,0,4,"",""
373,61701415,0,0,0,0,0,0,0,0,0,0,0,-10,1000,163,0,512,0,0,0,0,0,-4056,0,138,157,170,139,1,8,0,1,1,0,0,4.396484385773716,0,0,0,0,0,-4,0,0,0,4,"",""
374,61702732,0,0,0,0,0,0,0,0,0,0,0,-10,1000,163,0,512,0,0,0,0,0,-4056,0,138,157,169,138,1,8,0,1,1,0,0,4.396484385773716,0,0,0,0,0,-4,0,0,0,4,"",""
375,61704048,0,0,0,0,0,0,0,0,0,0,0,-10,1000,163,0,512,0,0,0,0,0,-4056,0,138,157,169,138,1,8,0,1,1,0,0,4.396484385773716,0,0,0,0,0,-4,0,0,0,4,"",""
376,61705368,0,0,0,0,0,0,0,0,0,0,0,-10,1000,163,0,512,0,0,0,0,0,-4056,0,138,157,169,139,1,8,0,1,1,0,0,4.396484385773716,0,0,0,0,0,-4,0,0,0,4,"",""
377,61706685,0,0,0,0,0,0,0,0,0,0,0,-10,1000,163,0,512,0,0,0,0,0,-4056,0,138,157,169,138,1,8,0,1,1,0,0,4.396484385773716,0,0,0,0,0,-4,0,0,0,4,"",""
378,61708013,0,0,0,0,0,0,0,0,0,0,0,-10,1000,163,0,512,0,0,0,0,0,-4056,0,138,157,169,138,1,8,0,1,1,0,0,4.396484385773716,0,0,0,0,0,-4,0,0,0,4,"",""
379,61709339,0,0,0,0,0,0,0,0,0,0,0,-10,1000,163,0,512,0,0,0,0,0,-4056,0,138,158,170,140,1,8,0,1,1,0,0,4.396484385773716,0,0,0,0,0,-4,0,0,0,4,"",""
380,61710667,0,0,0,0,0,0,0,0,0,0,0,-10,1000,163,0,512,0,0,0,0,0,-4056,0,138,157,170,139,1,8,0,1,1,0,0,4.396484385773716,0,0,0,0,0,-4,0,0,0,4,"",""
381,61711988,0,0,0,0,0,0,0,0,0,0,0,-10,1000,163,0,512,0,0,0,0,0,-4056,0,138,157,170,139,1,8,0,1,1,0,0,4.396484385773716,0,0,0,0,0,-4,0,0,0,4,"",""
382,61713306,0,0,0,0,0,0,0,0,0,0,0,-10,1000,163,0,512,0,0,0,0,0,-4056,0,138,158,170,140,1,8,0,1,1,0,0,4.396484385773716,0,0,0,0,0,-4,0,0,0,4,"",""
383,61714619,0,0,0,0,0,0,0,0,0,0,0,-10,1000,163,0,512,0,0,0,0,0,-4056,0,138,158,170,139,1,8,0,1,1,0,0,4.396484385773716,0,0,0,0,0,-4,0,0,0,4,"",""
384,61715949,0,0,0,0,0,0,0,0,0,0,0,-10,1000,163,0,512,0,0,0,0,0,-4056,0,138,157,169,139,1,8,0,1,1,0,0,4.396484385773716,0,0,0,0,0,-4,0,0,0,4,"",""
385,61717409,0,0,0,0,0,0,0,0,0,0,0,-10,1000,163,0,512,0,0,0,0,0,-4056,0,138,157,169,139,1,8,0,1,1,0,0,4.396484385773716,0,0,0,0,0,-4,0,0,0,4,"",""
386,61718870,0,0,0,0,0,0,0,0,0,0,0,-10,1000,163,0,512,0,0,0,0,0,-4056,0,138,157,169,139,1,8,0,1,1,0,0,4.396484385773716,0,0,0,0,0,-4,0,0,0,4,"",""
387,61720203,0,0,0,0,0,0,0,0,0,0,0,-10,1000,163,0,512,0,0,0,0,0,-4056,0,138,157,169,139,1,8,0,1,1,0,0,4.396484385773716,0,0,0,0,0,-4,0,0,0,4,"",""
388,61721523,0,0,0,0,0,0,0,0,0,0,0,-10,1000,163,0,512,0,0,0,0,0,-4056,0,138,157,170,139,1,8,0,1,1,0,0,4.396484385773716,0,0,0,0,0,-4,0,0,0,4,"",""
389,61722836,0,0,0,0,0,0,0,0,0,0,0,-10,1000,163,0,512,0,0,0,0,0,-4056,0,138,157,170,139,1,8,0,1,1,0,0,4.396484385773716,0,0,0,0,0,-4,0,0,0,4,"",""
