"Product","Blackbox flight data recorder by Nicholas Sherlock"
"firmwareType",3
"firmware","3.3"
"firmwarePatch",3
"firmwareVersion","3.3.3"
"Firmware revision","Betaflight 3.3.3 (6bfd3c22e) MATEKF722"
"Firmware date","May 29 2020 11:43:31"
"Log start datetime","0000-01-01T00:00:00.000+00:00"
"Craft name","neuroflight"
"frameIntervalI",32
"frameIntervalPNum",1
"frameIntervalPDenom",1
"minthrottle",1070
"maxthrottle",2000
"gyroScale",1.7453292519943295e-8
"motorOutput","138,2047"
"acc_1G",0
"vbatscale",110
"vbatmincellvoltage",33
"vbatwarningcellvoltage",35
"vbatmaxcellvoltage",43
"vbatref",162
"currentMeterOffset",0
"currentMeterScale",179
"looptime",250
"gyro_sync_denom",2
"pid_process_denom",4
"thrMid",50
"thrExpo",0
"dynThrPID",10
"tpa_breakpoint",1650
"rc_rates","100,100,100"
"rc_expo","0,0,0"
"rates","70,70,70"
"rollPID","40,40,30"
"pitchPID","58,50,35"
"yawPID","70,45,20"
"altPID","50,0,0"
"posPID","15,0,0"
"posrPID","34,14,53"
"navrPID","25,33,83"
"levelPID","50,50,75"
"magPID","40,,"
"velPID","55,55,75"
"dterm_filter_type",1
"dterm_lpf_hz",100
"yaw_lpf_hz",0
"dterm_notch_hz",260
"dterm_notch_cutoff",160
"itermWindupPointPercent",50
"vbat_pid_compensation",0
"pidAtMinThrottle",1
"anti_gravity_threshold",350
"anti_gravity_gain",1000
"setpointRelaxRatio",100
"dtermSetpointWeight",0
"yawRateAccelLimit",0.1
"rateAccelLimit",0
"pidSumLimit",500
"pidSumLimitYaw",400
"deadband",0
"yaw_deadband",0
"gyro_lpf",0
"gyro_soft_type",0
"gyro_lowpass_hz",100
"gyro_notch_hz","400,200"
"gyro_notch_cutoff","300,100"
"acc_lpf_hz",1000
"acc_hardware",1
"baro_hardware",1
"mag_hardware",1
"gyro_cal_on_first_arm",0
"rc_interpolation",2
"rc_interpolation_interval",19
"airmode_activate_throttle",32
"serialrx_provider",2
"unsynced_fast_pwm",0
"fast_pwm_protocol",7
"motor_pwm_rate",480
"digitalIdleOffset",450
"debug_mode",31
"features",4457480
"loopIteration","time","axisP[0]","axisP[1]","axisP[2]","axisI[0]","axisI[1]","axisI[2]","axisD[0]","axisD[1]","axisD[2]","rcCommand[0]","rcCommand[1]","rcCommand[2]","rcCommand[3]","vbatLatest","amperageLatest","rssi","gyroADC[0]","gyroADC[1]","gyroADC[2]","debug[0]","debug[1]","debug[2]","debug[3]","motor[0]","motor[1]","motor[2]","motor[3]","flightModeFlags","stateFlags","failsafePhase","rxSignalReceived","rxFlightChannelsValid","heading[0]","heading[1]","heading[2]","axisSum[0]","axisSum[1]","axisSum[2]","rcCommands[0]","rcCommands[1]","rcCommands[2]","rcCommands[3]","axisError[0]","axisError[1]","axisError[2]"
0,40824852,0,0,0,0,0,0,0,0,0,0,0,-10,1000,162,0,512,-1,1,0,0,0,-4056,0,138,165,167,141,"","","","","",0,0,4.396484385773716,0,0,0,0,0,-4,0,-1,1,4,"",""
1,40826190,0,0,0,0,0,0,0,0,0,0,0,-10,1000,162,0,512,-1,1,0,0,0,-4056,0,138,165,167,141,1,8,0,1,1,0,0,4.3964843857733085,0,0,0,0,0,-4,0,-1,1,4,"",""
2,40827661,0,0,0,0,0,0,0,0,0,0,0,-10,1000,163,0,512,-1,1,0,0,0,-4056,0,138,164,168,141,1,8,0,1,1,0,0,4.396484385173313,0,0,0,0,0,-4,0,-1,1,4,"",""
3,40829118,0,0,0,0,0,0,0,0,0,0,0,-10,1000,163,0,512,-1,1,0,0,0,-4056,0,138,164,167,141,1,8,0,1,1,0,0,4.396484383926158,0,0,0,0,0,-4,0,-1,1,4,"",""
4,40830428,0,0,0,0,0,0,0,0,0,0,0,-10,1000,163,0,512,-1,1,0,0,0,-4056,0,138,164,167,141,1,8,0,1,1,0,0,4.3964843822234165,0,0,0,0,0,-4,0,-1,1,4,"",""
5,40831737,0,0,0,0,0,0,0,0,0,0,0,-10,1000,163,0,512,-1,1,0,0,0,-4056,0,138,164,167,141,1,8,0,1,1,0,0,4.396484379999619,0,0,0,0,0,-4,0,-1,1,4,"",""
6,40833061,0,0,0,0,0,0,0,0,0,0,0,-10,1000,163,0,512,-1,1,0,0,0,-4056,0,138,164,167,140,1,8,0,1,1,0,0,4.396484377222404,0,0,0,0,0,-4,0,-1,1,4,"",""
7,40834377,0,0,0,0,0,0,0,0,0,0,0,-10,1000,163,0,512,-1,1,0,0,0,-4056,0,138,164,167,140,1,8,0,1,1,0,0,4.396484373931207,0,0,0,0,0,-4,0,-1,1,4,"",""
8,40835705,0,0,0,0,0,0,0,0,0,0,0,-10,1000,163,0,512,-1,1,0,0,0,-4056,0,138,164,168,141,1,8,0,1,1,0,0,4.396484370077635,0,0,0,0,0,-4,0,-1,1,4,"",""
9,40837045,0,0,0,0,0,0,0,0,0,0,0,-10,1000,163,0,512,-1,1,0,0,0,-4056,0,138,164,168,141,1,8,0,1,1,0,0,4.39648436564717,0,0,0,0,0,-4,0,-1,1,4,"",""
10,40838364,0,0,0,0,0,0,0,0,0,0,0,-10,1000,163,0,512,-1,1,0,0,0,-4056,0,138,164,168,141,1,8,0,1,1,0,0,4.396484360747738,0,0,0,0,0,-4,0,-1,1,4,"",""
11,40839681,0,0,0,0,0,0,0,0,0,0,0,-10,1000,163,0,512,-1,1,0,0,0,-4056,0,138,164,168,142,1,8,0,1,1,0,0,4.396484355326577,0,0,0,0,0,-4,0,-1,1,4,"",""
12,40840999,0,0,0,0,0,0,0,0,0,0,0,-10,1000,163,0,512,-1,1,0,0,0,-4056,0,138,164,168,142,1,8,0,1,1,0,0,4.396484349372543,0,0,0,0,0,-4,0,-1,1,4,"",""
13,40842312,0,0,0,0,0,0,0,0,0,0,0,-10,1000,163,0,512,-1,1,0,0,0,-4056,0,138,164,168,142,1,8,0,1,1,0,0,4.396484342913945,0,0,0,0,0,-4,0,-1,1,4,"",""
14,40843649,0,0,0,0,0,0,0,0,0,0,0,-10,1000,163,0,512,-1,1,0,0,0,-4056,0,138,164,168,141,1,8,0,1,1,0,0,4.396484335802542,0,0,0,0,0,-4,0,-1,1,4,"",""
15,40844989,0,0,0,0,0,0,0,0,0,0,0,-10,1000,163,0,512,-1,1,0,0,0,-4056,0,138,164,168,141,1,8,0,1,1,0,0,4.396484328129437,0,0,0,0,0,-4,0,-1,1,4,"",""
16,40846313,0,0,0,0,0,0,0,0,0,0,0,-10,1000,163,0,512,-1,1,0,0,0,-4056,0,138,164,168,142,1,8,0,1,1,0,0,4.396484320007509,0,0,0,0,0,-4,0,-1,1,4,"",""
17,40847632,0,0,0,0,0,0,0,0,0,0,0,-10,1000,162,0,512,-1,1,0,0,0,-4056,0,138,164,168,142,1,8,0,1,1,0,0,4.396484311384283,0,0,0,0,0,-4,0,-1,1,4,"",""
18,40848949,0,0,0,0,0,0,0,0,0,0,0,-10,1000,162,0,512,-1,1,0,0,0,-4056,0,138,164,168,141,1,8,0,1,1,0,0,4.396484302244975,0,0,0,0,0,-4,0,-1,1,4,"",""
19,40850264,0,0,0,0,0,0,0,0,0,0,0,-10,1000,162,0,512,-1,1,0,0,0,-4056,0,138,164,168,142,1,8,0,1,1,0,0,4.396484292591992,0,0,0,0,0,-4,0,-1,1,4,"",""
20,40851576,0,0,0,0,0,0,0,0,0,0,0,-10,1000,162,0,512,-1,1,0,0,0,-4056,0,138,165,168,141,1,8,0,1,1,0,0,4.3964842824354795,0,0,0,0,0,-4,0,-1,1,4,"",""
21,40852910,0,0,0,0,0,0,0,0,0,0,0,-10,1000,162,0,512,-1,1,0,0,0,-4056,0,138,164,168,141,1,8,0,1,1,0,0,4.396484271575517,0,0,0,0,0,-4,0,-1,1,4,"",""
22,40854235,0,0,0,0,0,0,0,0,0,0,0,-10,1000,162,0,512,-1,1,0,0,0,-4056,0,138,164,168,141,1,8,0,1,1,0,0,4.3964842602503955,0,0,0,0,0,-4,0,-1,1,4,"",""
23,40855556,0,0,0,0,0,0,0,0,0,0,0,-10,1000,162,0,512,-1,1,0,0,0,-4056,0,138,164,168,141,1,8,0,1,1,0,0,4.396484248426283,0,0,0,0,0,-4,0,-1,1,4,"",""
24,40856894,0,0,0,0,0,0,0,0,0,0,0,-10,1000,162,0,512,-1,1,0,0,0,-4056,0,138,164,168,141,1,8,0,1,1,0,0,4.396484235911594,0,0,0,0,0,-4,0,-1,1,4,"",""
25,40858349,0,0,0,0,0,0,0,0,0,0,0,-10,1000,162,0,512,-1,1,0,0,0,-4056,0,138,163,168,141,1,8,0,1,1,0,0,4.396484221709546,0,0,0,0,0,-4,0,-1,1,4,"",""
26,40859802,0,0,0,0,0,0,0,0,0,0,0,-10,1000,162,0,512,-1,1,0,0,0,-4056,0,138,164,168,141,1,8,0,1,1,0,0,4.396484206883023,0,0,0,0,0,-4,0,-1,1,4,"",""
27,40861129,0,0,0,0,0,0,0,0,0,0,0,-10,1000,162,0,512,-1,1,0,0,0,-4056,0,138,164,168,141,1,8,0,1,1,0,0,4.39648419275487,0,0,0,0,0,-4,0,-1,1,4,"",""
28,40862463,0,0,0,0,0,0,0,0,0,0,0,-10,1000,162,0,512,-1,1,0,0,0,-4056,0,138,164,168,141,1,8,0,1,1,0,0,4.396484178012951,0,0,0,0,0,-4,0,-1,1,4,"",""
29,40863790,0,0,0,0,0,0,0,0,0,0,0,-10,1000,162,0,512,-1,1,0,0,0,-4056,0,138,164,167,141,1,8,0,1,1,0,0,4.396484162809148,0,0,0,0,0,-4,0,-1,1,4,"",""
30,40865109,0,0,0,0,0,0,0,0,0,0,0,-10,1000,162,0,512,-1,1,0,0,0,-4056,0,138,164,168,141,1,8,0,1,1,0,0,4.396484147163828,0,0,0,0,0,-4,0,-1,1,4,"",""
31,40866421,0,0,0,0,0,0,0,0,0,0,0,-10,1000,162,0,512,-1,1,0,0,0,-4056,0,138,164,168,142,1,8,0,1,1,0,0,4.396484131074389,0,0,0,0,0,-4,0,-1,1,4,"",""
32,40867732,0,0,0,0,0,0,0,0,0,0,0,-10,1000,162,0,512,-1,1,0,0,0,-4056,0,138,164,167,141,1,8,0,1,1,0,0,4.39648411447326,0,0,0,0,0,-4,0,-1,1,4,"",""
33,40869054,0,0,0,0,0,0,0,0,0,0,0,-10,1000,162,0,512,-1,1,0,0,0,-4056,0,138,164,168,141,1,8,0,1,1,0,0,4.396484097204893,0,0,0,0,0,-4,0,-1,1,4,"",""
34,40870371,0,0,0,0,0,0,0,0,0,0,0,-10,1000,162,0,512,-1,1,0,0,0,-4056,0,138,163,168,141,1,8,0,1,1,0,0,4.396484079471476,0,0,0,0,0,-4,0,-1,1,4,"",""
35,40871707,0,0,0,0,0,0,0,0,0,0,0,-10,1000,162,0,512,-1,1,0,0,0,-4056,0,138,163,167,140,1,8,0,1,1,0,0,4.3964840609462446,0,0,0,0,0,-4,0,-1,1,4,"",""
36,40873034,0,0,0,0,0,0,0,0,0,0,0,-10,1000,162,0,512,-1,1,0,0,0,-4056,0,138,164,167,141,1,8,0,1,1,0,0,4.396484042005761,0,0,0,0,0,-4,0,-1,1,4,"",""
37,40874350,0,0,0,0,0,0,0,0,0,0,0,-10,1000,162,0,512,-1,1,0,0,0,-4056,0,138,164,168,142,1,8,0,1,1,0,0,4.396484022690318,0,0,0,0,0,-4,0,-1,1,4,"",""
38,40875675,0,0,0,0,0,0,0,0,0,0,0,-10,1000,162,44,512,-1,1,0,0,0,-4056,0,138,164,168,141,1,8,0,1,1,0,0,4.396484002711617,0,0,0,0,0,-4,0,-1,1,4,"",""
39,40876991,0,0,0,0,0,0,0,0,0,0,0,-10,1000,162,44,512,-1,1,0,0,0,-4056,0,138,164,168,142,1,8,0,1,1,0,0,4.396483982337457,0,0,0,0,0,-4,0,-1,1,4,"",""
40,40878303,0,0,0,0,0,0,0,0,0,0,0,-10,1000,162,44,512,-1,1,0,0,0,-4056,0,138,164,168,142,1,8,0,1,1,0,0,4.396483961499274,0,0,0,0,0,-4,0,-1,1,4,"",""
41,40879627,0,0,0,0,0,0,0,0,0,0,0,-10,1000,162,44,512,-1,1,0,0,0,-4056,0,138,164,168,141,1,8,0,1,1,0,0,4.3964839399413504,0,0,0,0,0,-4,0,-1,1,4,"",""
42,40880963,0,0,0,0,0,0,0,0,0,0,0,-10,1000,162,44,512,-1,1,0,0,0,-4056,0,138,164,168,141,1,8,0,1,1,0,0,4.396483917649209,0,0,0,0,0,-4,0,-1,1,4,"",""
43,40882285,0,0,0,0,0,0,0,0,0,0,0,-10,1000,162,44,512,-1,1,0,0,0,-4056,0,138,164,168,141,1,8,0,1,1,0,0,4.396483895052655,0,0,0,0,0,-4,0,-1,1,4,"",""
44,40883609,0,0,0,0,0,0,0,0,0,0,0,-10,1000,162,44,512,-1,1,0,0,0,-4056,0,138,164,167,141,1,8,0,1,1,0,0,4.396483871888734,0,0,0,0,0,-4,0,-1,1,4,"",""
45,40884939,0,0,0,0,0,0,0,0,0,0,0,-10,1000,162,44,512,-1,1,0,0,0,-4056,0,138,164,168,141,1,8,0,1,1,0,0,4.396483848083431,0,0,0,0,0,-4,0,-1,1,4,"",""
46,40886269,0,0,0,0,0,0,0,0,0,0,0,-10,1000,162,44,512,-1,1,0,0,0,-4056,0,138,165,168,141,1,8,0,1,1,0,0,4.396483823739291,0,0,0,0,0,-4,0,-1,1,4,"",""
47,40887716,0,0,0,0,0,0,0,0,0,0,0,-10,1000,162,44,512,-1,1,0,0,0,-4056,0,138,165,168,141,1,8,0,1,1,0,0,4.396483796667357,0,0,0,0,0,-4,0,-1,1,4,"",""
48,40889185,0,0,0,0,0,0,0,0,0,0,0,-10,1000,162,44,512,-1,1,0,0,0,-4056,0,138,165,168,142,1,8,0,1,1,0,0,4.396483768536315,0,0,0,0,0,-4,0,-1,1,4,"",""
49,40890523,0,0,0,0,0,0,0,0,0,0,0,-10,1000,162,44,512,-1,1,0,0,0,-4056,0,138,165,168,142,1,8,0,1,1,0,0,4.396483742315163,0,0,0,0,0,-4,0,-1,1,4,"",""
50,40891839,0,0,0,0,0,0,0,0,0,0,0,-10,1000,162,44,512,-1,1,0,0,0,-4056,0,138,165,168,142,1,8,0,1,1,0,0,4.396483715988777,0,0,0,0,0,-4,0,-1,1,4,"",""
51,40893160,0,0,0,0,0,0,0,0,0,0,0,-10,1000,162,44,512,-1,1,0,0,0,-4056,0,138,165,168,142,1,8,0,1,1,0,0,4.396483689032806,0,0,0,0,0,-4,0,-1,1,4,"",""
52,40894473,0,0,0,0,0,0,0,0,0,0,0,-10,1000,162,44,512,-1,1,0,0,0,-4056,0,138,165,168,142,1,8,0,1,1,0,0,4.396483661711729,0,0,0,0,0,-4,0,-1,1,4,"",""
53,40895785,0,0,0,0,0,0,0,0,0,0,0,-10,1000,162,22,512,-1,1,0,0,0,-4056,0,138,165,168,142,1,8,0,1,1,0,0,4.396483633886708,0,0,0,0,0,-4,0,-1,1,4,"",""
54,40897099,0,0,0,0,0,0,0,0,0,0,0,-10,1000,162,22,512,-1,1,0,0,0,-4056,0,138,165,168,142,1,8,0,1,1,0,0,4.396483605494119,0,0,0,0,0,-4,0,-1,1,4,"",""
55,40898430,0,0,0,0,0,0,0,0,0,0,0,-10,1000,162,22,512,-1,1,0,0,0,-4056,0,138,164,167,141,1,8,0,1,1,0,0,4.39648357620144,0,0,0,0,0,-4,0,-1,1,4,"",""
56,40899755,0,0,0,0,0,0,0,0,0,0,0,-10,1000,162,22,512,-1,1,0,0,0,-4056,0,138,164,167,141,1,8,0,1,1,0,0,4.396483546503592,0,0,0,0,0,-4,0,-1,1,4,"",""
57,40901072,0,0,0,0,0,0,0,0,0,0,0,-10,1000,162,22,512,-1,1,0,0,0,-4056,0,138,164,167,141,1,8,0,1,1,0,0,4.396483516453484,0,0,0,0,0,-4,0,-1,1,4,"",""
58,40902388,0,0,0,0,0,0,0,0,0,0,0,-10,1000,162,22,512,-1,1,0,0,0,-4056,0,138,164,167,141,1,8,0,1,1,0,0,4.396483485898238,0,0,0,0,0,-4,0,-1,1,4,"",""
59,40903703,0,0,0,0,0,0,0,0,0,0,0,-10,1000,162,22,512,-1,1,0,0,0,-4056,0,138,164,167,141,1,8,0,1,1,0,0,4.396483454839056,0,0,0,0,0,-4,0,-1,1,4,"",""
60,40905013,0,0,0,0,0,0,0,0,0,0,0,-10,1000,162,22,512,-1,1,0,0,0,-4056,0,138,164,167,141,1,8,0,1,1,0,0,4.396483423373217,0,0,0,0,0,-4,0,-1,1,4,"",""
61,40906331,0,0,0,0,0,0,0,0,0,0,0,-10,1000,162,22,512,-1,1,0,0,0,-4056,0,138,164,167,141,1,8,0,1,1,0,0,4.396483391189274,0,0,0,0,0,-4,0,-1,1,4,"",""
62,40907658,0,0,0,0,0,0,0,0,0,0,0,-10,1000,162,22,512,-1,1,0,0,0,-4056,0,138,164,167,141,1,8,0,1,1,0,0,4.3964833582527865,0,0,0,0,0,-4,0,-1,1,4,"",""
63,40908991,0,0,0,0,0,0,0,0,0,0,0,-10,1000,162,22,512,-1,1,0,0,0,-4056,0,138,163,167,141,1,8,0,1,1,0,0,4.396483324628541,0,0,0,0,0,-4,0,-1,1,4,"",""
64,40910309,0,0,0,0,0,0,0,0,0,0,0,-10,1000,162,22,512,-1,1,0,0,0,-4056,0,138,164,167,141,1,8,0,1,1,0,0,4.396483290847479,0,0,0,0,0,-4,0,-1,1,4,"",""
65,40911626,0,0,0,0,0,0,0,0,0,0,0,-10,1000,162,22,512,-1,1,0,0,0,-4056,0,138,164,168,141,1,8,0,1,1,0,0,4.39648325656329,0,0,0,0,0,-4,0,-1,1,4,"",""
66,40912942,0,0,0,0,0,0,0,0,0,0,0,-10,1000,162,22,512,-1,1,0,0,0,-4056,0,138,164,168,141,1,8,0,1,1,0,0,4.396483221777175,0,0,0,0,0,-4,0,-1,1,4,"",""
67,40914258,0,0,0,0,0,0,0,0,0,0,0,-10,1000,162,22,512,-1,1,0,0,0,-4056,0,138,164,168,141,1,8,0,1,1,0,0,4.396483186463505,0,0,0,0,0,-4,0,-1,1,4,"",""
68,40915595,0,0,0,0,0,0,0,0,0,0,0,-10,1000,162,0,512,-1,1,0,0,0,-4056,0,138,164,168,141,1,8,0,1,1,0,0,4.396483150050344,0,0,0,0,0,-4,0,-1,1,4,"",""
69,40917074,0,0,0,0,0,0,0,0,0,0,0,-10,1000,162,0,512,-1,1,0,0,0,-4056,0,138,164,168,141,1,8,0,1,1,0,0,4.396483109167455,0,0,0,0,0,-4,0,-1,1,4,"",""
70,40918540,0,0,0,0,0,0,0,0,0,0,0,-10,1000,162,0,512,-1,1,0,0,0,-4056,0,138,164,168,142,1,8,0,1,1,0,0,4.3964830679834375,0,0,0,0,0,-4,0,-1,1,4,"",""
71,40919861,0,0,0,0,0,0,0,0,0,0,0,-10,1000,162,0,512,-1,1,0,0,0,-4056,0,138,164,168,141,1,8,0,1,1,0,0,4.396483030282952,0,0,0,0,0,-4,0,-1,1,4,"",""
72,40921178,0,0,0,0,0,0,0,0,0,0,0,-10,1000,162,0,512,-1,1,0,0,0,-4056,0,138,164,167,140,1,8,0,1,1,0,0,4.396482992166661,0,0,0,0,0,-4,0,-1,1,4,"",""
73,40922488,0,0,0,0,0,0,0,0,0,0,0,-10,1000,162,0,512,-1,1,0,0,0,-4056,0,138,164,167,140,1,8,0,1,1,0,0,4.3964829537274115,0,0,0,0,0,-4,0,-1,1,4,"",""
74,40923804,0,0,0,0,0,0,0,0,0,0,0,-10,1000,162,0,512,-1,1,0,0,0,-4056,0,138,164,167,140,1,8,0,1,1,0,0,4.3964829145869535,0,0,0,0,0,-4,0,-1,1,4,"",""
75,40925131,0,0,0,0,0,0,0,0,0,0,0,-10,1000,162,0,512,-1,1,0,0,0,-4056,0,138,164,168,140,1,8,0,1,1,0,0,4.396482874587367,0,0,0,0,0,-4,0,-1,1,4,"",""
76,40926488,0,0,0,0,0,0,0,0,0,0,0,-10,1000,162,0,512,-1,1,0,0,0,-4056,0,138,163,168,140,1,8,0,1,1,0,0,4.396482833134955,0,0,0,0,0,-4,0,-1,1,4,"",""
77,40927808,0,0,0,0,0,0,0,0,0,0,0,-10,1000,163,0,512,-1,1,0,0,0,-4056,0,138,164,168,141,1,8,0,1,1,0,0,4.396482792267139,0,0,0,0,0,-4,0,-1,1,4,"",""
78,40929124,0,0,0,0,0,0,0,0,0,0,0,-10,1000,163,0,512,-1,1,0,0,0,-4056,0,138,164,168,141,1,8,0,1,1,0,0,4.3964827509940045,0,0,0,0,0,-4,0,-1,1,4,"",""
79,40930438,0,0,0,0,0,0,0,0,0,0,0,-10,1000,163,0,512,-1,1,0,0,0,-4056,0,138,164,168,141,1,8,0,1,1,0,0,4.39648270925684,0,0,0,0,0,-4,0,-1,1,4,"",""
80,40931750,0,0,0,0,0,0,0,0,0,0,0,-10,1000,163,0,512,-1,1,0,0,0,-4056,0,138,164,167,140,1,8,0,1,1,0,0,4.396482667058048,0,0,0,0,0,-4,0,-1,1,4,"",""
81,40933074,0,0,0,0,0,0,0,0,0,0,0,-10,1000,163,0,512,-1,1,0,0,0,-4056,0,138,164,167,140,1,8,0,1,1,0,0,4.396482623944141,0,0,0,0,0,-4,0,-1,1,4,"",""
82,40934404,0,0,0,0,0,0,0,0,0,0,0,-10,1000,163,0,512,-1,1,0,0,0,-4056,0,138,164,167,140,1,8,0,1,1,0,0,4.396482580098442,0,0,0,0,0,-4,0,-1,1,4,"",""
83,40935726,0,0,0,0,0,0,0,0,0,0,0,-10,1000,163,0,512,-1,1,0,0,0,-4056,0,138,164,167,140,1,8,0,1,1,0,0,4.396482535980877,0,0,0,0,0,-4,0,-1,1,4,"",""
84,40937051,0,0,0,0,0,0,0,0,0,0,0,-10,1000,163,0,512,-1,1,0,0,0,-4056,0,138,164,168,140,1,8,0,1,1,0,0,4.396482491229609,0,0,0,0,0,-4,0,-1,1,4,"",""
85,40938366,0,0,0,0,0,0,0,0,0,0,0,-10,1000,163,0,512,-1,1,0,0,0,-4056,0,138,164,168,140,1,8,0,1,1,0,0,4.396482446285325,0,0,0,0,0,-4,0,-1,1,4,"",""
86,40939679,0,0,0,0,0,0,0,0,0,0,0,-10,1000,163,0,512,-1,1,0,0,0,-4056,0,138,164,168,141,1,8,0,1,1,0,0,4.396482400883442,0,0,0,0,0,-4,0,-1,1,4,"",""
87,40940998,0,0,0,0,0,0,0,0,0,0,0,-10,1000,163,0,512,-1,1,0,0,0,-4056,0,138,164,167,140,1,8,0,1,1,0,0,4.396482354746531,0,0,0,0,0,-4,0,-1,1,4,"",""
88,40942317,0,0,0,0,0,0,0,0,0,0,0,-10,1000,163,0,512,-1,1,0,0,0,-4056,0,138,164,167,140,1,8,0,1,1,0,0,4.396482308079655,0,0,0,0,0,-4,0,-1,1,4,"",""
89,40943649,0,0,0,0,0,0,0,0,0,0,0,-10,1000,163,0,512,-1,1,0,0,0,-4056,0,138,164,167,140,1,8,0,1,1,0,0,4.396482260417643,0,0,0,0,0,-4,0,-1,1,4,"",""
90,40944996,0,0,0,0,0,0,0,0,0,0,0,-10,1000,163,0,512,-1,1,0,0,0,-4056,0,138,164,167,141,1,8,0,1,1,0,0,4.396482211672345,0,0,0,0,0,-4,0,-1,1,4,"",""
91,40946321,0,0,0,0,0,0,0,0,0,0,0,-10,1000,163,0,512,-1,1,0,0,0,-4056,0,138,164,167,140,1,8,0,1,1,0,0,4.396482163179507,0,0,0,0,0,-4,0,-1,1,4,"",""
92,40947776,0,0,0,0,0,0,0,0,0,0,0,-10,1000,162,0,512,-1,1,0,0,0,-4056,0,138,164,167,141,1,8,0,1,1,0,0,4.396482109341611,0,0,0,0,0,-4,0,-1,1,4,"",""
93,40949234,0,0,0,0,0,0,0,0,0,0,0,-10,1000,162,0,512,-1,1,0,0,0,-4056,0,138,164,167,141,1,8,0,1,1,0,0,4.396482054746491,0,0,0,0,0,-4,0,-1,1,4,"",""
94,40950551,0,0,0,0,0,0,0,0,0,0,0,-10,1000,162,0,512,-1,1,0,0,0,-4056,0,138,164,167,140,1,8,0,1,1,0,0,4.396482004846218,0,0,0,0,0,-4,0,-1,1,4,"",""
95,40951887,0,0,0,0,0,0,0,0,0,0,0,-10,1000,162,0,512,-1,1,0,0,0,-4056,0,138,164,167,140,1,8,0,1,1,0,0,4.396481953690065,0,0,0,0,0,-4,0,-1,1,4,"",""
96,40953214,0,0,0,0,0,0,0,0,0,0,0,-10,1000,162,0,512,-1,1,0,0,0,-4056,0,138,164,167,140,1,8,0,1,1,0,0,4.396481902338473,0,0,0,0,0,-4,0,-1,1,4,"",""
97,40954534,0,0,0,0,0,0,0,0,0,0,0,-10,1000,162,0,512,-1,1,0,0,0,-4056,0,138,165,167,141,1,8,0,1,1,0,0,4.396481850724179,0,0,0,0,0,-4,0,-1,1,4,"",""
98,40955859,0,0,0,0,0,0,0,0,0,0,0,-10,1000,162,22,512,-1,1,0,0,0,-4056,0,138,165,168,141,1,8,0,1,1,0,0,4.396481798381594,0,0,0,0,0,-4,0,-1,1,4,"",""
99,40957183,0,0,0,0,0,0,0,0,0,0,0,-10,1000,162,22,512,-1,1,0,0,0,-4056,0,138,164,167,141,1,8,0,1,1,0,0,4.396481745544118,0,0,0,0,0,-4,0,-1,1,4,"",""
100,40958500,0,0,0,0,0,0,0,0,0,0,0,-10,1000,162,22,512,-1,1,0,0,0,-4056,0,138,165,167,141,1,8,0,1,1,0,0,4.396481692454824,0,0,0,0,0,-4,0,-1,1,4,"",""
101,40959813,0,0,0,0,0,0,0,0,0,0,0,-10,1000,162,22,512,-1,1,0,0,0,-4056,0,138,165,168,141,1,8,0,1,1,0,0,4.396481639000017,0,0,0,0,0,-4,0,-1,1,4,"",""
102,40961147,0,0,0,0,0,0,0,0,0,0,0,-10,1000,162,22,512,-1,1,0,0,0,-4056,0,138,164,167,140,1,8,0,1,1,0,0,4.396481584156702,0,0,0,0,0,-4,0,-1,1,4,"",""
103,40962491,0,0,0,0,0,0,0,0,0,0,0,-10,1000,162,22,512,-1,1,0,0,0,-4056,0,138,164,167,141,1,8,0,1,1,0,0,4.396481528356115,0,0,0,0,0,-4,0,-1,1,4,"",""
104,40963806,0,0,0,0,0,0,0,0,0,0,0,-10,1000,162,22,512,-1,1,0,0,0,-4056,0,138,164,167,141,1,8,0,1,1,0,0,4.396481473221183,0,0,0,0,0,-4,0,-1,1,4,"",""
105,40965121,0,0,0,0,0,0,0,0,0,0,0,-10,1000,162,22,512,-1,1,0,0,0,-4056,0,138,164,166,140,1,8,0,1,1,0,0,4.396481417559493,0,0,0,0,0,-4,0,-1,1,4,"",""
106,40966431,0,0,0,0,0,0,0,0,0,0,0,-10,1000,162,22,512,-1,1,0,0,0,-4056,0,138,164,167,140,1,8,0,1,1,0,0,4.396481361584689,0,0,0,0,0,-4,0,-1,1,4,"",""
107,40967748,0,0,0,0,0,0,0,0,0,0,0,-10,1000,162,22,512,-1,1,0,0,0,-4056,0,138,164,167,141,1,8,0,1,1,0,0,4.39648130478523,0,0,0,0,0,-4,0,-1,1,4,"",""
108,40969059,0,0,0,0,0,0,0,0,0,0,0,-10,1000,162,22,512,-1,1,0,0,0,-4056,0,138,164,167,140,1,8,0,1,1,0,0,4.396481247718582,0,0,0,0,0,-4,0,-1,1,4,"",""
109,40970385,0,0,0,0,0,0,0,0,0,0,0,-10,1000,162,22,512,-1,1,0,0,0,-4056,0,138,164,167,141,1,8,0,1,1,0,0,4.3964811894694495,0,0,0,0,0,-4,0,-1,1,4,"",""
110,40971714,0,0,0,0,0,0,0,0,0,0,0,-10,1000,162,22,512,-1,1,0,0,0,-4056,0,138,164,167,141,1,8,0,1,1,0,0,4.39648113055171,0,0,0,0,0,-4,0,-1,1,4,"",""
111,40973030,0,0,0,0,0,0,0,0,0,0,0,-10,1000,162,22,512,-1,1,0,0,0,-4056,0,138,164,167,141,1,8,0,1,1,0,0,4.396481071677521,0,0,0,0,0,-4,0,-1,1,4,"",""
112,40974341,0,0,0,0,0,0,0,0,0,0,0,-10,1000,162,22,512,-1,1,0,0,0,-4056,0,138,164,167,141,1,8,0,1,1,0,0,4.396481012501462,0,0,0,0,0,-4,0,-1,1,4,"",""
113,40975655,0,0,0,0,0,0,0,0,0,0,0,-10,1000,162,0,512,-1,1,0,0,0,-4056,0,138,164,167,141,1,8,0,1,1,0,0,4.396480952665231,0,0,0,0,0,-4,0,-1,1,4,"",""
114,40976979,0,0,0,0,0,0,0,0,0,0,0,-10,1000,162,0,512,-1,1,0,0,0,-4056,0,138,164,167,140,1,8,0,1,1,0,0,4.396480891843663,0,0,0,0,0,-4,0,-1,1,4,"",""
115,40978439,0,0,0,0,0,0,0,0,0,0,0,-10,1000,162,0,512,-1,1,0,0,0,-4056,0,138,164,167,141,1,8,0,1,1,0,0,4.3964808241857165,0,0,0,0,0,-4,0,-1,1,4,"",""
116,40979902,0,0,0,0,0,0,0,0,0,0,0,-10,1000,162,0,512,-1,1,0,0,0,-4056,0,138,164,167,141,1,8,0,1,1,0,0,4.396480755738081,0,0,0,0,0,-4,0,-1,1,4,"",""
117,40981241,0,0,0,0,0,0,0,0,0,0,0,-10,1000,162,0,512,-1,1,0,0,0,-4056,0,138,164,167,140,1,8,0,1,1,0,0,4.396480692495145,0,0,0,0,0,-4,0,-1,1,4,"",""
118,40982563,0,0,0,0,0,0,0,0,0,0,0,-10,1000,162,0,512,-1,1,0,0,0,-4056,0,138,164,167,140,1,8,0,1,1,0,0,4.396480629515915,0,0,0,0,0,-4,0,-1,1,4,"",""
119,40983877,0,0,0,0,0,0,0,0,0,0,0,-10,1000,162,0,512,-1,1,0,0,0,-4056,0,138,163,167,140,1,8,0,1,1,0,0,4.396480566388639,0,0,0,0,0,-4,0,-1,1,4,"",""
120,40985186,0,0,0,0,0,0,0,0,0,0,0,-10,1000,162,0,512,-1,1,0,0,0,-4056,0,138,164,167,141,1,8,0,1,1,0,0,4.396480502977615,0,0,0,0,0,-4,0,-1,1,4,"",""
121,40986502,0,0,0,0,0,0,0,0,0,0,0,-10,1000,162,0,512,-1,1,0,0,0,-4056,0,138,163,167,140,1,8,0,1,1,0,0,4.3964804387027385,0,0,0,0,0,-4,0,-1,1,4,"",""
122,40987835,0,0,0,0,0,0,0,0,0,0,0,-10,1000,162,0,512,-1,1,0,0,0,-4056,0,138,164,167,140,1,8,0,1,1,0,0,4.396480373063186,0,0,0,0,0,-4,0,-1,1,4,"",""
123,40989167,0,0,0,0,0,0,0,0,0,0,0,-10,1000,162,0,512,-1,1,0,0,0,-4056,0,138,164,167,141,1,8,0,1,1,0,0,4.396480306932003,0,0,0,0,0,-4,0,-1,1,4,"",""
124,40990490,0,0,0,0,0,0,0,0,0,0,0,-10,1000,162,0,512,-1,1,0,0,0,-4056,0,138,164,167,141,1,8,0,1,1,0,0,4.396480240710835,0,0,0,0,0,-4,0,-1,1,4,"",""
125,40991809,0,0,0,0,0,0,0,0,0,0,0,-10,1000,162,0,512,-1,1,0,0,0,-4056,0,138,163,167,140,1,8,0,1,1,0,0,4.396480174158304,0,0,0,0,0,-4,0,-1,1,4,"",""
126,40993127,0,0,0,0,0,0,0,0,0,0,0,-10,1000,162,0,512,-1,1,0,0,0,-4056,0,138,164,167,140,1,8,0,1,1,0,0,4.396480107126662,0,0,0,0,0,-4,0,-1,1,4,"",""
127,40994442,0,0,0,0,0,0,0,0,0,0,0,-10,1000,162,0,512,-1,1,0,0,0,-4056,0,138,164,167,140,1,8,0,1,1,0,0,4.396480039719633,0,0,0,0,0,-4,0,-1,1,4,"",""
128,40995756,0,0,0,0,0,0,0,0,0,0,0,-10,1000,162,0,512,-1,1,0,0,0,-4056,0,138,164,168,141,1,8,0,1,1,0,0,4.396479971837503,0,0,0,0,0,-4,0,-1,1,4,"",""
129,40997091,0,0,0,0,0,0,0,0,0,0,0,-10,1000,162,0,512,-1,1,0,0,0,-4056,0,138,164,168,141,1,8,0,1,1,0,0,4.396479902336132,0,0,0,0,0,-4,0,-1,1,4,"",""
130,40998422,0,0,0,0,0,0,0,0,0,0,0,-10,1000,162,0,512,-1,1,0,0,0,-4056,0,138,164,168,141,1,8,0,1,1,0,0,4.3964798325017265,0,0,0,0,0,-4,0,-1,1,4,"",""
131,40999741,0,0,0,0,0,0,0,0,0,0,0,-10,1000,162,0,512,-1,1,0,0,0,-4056,0,138,164,168,141,1,8,0,1,1,0,0,4.396479762762138,0,0,0,0,0,-4,0,-1,1,4,"",""
132,41001059,0,0,0,0,0,0,0,0,0,0,0,-10,1000,162,0,512,-1,1,0,0,0,-4056,0,138,164,168,141,1,8,0,1,1,0,0,4.396479692545854,0,0,0,0,0,-4,0,-1,1,4,"",""
133,41002374,0,0,0,0,0,0,0,0,0,0,0,-10,1000,162,0,512,-1,1,0,0,0,-4056,0,138,163,168,140,1,8,0,1,1,0,0,4.396479621961431,0,0,0,0,0,-4,0,-1,1,4,"",""
134,41003687,0,0,0,0,0,0,0,0,0,0,0,-10,1000,162,0,512,-1,1,0,0,0,-4056,0,138,164,167,140,1,8,0,1,1,0,0,4.396479550958399,0,0,0,0,0,-4,0,-1,1,4,"",""
135,41005013,0,0,0,0,0,0,0,0,0,0,0,-10,1000,162,0,512,-1,1,0,0,0,-4056,0,138,164,167,140,1,8,0,1,1,0,0,4.396479478722006,0,0,0,0,0,-4,0,-1,1,4,"",""
136,41006352,0,0,0,0,0,0,0,0,0,0,0,-10,1000,162,0,512,-1,1,0,0,0,-4056,0,138,164,167,141,1,8,0,1,1,0,0,4.39647940523655,0,0,0,0,0,-4,0,-1,1,4,"",""
137,41007823,0,0,0,0,0,0,0,0,0,0,0,-10,1000,163,0,512,-1,1,0,0,0,-4056,0,138,163,167,140,1,8,0,1,1,0,0,4.3964793239068145,0,0,0,0,0,-4,0,-1,1,4,"",""
138,41009281,0,0,0,0,0,0,0,0,0,0,0,-10,1000,163,0,512,-1,1,0,0,0,-4056,0,138,164,167,140,1,8,0,1,1,0,0,4.3964792426425,0,0,0,0,0,-4,0,-1,1,4,"",""
139,41010600,0,0,0,0,0,0,0,0,0,0,0,-10,1000,163,0,512,-1,1,0,0,0,-4056,0,138,164,167,140,1,8,0,1,1,0,0,4.396479168539785,0,0,0,0,0,-4,0,-1,1,4,"",""
140,41011911,0,0,0,0,0,0,0,0,0,0,0,-10,1000,163,0,512,-1,1,0,0,0,-4056,0,138,164,167,140,1,8,0,1,1,0,0,4.396479094359759,0,0,0,0,0,-4,0,-1,1,4,"",""
141,41013224,0,0,0,0,0,0,0,0,0,0,0,-10,1000,163,0,512,-1,1,0,0,0,-4056,0,138,163,167,140,1,8,0,1,1,0,0,4.396479019542206,0,0,0,0,0,-4,0,-1,1,4,"",""
142,41014544,0,0,0,0,0,0,0,0,0,0,0,-10,1000,163,0,512,-1,1,0,0,0,-4056,0,138,164,167,141,1,8,0,1,1,0,0,4.396478943797816,0,0,0,0,0,-4,0,-1,1,4,"",""
143,41015867,0,0,0,0,0,0,0,0,0,0,0,-10,1000,163,0,512,-1,1,0,0,0,-4056,0,138,164,167,140,1,8,0,1,1,0,0,4.396478867349296,0,0,0,0,0,-4,0,-1,1,4,"",""
144,41017198,0,0,0,0,0,0,0,0,0,0,0,-10,1000,163,0,512,-1,1,0,0,0,-4056,0,138,164,167,141,1,8,0,1,1,0,0,4.396478789902085,0,0,0,0,0,-4,0,-1,1,4,"",""
145,41018520,0,0,0,0,0,0,0,0,0,0,0,-10,1000,163,0,512,-1,1,0,0,0,-4056,0,138,164,168,141,1,8,0,1,1,0,0,4.396478712442548,0,0,0,0,0,-4,0,-1,1,4,"",""
146,41019838,0,0,0,0,0,0,0,0,0,0,0,-10,1000,163,0,512,-1,1,0,0,0,-4056,0,138,165,168,141,1,8,0,1,1,0,0,4.396478634686606,0,0,0,0,0,-4,0,-1,1,4,"",""
147,41021159,0,0,0,0,0,0,0,0,0,0,0,-10,1000,163,0,512,-1,1,0,0,0,-4056,0,138,165,167,141,1,8,0,1,1,0,0,4.396478556223302,0,0,0,0,0,-4,0,-1,1,4,"",""
148,41022472,0,0,0,0,0,0,0,0,0,0,0,-10,1000,163,0,512,-1,1,0,0,0,-4056,0,138,165,167,141,1,8,0,1,1,0,0,4.396478477706811,0,0,0,0,0,-4,0,-1,1,4,"",""
149,41023804,0,0,0,0,0,0,0,0,0,0,0,-10,1000,163,0,512,-1,1,0,0,0,-4056,0,138,164,167,141,1,8,0,1,1,0,0,4.39647839752137,0,0,0,0,0,-4,0,-1,1,4,"",""
150,41025137,0,0,0,0,0,0,0,0,0,0,0,-10,1000,163,0,512,-1,1,0,0,0,-4056,0,138,164,167,141,1,8,0,1,1,0,0,4.396478316734851,0,0,0,0,0,-4,0,-1,1,4,"",""
151,41026462,0,0,0,0,0,0,0,0,0,0,0,-10,1000,163,0,512,-1,1,0,0,0,-4056,0,138,164,167,141,1,8,0,1,1,0,0,4.396478235895136,0,0,0,0,0,-4,0,-1,1,4,"",""
152,41027777,0,0,0,0,0,0,0,0,0,0,0,-10,1000,163,0,512,-1,1,0,0,0,-4056,0,138,163,167,141,1,8,0,1,1,0,0,4.396478155134762,0,0,0,0,0,-4,0,-1,1,4,"",""
153,41029106,0,0,0,0,0,0,0,0,0,0,0,-10,1000,163,0,512,-1,1,0,0,0,-4056,0,138,163,167,140,1,8,0,1,1,0,0,4.396478072982208,0,0,0,0,0,-4,0,-1,1,4,"",""
154,41030419,0,0,0,0,0,0,0,0,0,0,0,-10,1000,163,0,512,-1,1,0,0,0,-4056,0,138,163,167,140,1,8,0,1,1,0,0,4.396477991287136,0,0,0,0,0,-4,0,-1,1,4,"",""
155,41031731,0,0,0,0,0,0,0,0,0,0,0,-10,1000,163,0,512,-1,1,0,0,0,-4056,0,138,163,167,140,1,8,0,1,1,0,0,4.396477909129518,0,0,0,0,0,-4,0,-1,1,4,"",""
156,41033066,0,0,0,0,0,0,0,0,0,0,0,-10,1000,163,0,512,-1,1,0,0,0,-4056,0,138,164,167,140,1,8,0,1,1,0,0,4.3964778249980805,0,0,0,0,0,-4,0,-1,1,4,"",""
157,41034392,0,0,0,0,0,0,0,0,0,0,0,-10,1000,163,0,512,-1,1,0,0,0,-4056,0,138,164,167,140,1,8,0,1,1,0,0,4.3964777408945706,0,0,0,0,0,-4,0,-1,1,4,"",""
158,41035705,0,0,0,0,0,0,0,0,0,0,0,-10,1000,163,0,512,-1,1,0,0,0,-4056,0,138,164,167,141,1,8,0,1,1,0,0,4.3964776570852395,0,0,0,0,0,-4,0,-1,1,4,"",""
159,41037039,0,0,0,0,0,0,0,0,0,0,0,-10,1000,163,0,512,-1,1,0,0,0,-4056,0,138,164,167,140,1,8,0,1,1,0,0,4.396477571401905,0,0,0,0,0,-4,0,-1,1,4,"",""
160,41038498,0,0,0,0,0,0,0,0,0,0,0,-10,1000,163,0,512,-1,1,0,0,0,-4056,0,138,164,167,141,1,8,0,1,1,0,0,4.3964774770968775,0,0,0,0,0,-4,0,-1,1,4,"",""
161,41039957,0,0,0,0,0,0,0,0,0,0,0,-10,1000,163,0,512,-1,1,0,0,0,-4056,0,138,164,167,141,1,8,0,1,1,0,0,4.396477382143398,0,0,0,0,0,-4,0,-1,1,4,"",""
162,41041274,0,0,0,0,0,0,0,0,0,0,0,-10,1000,163,0,512,-1,1,0,0,0,-4056,0,138,164,167,141,1,8,0,1,1,0,0,4.39647729584611,0,0,0,0,0,-4,0,-1,1,4,"",""
163,41042607,0,0,0,0,0,0,0,0,0,0,0,-10,1000,163,0,512,-1,1,0,0,0,-4056,0,138,164,167,141,1,8,0,1,1,0,0,4.396477207965623,0,0,0,0,0,-4,0,-1,1,4,"",""
164,41043936,0,0,0,0,0,0,0,0,0,0,0,-10,1000,163,0,512,-1,1,0,0,0,-4056,0,138,164,167,141,1,8,0,1,1,0,0,4.39647711980918,0,0,0,0,0,-4,0,-1,1,4,"",""
165,41045255,0,0,0,0,0,0,0,0,0,0,0,-10,1000,163,0,512,-1,1,0,0,0,-4056,0,138,163,167,140,1,8,0,1,1,0,0,4.396477031782072,0,0,0,0,0,-4,0,-1,1,4,"",""
166,41046568,0,0,0,0,0,0,0,0,0,0,0,-10,1000,163,0,512,-1,1,0,0,0,-4056,0,138,163,167,140,1,8,0,1,1,0,0,4.396476943627824,0,0,0,0,0,-4,0,-1,1,4,"",""
167,41047875,0,0,0,0,0,0,0,0,0,0,0,-10,1000,163,0,512,-1,1,0,0,0,-4056,0,138,163,167,140,1,8,0,1,1,0,0,4.396476855353646,0,0,0,0,0,-4,0,-1,1,4,"",""
168,41049194,0,0,0,0,0,0,0,0,0,0,0,-10,1000,163,0,512,-1,1,0,0,0,-4056,0,138,164,167,140,1,8,0,1,1,0,0,4.396476765743838,0,0,0,0,0,-4,0,-1,1,4,"",""
169,41050525,0,0,0,0,0,0,0,0,0,0,0,-10,1000,163,0,512,-1,1,0,0,0,-4056,0,138,164,167,141,1,8,0,1,1,0,0,4.396476674783978,0,0,0,0,0,-4,0,-1,1,4,"",""
170,41051865,0,0,0,0,0,0,0,0,0,0,0,-10,1000,163,0,512,-1,1,0,0,0,-4056,0,138,164,168,141,1,8,0,1,1,0,0,4.396476582665748,0,0,0,0,0,-4,0,-1,1,4,"",""
171,41053205,0,0,0,0,0,0,0,0,0,0,0,-10,1000,163,0,512,-1,1,0,0,0,-4056,0,138,164,168,141,1,8,0,1,1,0,0,4.396476490000531,0,0,0,0,0,-4,0,-1,1,4,"",""
172,41054526,0,0,0,0,0,0,0,0,0,0,0,-10,1000,163,0,512,-1,1,0,0,0,-4056,0,138,164,168,141,1,8,0,1,1,0,0,4.396476398109991,0,0,0,0,0,-4,0,-1,1,4,"",""
173,41055859,0,0,0,0,0,0,0,0,0,0,0,-10,1000,163,27,512,-1,1,0,0,0,-4056,0,138,164,168,141,1,8,0,1,1,0,0,4.396476304848298,0,0,0,0,0,-4,0,-1,1,4,"",""
174,41057175,0,0,0,0,0,0,0,0,0,0,0,-10,1000,163,27,512,-1,1,0,0,0,-4056,0,138,164,168,142,1,8,0,1,1,0,0,4.396476212241604,0,0,0,0,0,-4,0,-1,1,4,"",""
175,41058483,0,0,0,0,0,0,0,0,0,0,0,-10,1000,163,27,512,-1,1,0,0,0,-4056,0,138,164,168,141,1,8,0,1,1,0,0,4.396476119673505,0,0,0,0,0,-4,0,-1,1,4,"",""
176,41059811,0,0,0,0,0,0,0,0,0,0,0,-10,1000,163,27,512,-1,1,0,0,0,-4056,0,138,164,168,142,1,8,0,1,1,0,0,4.396476025160846,0,0,0,0,0,-4,0,-1,1,4,"",""
177,41061143,0,0,0,0,0,0,0,0,0,0,0,-10,1000,163,27,512,-1,1,0,0,0,-4056,0,138,164,168,141,1,8,0,1,1,0,0,4.396475929824655,0,0,0,0,0,-4,0,-1,1,4,"",""
178,41062466,0,0,0,0,0,0,0,0,0,0,0,-10,1000,163,27,512,-1,1,0,0,0,-4056,0,138,164,167,140,1,8,0,1,1,0,0,4.396475834595803,0,0,0,0,0,-4,0,-1,1,4,"",""
179,41063780,0,0,0,0,0,0,0,0,0,0,0,-10,1000,163,27,512,-1,1,0,0,0,-4056,0,138,164,168,141,1,8,0,1,1,0,0,4.396475739485194,0,0,0,0,0,-4,0,-1,1,4,"",""
180,41065102,0,0,0,0,0,0,0,0,0,0,0,-10,1000,163,27,512,-1,1,0,0,0,-4056,0,138,164,168,141,1,8,0,1,1,0,0,4.396475643266352,0,0,0,0,0,-4,0,-1,1,4,"",""
181,41066430,0,0,0,0,0,0,0,0,0,0,0,-10,1000,163,27,512,-1,1,0,0,0,-4056,0,138,165,168,141,1,8,0,1,1,0,0,4.3964755460760045,0,0,0,0,0,-4,0,-1,1,4,"",""
182,41067883,0,0,0,0,0,0,0,0,0,0,0,-10,1000,162,27,512,-1,1,0,0,0,-4056,0,138,165,168,142,1,8,0,1,1,0,0,4.396475439149662,0,0,0,0,0,-4,0,-1,1,4,"",""
183,41069358,0,0,0,0,0,0,0,0,0,0,0,-10,1000,162,27,512,-1,1,0,0,0,-4056,0,138,165,168,141,1,8,0,1,1,0,0,4.396475329951466,0,0,0,0,0,-4,0,-1,1,4,"",""
184,41070689,0,0,0,0,0,0,0,0,0,0,0,-10,1000,162,27,512,-1,1,0,0,0,-4056,0,138,165,168,141,1,8,0,1,1,0,0,4.3964752308159225,0,0,0,0,0,-4,0,-1,1,4,"",""
185,41072010,0,0,0,0,0,0,0,0,0,0,0,-10,1000,162,27,512,-1,1,0,0,0,-4056,0,138,165,168,141,1,8,0,1,1,0,0,4.396475131889585,0,0,0,0,0,-4,0,-1,1,4,"",""
186,41073327,0,0,0,0,0,0,0,0,0,0,0,-10,1000,162,27,512,-1,1,0,0,0,-4056,0,138,164,168,142,1,8,0,1,1,0,0,4.396475032732818,0,0,0,0,0,-4,0,-1,1,4,"",""
187,41074645,0,0,0,0,0,0,0,0,0,0,0,-10,1000,162,27,512,-1,1,0,0,0,-4056,0,138,164,168,142,1,8,0,1,1,0,0,4.3964749329719846,0,0,0,0,0,-4,0,-1,1,4,"",""
188,41075959,0,0,0,0,0,0,0,0,0,0,0,-10,1000,162,0,512,-1,1,0,0,0,-4056,0,138,164,168,141,1,8,0,1,1,0,0,4.396474832986343,0,0,0,0,0,-4,0,-1,1,4,"",""
189,41077287,0,0,0,0,0,0,0,0,0,0,0,-10,1000,162,0,512,-1,1,0,0,0,-4056,0,138,164,168,141,1,8,0,1,1,0,0,4.3964747314038295,0,0,0,0,0,-4,0,-1,1,4,"",""
190,41078622,0,0,0,0,0,0,0,0,0,0,0,-10,1000,162,0,512,-1,1,0,0,0,-4056,0,138,165,168,141,1,8,0,1,1,0,0,4.3964746287457945,0,0,0,0,0,-4,0,-1,1,4,"",""
191,41079954,0,0,0,0,0,0,0,0,0,0,0,-10,1000,162,0,512,-1,1,0,0,0,-4056,0,138,165,168,141,1,8,0,1,1,0,0,4.396474525776755,0,0,0,0,0,-4,0,-1,1,4,"",""
192,41081268,0,0,0,0,0,0,0,0,0,0,0,-10,1000,162,0,512,-1,1,0,0,0,-4056,0,138,165,168,141,1,8,0,1,1,0,0,4.396474423666011,0,0,0,0,0,-4,0,-1,1,4,"",""
193,41082586,0,0,0,0,0,0,0,0,0,0,0,-10,1000,162,0,512,-1,1,0,0,0,-4056,0,138,165,168,142,1,8,0,1,1,0,0,4.396474320716854,0,0,0,0,0,-4,0,-1,1,4,"",""
194,41083897,0,0,0,0,0,0,0,0,0,0,0,-10,1000,162,0,512,-1,1,0,0,0,-4056,0,138,165,168,142,1,8,0,1,1,0,0,4.3964742177881,0,0,0,0,0,-4,0,-1,1,4,"",""
195,41085213,0,0,0,0,0,0,0,0,0,0,0,-10,1000,162,0,512,-1,1,0,0,0,-4056,0,138,165,168,142,1,8,0,1,1,0,0,4.396474113941217,0,0,0,0,0,-4,0,-1,1,4,"",""
196,41086534,0,0,0,0,0,0,0,0,0,0,0,-10,1000,162,0,512,-1,1,0,0,0,-4056,0,138,165,168,142,1,8,0,1,1,0,0,4.396474009170198,0,0,0,0,0,-4,0,-1,1,4,"",""
197,41087870,0,0,0,0,0,0,0,0,0,0,0,-10,1000,162,0,512,-1,1,0,0,0,-4056,0,138,165,168,142,1,8,0,1,1,0,0,4.3964739026718735,0,0,0,0,0,-4,0,-1,1,4,"",""
198,41089209,0,0,0,0,0,0,0,0,0,0,0,-10,1000,162,0,512,-1,1,0,0,0,-4056,0,138,165,168,142,1,8,0,1,1,0,0,4.3964737953894515,0,0,0,0,0,-4,0,-1,1,4,"",""
199,41090531,0,0,0,0,0,0,0,0,0,0,0,-10,1000,162,0,512,-1,1,0,0,0,-4056,0,138,165,169,143,1,8,0,1,1,0,0,4.396473688929848,0,0,0,0,0,-4,0,-1,1,4,"",""
200,41091846,0,0,0,0,0,0,0,0,0,0,0,-10,1000,162,0,512,-1,1,0,0,0,-4056,0,138,165,168,142,1,8,0,1,1,0,0,4.3964735825043695,0,0,0,0,0,-4,0,-1,1,4,"",""
201,41093163,0,0,0,0,0,0,0,0,0,0,0,-10,1000,162,0,512,-1,1,0,0,0,-4056,0,138,165,168,142,1,8,0,1,1,0,0,4.396473475389451,0,0,0,0,0,-4,0,-1,1,4,"",""
202,41094476,0,0,0,0,0,0,0,0,0,0,0,-10,1000,162,0,512,-1,1,0,0,0,-4056,0,138,164,168,142,1,8,0,1,1,0,0,4.396473368073089,0,0,0,0,0,-4,0,-1,1,4,"",""
203,41095803,0,0,0,0,0,0,0,0,0,0,0,-10,1000,162,0,512,-1,1,0,0,0,-4056,0,138,164,168,142,1,8,0,1,1,0,0,4.396473259081681,0,0,0,0,0,-4,0,-1,1,4,"",""
204,41097147,0,0,0,0,0,0,0,0,0,0,0,-10,1000,162,0,512,-1,1,0,0,0,-4056,0,138,164,168,142,1,8,0,1,1,0,0,4.396473148150694,0,0,0,0,0,-4,0,-1,1,4,"",""
205,41098616,0,0,0,0,0,0,0,0,0,0,0,-10,1000,162,0,512,-1,1,0,0,0,-4056,0,138,164,168,142,1,8,0,1,1,0,0,4.396473026301019,0,0,0,0,0,-4,0,-1,1,4,"",""
206,41100070,0,0,0,0,0,0,0,0,0,0,0,-10,1000,162,0,512,-1,1,0,0,0,-4056,0,138,164,168,142,1,8,0,1,1,0,0,4.396472905044886,0,0,0,0,0,-4,0,-1,1,4,"",""
207,41101398,0,0,0,0,0,0,0,0,0,0,0,-10,1000,162,0,512,-1,1,0,0,0,-4056,0,138,164,168,142,1,8,0,1,1,0,0,4.39647279370829,0,0,0,0,0,-4,0,-1,1,4,"",""
208,41102714,0,0,0,0,0,0,0,0,0,0,0,-10,1000,162,0,512,-1,1,0,0,0,-4056,0,138,164,168,142,1,8,0,1,1,0,0,4.396472682845359,0,0,0,0,0,-4,0,-1,1,4,"",""
209,41104022,0,0,0,0,0,0,0,0,0,0,0,-10,1000,162,0,512,-1,1,0,0,0,-4056,0,138,164,168,143,1,8,0,1,1,0,0,4.396472572131995,0,0,0,0,0,-4,0,-1,1,4,"",""
210,41105349,0,0,0,0,0,0,0,0,0,0,0,-10,1000,162,0,512,-1,1,0,0,0,-4056,0,138,164,168,142,1,8,0,1,1,0,0,4.3964724592816555,0,0,0,0,0,-4,0,-1,1,4,"",""
211,41106679,0,0,0,0,0,0,0,0,0,0,0,-10,1000,162,0,512,-1,1,0,0,0,-4056,0,138,164,168,142,1,8,0,1,1,0,0,4.396472345638543,0,0,0,0,0,-4,0,-1,1,4,"",""
212,41108001,0,0,0,0,0,0,0,0,0,0,0,-10,1000,162,0,512,-1,1,0,0,0,-4056,0,138,164,168,142,1,8,0,1,1,0,0,4.396472232143375,0,0,0,0,0,-4,0,-1,1,4,"",""
213,41109312,0,0,0,0,0,0,0,0,0,0,0,-10,1000,162,0,512,-1,1,0,0,0,-4056,0,138,164,168,142,1,8,0,1,1,0,0,4.396472119064598,0,0,0,0,0,-4,0,-1,1,4,"",""
214,41110629,0,0,0,0,0,0,0,0,0,0,0,-10,1000,162,0,512,-1,1,0,0,0,-4056,0,138,164,168,142,1,8,0,1,1,0,0,4.396472004942325,0,0,0,0,0,-4,0,-1,1,4,"",""
215,41111945,0,0,0,0,0,0,0,0,0,0,0,-10,1000,162,0,512,-1,1,0,0,0,-4056,0,138,164,168,142,1,8,0,1,1,0,0,4.396471890378724,0,0,0,0,0,-4,0,-1,1,4,"",""
216,41113262,0,0,0,0,0,0,0,0,0,0,0,-10,1000,162,0,512,-1,1,0,0,0,-4056,0,138,164,168,142,1,8,0,1,1,0,0,4.396471775200087,0,0,0,0,0,-4,0,-1,1,4,"",""
217,41114590,0,0,0,0,0,0,0,0,0,0,0,-10,1000,162,0,512,-1,1,0,0,0,-4056,0,138,164,168,142,1,8,0,1,1,0,0,4.396471658526647,0,0,0,0,0,-4,0,-1,1,4,"",""
218,41115918,0,0,0,0,0,0,0,0,0,0,0,-10,1000,162,0,512,-1,1,0,0,0,-4056,0,138,164,168,142,1,8,0,1,1,0,0,4.39647154131596,0,0,0,0,0,-4,0,-1,1,4,"",""
219,41117235,0,0,0,0,0,0,0,0,0,0,0,-10,1000,162,0,512,-1,1,0,0,0,-4056,0,138,165,168,142,1,8,0,1,1,0,0,4.39647142454335,0,0,0,0,0,-4,0,-1,1,4,"",""
220,41118547,0,0,0,0,0,0,0,0,0,0,0,-10,1000,162,0,512,-1,1,0,0,0,-4056,0,138,165,168,142,1,8,0,1,1,0,0,4.39647130768769,0,0,0,0,0,-4,0,-1,1,4,"",""
221,41119859,0,0,0,0,0,0,0,0,0,0,0,-10,1000,162,0,512,-1,1,0,0,0,-4056,0,138,165,168,142,1,8,0,1,1,0,0,4.396471190307651,0,0,0,0,0,-4,0,-1,1,4,"",""
222,41121177,0,0,0,0,0,0,0,0,0,0,0,-10,1000,162,0,512,-1,1,0,0,0,-4056,0,138,165,168,142,1,8,0,1,1,0,0,4.3964710718640365,0,0,0,0,0,-4,0,-1,1,4,"",""
223,41122499,0,0,0,0,0,0,0,0,0,0,0,-10,1000,162,0,512,-1,1,0,0,0,-4056,0,138,165,168,142,1,8,0,1,1,0,0,4.396470952530165,0,0,0,0,0,-4,0,-1,1,4,"",""
224,41123835,0,0,0,0,0,0,0,0,0,0,0,-10,1000,162,0,512,-1,1,0,0,0,-4056,0,138,165,168,142,1,8,0,1,1,0,0,4.396470831394503,0,0,0,0,0,-4,0,-1,1,4,"",""
225,41125178,0,0,0,0,0,0,0,0,0,0,0,-10,1000,162,0,512,-1,1,0,0,0,-4056,0,138,165,168,142,1,8,0,1,1,0,0,4.39647070907756,0,0,0,0,0,-4,0,-1,1,4,"",""
226,41126507,0,0,0,0,0,0,0,0,0,0,0,-10,1000,162,0,512,-1,1,0,0,0,-4056,0,138,165,167,142,1,8,0,1,1,0,0,4.396470587491975,0,0,0,0,0,-4,0,-1,1,4,"",""
227,41127963,0,0,0,0,0,0,0,0,0,0,0,-10,1000,162,0,512,-1,1,0,0,0,-4056,0,138,165,168,142,1,8,0,1,1,0,0,4.396470453698126,0,0,0,0,0,-4,0,-1,1,4,"",""
228,41129417,0,0,0,0,0,0,0,0,0,0,0,-10,1000,162,0,512,-1,1,0,0,0,-4056,0,138,165,168,142,1,8,0,1,1,0,0,4.396470319443141,0,0,0,0,0,-4,0,-1,1,4,"",""
229,41130733,0,0,0,0,0,0,0,0,0,0,0,-10,1000,162,0,512,-1,1,0,0,0,-4056,0,138,164,167,142,1,8,0,1,1,0,0,4.396470197347471,0,0,0,0,0,-4,0,-1,1,4,"",""
230,41132056,0,0,0,0,0,0,0,0,0,0,0,-10,1000,162,0,512,-1,1,0,0,0,-4056,0,138,164,167,141,1,8,0,1,1,0,0,4.396470074071964,0,0,0,0,0,-4,0,-1,1,4,"",""
231,41133389,0,0,0,0,0,0,0,0,0,0,0,-10,1000,162,0,512,-1,1,0,0,0,-4056,0,138,165,168,142,1,8,0,1,1,0,0,4.39646994932743,0,0,0,0,0,-4,0,-1,1,4,"",""
232,41134707,0,0,0,0,0,0,0,0,0,0,0,-10,1000,162,0,512,-1,1,0,0,0,-4056,0,138,164,167,141,1,8,0,1,1,0,0,4.39646982545141,0,0,0,0,0,-4,0,-1,1,4,"",""
233,41136027,0,0,0,0,0,0,0,0,0,0,0,-10,1000,162,0,512,-1,1,0,0,0,-4056,0,138,164,168,141,1,8,0,1,1,0,0,4.396469700857423,0,0,0,0,0,-4,0,-1,1,4,"",""
234,41137343,0,0,0,0,0,0,0,0,0,0,0,-10,1000,162,0,512,-1,1,0,0,0,-4056,0,138,164,168,142,1,8,0,1,1,0,0,4.396469576111805,0,0,0,0,0,-4,0,-1,1,4,"",""
235,41138659,0,0,0,0,0,0,0,0,0,0,0,-10,1000,162,0,512,-1,1,0,0,0,-4056,0,138,164,168,142,1,8,0,1,1,0,0,4.396469450838603,0,0,0,0,0,-4,0,-1,1,4,"",""
236,41139971,0,0,0,0,0,0,0,0,0,0,0,-10,1000,162,0,512,-1,1,0,0,0,-4056,0,138,164,168,141,1,8,0,1,1,0,0,4.396469325420187,0,0,0,0,0,-4,0,-1,1,4,"",""
237,41141302,0,0,0,0,0,0,0,0,0,0,0,-10,1000,162,0,512,-1,1,0,0,0,-4056,0,138,164,168,142,1,8,0,1,1,0,0,4.396469197653523,0,0,0,0,0,-4,0,-1,1,4,"",""
238,41142627,0,0,0,0,0,0,0,0,0,0,0,-10,1000,162,0,512,-1,1,0,0,0,-4056,0,138,164,167,142,1,8,0,1,1,0,0,4.396469069925568,0,0,0,0,0,-4,0,-1,1,4,"",""
239,41143950,0,0,0,0,0,0,0,0,0,0,0,-10,1000,162,0,512,-1,1,0,0,0,-4056,0,138,163,167,141,1,8,0,1,1,0,0,4.39646894185639,0,0,0,0,0,-4,0,-1,1,4,"",""
240,41145266,0,0,0,0,0,0,0,0,0,0,0,-10,1000,162,0,512,-1,1,0,0,0,-4056,0,138,164,167,141,1,8,0,1,1,0,0,4.396468813934435,0,0,0,0,0,-4,0,-1,1,4,"",""
241,41146574,0,0,0,0,0,0,0,0,0,0,0,-10,1000,162,0,512,-1,1,0,0,0,-4056,0,138,164,167,141,1,8,0,1,1,0,0,4.396468686265741,0,0,0,0,0,-4,0,-1,1,4,"",""
242,41147885,0,0,0,0,0,0,0,0,0,0,0,-10,1000,163,0,512,-1,1,0,0,0,-4056,0,138,164,167,141,1,8,0,1,1,0,0,4.3964685577818425,0,0,0,0,0,-4,0,-1,1,4,"",""
243,41149210,0,0,0,0,0,0,0,0,0,0,0,-10,1000,163,0,512,-1,1,0,0,0,-4056,0,138,164,167,141,1,8,0,1,1,0,0,4.396468427396703,0,0,0,0,0,-4,0,-1,1,4,"",""
244,41150545,0,0,0,0,0,0,0,0,0,0,0,-10,1000,163,0,512,-1,1,0,0,0,-4056,0,138,164,167,141,1,8,0,1,1,0,0,4.396468295488661,0,0,0,0,0,-4,0,-1,1,4,"",""
245,41151876,0,0,0,0,0,0,0,0,0,0,0,-10,1000,163,0,512,-1,1,0,0,0,-4056,0,138,164,167,141,1,8,0,1,1,0,0,4.396468163434543,0,0,0,0,0,-4,0,-1,1,4,"",""
246,41153194,0,0,0,0,0,0,0,0,0,0,0,-10,1000,163,0,512,-1,1,0,0,0,-4056,0,138,164,167,141,1,8,0,1,1,0,0,4.3964680321357985,0,0,0,0,0,-4,0,-1,1,4,"",""
247,41154509,0,0,0,0,0,0,0,0,0,0,0,-10,1000,163,0,512,-1,1,0,0,0,-4056,0,138,164,167,141,1,8,0,1,1,0,0,4.396467900607925,0,0,0,0,0,-4,0,-1,1,4,"",""
248,41155819,0,0,0,0,0,0,0,0,0,0,0,-10,1000,163,0,512,-1,1,0,0,0,-4056,0,138,164,168,141,1,8,0,1,1,0,0,4.396467769055372,0,0,0,0,0,-4,0,-1,1,4,"",""
249,41157146,0,0,0,0,0,0,0,0,0,0,0,-10,1000,163,0,512,-1,1,0,0,0,-4056,0,138,164,168,142,1,8,0,1,1,0,0,4.3964676352660765,0,0,0,0,0,-4,0,-1,1,4,"",""
250,41158607,0,0,0,0,0,0,0,0,0,0,0,-10,1000,163,0,512,-1,1,0,0,0,-4056,0,138,164,167,141,1,8,0,1,1,0,0,4.3964674873761656,0,0,0,0,0,-4,0,-1,1,4,"",""
251,41160077,0,0,0,0,0,0,0,0,0,0,0,-10,1000,163,0,512,-1,1,0,0,0,-4056,0,138,164,167,141,1,8,0,1,1,0,0,4.396467337920967,0,0,0,0,0,-4,0,-1,1,4,"",""
252,41161405,0,0,0,0,0,0,0,0,0,0,0,-10,1000,163,0,512,-1,1,0,0,0,-4056,0,138,164,167,141,1,8,0,1,1,0,0,4.396467202308236,0,0,0,0,0,-4,0,-1,1,4,"",""
253,41162725,0,0,0,0,0,0,0,0,0,0,0,-10,1000,163,0,512,-1,1,0,0,0,-4056,0,138,164,167,141,1,8,0,1,1,0,0,4.396467066978431,0,0,0,0,0,-4,0,-1,1,4,"",""
254,41164040,0,0,0,0,0,0,0,0,0,0,0,-10,1000,163,0,512,-1,1,0,0,0,-4056,0,138,164,167,141,1,8,0,1,1,0,0,4.396466931632448,0,0,0,0,0,-4,0,-1,1,4,"",""
255,41165347,0,0,0,0,0,0,0,0,0,0,0,-10,1000,163,0,512,-1,1,0,0,0,-4056,0,138,164,167,141,1,8,0,1,1,0,0,4.396466796586277,0,0,0,0,0,-4,0,-1,1,4,"",""
256,41166659,0,0,0,0,0,0,0,0,0,0,0,-10,1000,163,0,512,-1,1,0,0,0,-4056,0,138,164,167,141,1,8,0,1,1,0,0,4.3964666605010905,0,0,0,0,0,-4,0,-1,1,4,"",""
257,41167990,0,0,0,0,0,0,0,0,0,0,0,-10,1000,162,0,512,-1,1,0,0,0,-4056,0,138,164,167,141,1,8,0,1,1,0,0,4.396466521913175,0,0,0,0,0,-4,0,-1,1,4,"",""
258,41169328,0,0,0,0,0,0,0,0,0,0,0,-10,1000,162,0,512,-1,1,0,0,0,-4056,0,138,165,167,141,1,8,0,1,1,0,0,4.396466382053871,0,0,0,0,0,-4,0,-1,1,4,"",""
259,41170646,0,0,0,0,0,0,0,0,0,0,0,-10,1000,162,0,512,-1,1,0,0,0,-4056,0,138,164,167,140,1,8,0,1,1,0,0,4.3964662437479145,0,0,0,0,0,-4,0,-1,1,4,"",""
260,41171966,0,0,0,0,0,0,0,0,0,0,0,-10,1000,162,0,512,-1,1,0,0,0,-4056,0,138,164,167,140,1,8,0,1,1,0,0,4.396466104702085,0,0,0,0,0,-4,0,-1,1,4,"",""
261,41173285,0,0,0,0,0,0,0,0,0,0,0,-10,1000,162,0,512,-1,1,0,0,0,-4056,0,138,164,167,140,1,8,0,1,1,0,0,4.396465965231192,0,0,0,0,0,-4,0,-1,1,4,"",""
262,41174732,0,0,0,0,0,0,0,0,0,0,0,-10,1000,162,0,512,-1,1,0,0,0,-4056,0,138,164,167,140,1,8,0,1,1,0,0,4.396465811644158,0,0,0,0,0,-4,0,-1,1,4,"",""
263,41176046,0,0,0,0,0,0,0,0,0,0,0,-10,1000,162,0,512,-1,1,0,0,0,-4056,0,138,164,167,141,1,8,0,1,1,0,0,4.3964656715947426,0,0,0,0,0,-4,0,-1,1,4,"",""
264,41177379,0,0,0,0,0,0,0,0,0,0,0,-10,1000,162,0,512,-1,1,0,0,0,-4056,0,138,164,167,141,1,8,0,1,1,0,0,4.3964655289866625,0,0,0,0,0,-4,0,-1,1,4,"",""
265,41178713,0,0,0,0,0,0,0,0,0,0,0,-10,1000,162,0,512,-1,1,0,0,0,-4056,0,138,164,167,141,1,8,0,1,1,0,0,4.396465385729881,0,0,0,0,0,-4,0,-1,1,4,"",""
266,41180035,0,0,0,0,0,0,0,0,0,0,0,-10,1000,162,0,512,-1,1,0,0,0,-4056,0,138,164,167,141,1,8,0,1,1,0,0,4.396465243224519,0,0,0,0,0,-4,0,-1,1,4,"",""
267,41181341,0,0,0,0,0,0,0,0,0,0,0,-10,1000,162,0,512,-1,1,0,0,0,-4056,0,138,164,167,141,1,8,0,1,1,0,0,4.396465101917908,0,0,0,0,0,-4,0,-1,1,4,"",""
268,41182660,0,0,0,0,0,0,0,0,0,0,0,-10,1000,162,0,512,-1,1,0,0,0,-4056,0,138,164,167,141,1,8,0,1,1,0,0,4.396464958679945,0,0,0,0,0,-4,0,-1,1,4,"",""
269,41183979,0,0,0,0,0,0,0,0,0,0,0,-10,1000,162,0,512,-1,1,0,0,0,-4056,0,138,164,167,140,1,8,0,1,1,0,0,4.396464814911979,0,0,0,0,0,-4,0,-1,1,4,"",""
270,41185291,0,0,0,0,0,0,0,0,0,0,0,-10,1000,162,0,512,-1,1,0,0,0,-4056,0,138,165,168,141,1,8,0,1,1,0,0,4.396464671379806,0,0,0,0,0,-4,0,-1,1,4,"",""
271,41186629,0,0,0,0,0,0,0,0,0,0,0,-10,1000,162,0,512,-1,1,0,0,0,-4056,0,138,164,168,141,1,8,0,1,1,0,0,4.3964645244684615,0,0,0,0,0,-4,0,-1,1,4,"",""
272,41188102,0,0,0,0,0,0,0,0,0,0,0,-10,1000,162,0,512,-1,1,0,0,0,-4056,0,138,164,167,140,1,8,0,1,1,0,0,4.396464362133809,0,0,0,0,0,-4,0,-1,1,4,"",""
273,41189565,0,0,0,0,0,0,0,0,0,0,0,-10,1000,162,0,512,-1,1,0,0,0,-4056,0,138,164,167,141,1,8,0,1,1,0,0,4.396464200244723,0,0,0,0,0,-4,0,-1,1,4,"",""
274,41190881,0,0,0,0,0,0,0,0,0,0,0,-10,1000,162,0,512,-1,1,0,0,0,-4056,0,138,164,167,141,1,8,0,1,1,0,0,4.396464054035477,0,0,0,0,0,-4,0,-1,1,4,"",""
275,41192194,0,0,0,0,0,0,0,0,0,0,0,-10,1000,162,0,512,-1,1,0,0,0,-4056,0,138,164,167,140,1,8,0,1,1,0,0,4.396463907633141,0,0,0,0,0,-4,0,-1,1,4,"",""
276,41193503,0,0,0,0,0,0,0,0,0,0,0,-10,1000,162,0,512,-1,1,0,0,0,-4056,0,138,164,167,141,1,8,0,1,1,0,0,4.396463761153219,0,0,0,0,0,-4,0,-1,1,4,"",""
277,41194828,0,0,0,0,0,0,0,0,0,0,0,-10,1000,162,0,512,-1,1,0,0,0,-4056,0,138,164,167,141,1,8,0,1,1,0,0,4.396463612354483,0,0,0,0,0,-4,0,-1,1,4,"",""
278,41196154,0,0,0,0,0,0,0,0,0,0,0,-10,1000,162,0,512,-1,1,0,0,0,-4056,0,138,164,167,141,1,8,0,1,1,0,0,4.396463462908204,0,0,0,0,0,-4,0,-1,1,4,"",""
279,41197486,0,0,0,0,0,0,0,0,0,0,0,-10,1000,162,0,512,-1,1,0,0,0,-4056,0,138,164,167,141,1,8,0,1,1,0,0,4.3964633122476275,0,0,0,0,0,-4,0,-1,1,4,"",""
280,41198807,0,0,0,0,0,0,0,0,0,0,0,-10,1000,162,0,512,-1,1,0,0,0,-4056,0,138,164,167,141,1,8,0,1,1,0,0,4.396463162295203,0,0,0,0,0,-4,0,-1,1,4,"",""
281,41200125,0,0,0,0,0,0,0,0,0,0,0,-10,1000,162,0,512,-1,1,0,0,0,-4056,0,138,164,168,141,1,8,0,1,1,0,0,4.396463012152913,0,0,0,0,0,-4,0,-1,1,4,"",""
282,41201445,0,0,0,0,0,0,0,0,0,0,0,-10,1000,162,0,512,-1,1,0,0,0,-4056,0,138,164,167,141,1,8,0,1,1,0,0,4.396462861252784,0,0,0,0,0,-4,0,-1,1,4,"",""
283,41202758,0,0,0,0,0,0,0,0,0,0,0,-10,1000,162,0,512,-1,1,0,0,0,-4056,0,138,164,167,140,1,8,0,1,1,0,0,4.396462710624887,0,0,0,0,0,-4,0,-1,1,4,"",""
284,41204084,0,0,0,0,0,0,0,0,0,0,0,-10,1000,162,0,512,-1,1,0,0,0,-4056,0,138,164,167,140,1,8,0,1,1,0,0,4.396462557975227,0,0,0,0,0,-4,0,-1,1,4,"",""
285,41205408,0,0,0,0,0,0,0,0,0,0,0,-10,1000,162,0,512,-1,1,0,0,0,-4056,0,138,164,167,141,1,8,0,1,1,0,0,4.3964624050209675,0,0,0,0,0,-4,0,-1,1,4,"",""
286,41206721,0,0,0,0,0,0,0,0,0,0,0,-10,1000,162,0,512,-1,1,0,0,0,-4056,0,138,164,167,141,1,8,0,1,1,0,0,4.396462252807879,0,0,0,0,0,-4,0,-1,1,4,"",""
287,41208051,0,0,0,0,0,0,0,0,0,0,0,-10,1000,163,0,512,-1,1,0,0,0,-4056,0,138,163,167,140,1,8,0,1,1,0,0,4.396462098092021,0,0,0,0,0,-4,0,-1,1,4,"",""
288,41209364,0,0,0,0,0,0,0,0,0,0,0,-10,1000,163,0,512,-1,1,0,0,0,-4056,0,138,163,167,140,1,8,0,1,1,0,0,4.396461944821738,0,0,0,0,0,-4,0,-1,1,4,"",""
289,41210683,0,0,0,0,0,0,0,0,0,0,0,-10,1000,163,0,512,-1,1,0,0,0,-4056,0,138,163,167,140,1,8,0,1,1,0,0,4.396461790323458,0,0,0,0,0,-4,0,-1,1,4,"",""
290,41211998,0,0,0,0,0,0,0,0,0,0,0,-10,1000,163,0,512,-1,1,0,0,0,-4056,0,138,163,167,140,1,8,0,1,1,0,0,4.3964616357653075,0,0,0,0,0,-4,0,-1,1,4,"",""
291,41213335,0,0,0,0,0,0,0,0,0,0,0,-10,1000,163,0,512,-1,1,0,0,0,-4056,0,138,163,167,140,1,8,0,1,1,0,0,4.396461478085779,0,0,0,0,0,-4,0,-1,1,4,"",""
292,41214663,0,0,0,0,0,0,0,0,0,0,0,-10,1000,163,0,512,-1,1,0,0,0,-4056,0,138,163,167,140,1,8,0,1,1,0,0,4.396461320926761,0,0,0,0,0,-4,0,-1,1,4,"",""
293,41215987,0,0,0,0,0,0,0,0,0,0,0,-10,1000,163,0,512,-1,1,0,0,0,-4056,0,138,164,168,141,1,8,0,1,1,0,0,4.396461163705463,0,0,0,0,0,-4,0,-1,1,4,"",""
294,41217444,0,0,0,0,0,0,0,0,0,0,0,-10,1000,163,0,512,-1,1,0,0,0,-4056,0,138,164,167,141,1,8,0,1,1,0,0,4.396460990103102,0,0,0,0,0,-4,0,-1,1,4,"",""
295,41218895,0,0,0,0,0,0,0,0,0,0,0,-10,1000,163,0,512,-1,1,0,0,0,-4056,0,138,163,167,141,1,8,0,1,1,0,0,4.396460816571589,0,0,0,0,0,-4,0,-1,1,4,"",""
296,41220215,0,0,0,0,0,0,0,0,0,0,0,-10,1000,163,0,512,-1,1,0,0,0,-4056,0,138,163,167,141,1,8,0,1,1,0,0,4.396460658123455,0,0,0,0,0,-4,0,-1,1,4,"",""
297,41221547,0,0,0,0,0,0,0,0,0,0,0,-10,1000,163,0,512,-1,1,0,0,0,-4056,0,138,164,167,141,1,8,0,1,1,0,0,4.396460497699241,0,0,0,0,0,-4,0,-1,1,4,"",""
298,41222877,0,0,0,0,0,0,0,0,0,0,0,-10,1000,163,0,512,-1,1,0,0,0,-4056,0,138,164,167,141,1,8,0,1,1,0,0,4.3964603369762045,0,0,0,0,0,-4,0,-1,1,4,"",""
299,41224220,0,0,0,0,0,0,0,0,0,0,0,-10,1000,163,0,512,-1,1,0,0,0,-4056,0,138,163,167,141,1,8,0,1,1,0,0,4.396460174138033,0,0,0,0,0,-4,0,-1,1,4,"",""
300,41225539,0,0,0,0,0,0,0,0,0,0,0,-10,1000,163,0,512,-1,1,0,0,0,-4056,0,138,164,167,140,1,8,0,1,1,0,0,4.396460013670196,0,0,0,0,0,-4,0,-1,1,4,"",""
301,41226849,0,0,0,0,0,0,0,0,0,0,0,-10,1000,163,0,512,-1,1,0,0,0,-4056,0,138,164,167,141,1,8,0,1,1,0,0,4.39645985377089,0,0,0,0,0,-4,0,-1,1,4,"",""
302,41228166,0,0,0,0,0,0,0,0,0,0,0,-10,1000,163,0,512,-1,1,0,0,0,-4056,0,138,164,167,141,1,8,0,1,1,0,0,4.396459692491561,0,0,0,0,0,-4,0,-1,1,4,"",""
303,41229482,0,0,0,0,0,0,0,0,0,0,0,-10,1000,163,0,512,-1,1,0,0,0,-4056,0,138,164,167,141,1,8,0,1,1,0,0,4.396459530806686,0,0,0,0,0,-4,0,-1,1,4,"",""
304,41230813,0,0,0,0,0,0,0,0,0,0,0,-10,1000,163,0,512,-1,1,0,0,0,-4056,0,138,164,167,140,1,8,0,1,1,0,0,4.396459366745277,0,0,0,0,0,-4,0,-1,1,4,"",""
305,41232143,0,0,0,0,0,0,0,0,0,0,0,-10,1000,163,0,512,-1,1,0,0,0,-4056,0,138,164,167,141,1,8,0,1,1,0,0,4.396459202267833,0,0,0,0,0,-4,0,-1,1,4,"",""
306,41233471,0,0,0,0,0,0,0,0,0,0,0,-10,1000,163,0,512,-1,1,0,0,0,-4056,0,138,163,167,140,1,8,0,1,1,0,0,4.396459037499642,0,0,0,0,0,-4,0,-1,1,4,"",""
307,41234787,0,0,0,0,0,0,0,0,0,0,0,-10,1000,163,0,512,-1,1,0,0,0,-4056,0,138,163,167,140,1,8,0,1,1,0,0,4.3964588736879024,0,0,0,0,0,-4,0,-1,1,4,"",""
308,41236098,0,0,0,0,0,0,0,0,0,0,0,-10,1000,163,0,512,-1,1,0,0,0,-4056,0,138,164,167,141,1,8,0,1,1,0,0,4.396458709972944,0,0,0,0,0,-4,0,-1,1,4,"",""
309,41237412,0,0,0,0,0,0,0,0,0,0,0,-10,1000,163,0,512,-1,1,0,0,0,-4056,0,138,164,167,141,1,8,0,1,1,0,0,4.3964585453585485,0,0,0,0,0,-4,0,-1,1,4,"",""
310,41238724,0,0,0,0,0,0,0,0,0,0,0,-10,1000,163,0,512,-1,1,0,0,0,-4056,0,138,164,167,140,1,8,0,1,1,0,0,4.396458380469502,0,0,0,0,0,-4,0,-1,1,4,"",""
311,41240057,0,0,0,0,0,0,0,0,0,0,0,-10,1000,163,0,512,-1,1,0,0,0,-4056,0,138,164,168,141,1,8,0,1,1,0,0,4.396458212408426,0,0,0,0,0,-4,0,-1,1,4,"",""
312,41241396,0,0,0,0,0,0,0,0,0,0,0,-10,1000,163,0,512,-1,1,0,0,0,-4056,0,138,164,167,141,1,8,0,1,1,0,0,4.3964580430471205,0,0,0,0,0,-4,0,-1,1,4,"",""
313,41242714,0,0,0,0,0,0,0,0,0,0,0,-10,1000,163,0,512,-1,1,0,0,0,-4056,0,138,164,167,140,1,8,0,1,1,0,0,4.396457875804321,0,0,0,0,0,-4,0,-1,1,4,"",""
314,41244039,0,0,0,0,0,0,0,0,0,0,0,-10,1000,163,0,512,-1,1,0,0,0,-4056,0,138,164,167,141,1,8,0,1,1,0,0,4.3964577071412565,0,0,0,0,0,-4,0,-1,1,4,"",""
315,41245368,0,0,0,0,0,0,0,0,0,0,0,-10,1000,163,0,512,-1,1,0,0,0,-4056,0,138,164,167,141,1,8,0,1,1,0,0,4.396457537432555,0,0,0,0,0,-4,0,-1,1,4,"",""
316,41246680,0,0,0,0,0,0,0,0,0,0,0,-10,1000,163,0,512,-1,1,0,0,0,-4056,0,138,164,167,140,1,8,0,1,1,0,0,4.3964573693634925,0,0,0,0,0,-4,0,-1,1,4,"",""
317,41247999,0,0,0,0,0,0,0,0,0,0,0,-10,1000,162,0,512,-1,1,0,0,0,-4056,0,138,164,167,140,1,8,0,1,1,0,0,4.396457199870514,0,0,0,0,0,-4,0,-1,1,4,"",""
318,41249470,0,0,0,0,0,0,0,0,0,0,0,-10,1000,162,0,512,-1,1,0,0,0,-4056,0,138,164,167,140,1,8,0,1,1,0,0,4.396457010254263,0,0,0,0,0,-4,0,-1,1,4,"",""
319,41250939,0,0,0,0,0,0,0,0,0,0,0,-10,1000,162,0,512,-1,1,0,0,0,-4056,0,138,164,167,141,1,8,0,1,1,0,0,4.396456820237498,0,0,0,0,0,-4,0,-1,1,4,"",""
320,41252261,0,0,0,0,0,0,0,0,0,0,0,-10,1000,162,0,512,-1,1,0,0,0,-4056,0,138,164,168,141,1,8,0,1,1,0,0,4.39645664864371,0,0,0,0,0,-4,0,-1,1,4,"",""
321,41253577,0,0,0,0,0,0,0,0,0,0,0,-10,1000,162,0,512,-1,1,0,0,0,-4056,0,138,164,168,141,1,8,0,1,1,0,0,4.396456477298696,0,0,0,0,0,-4,0,-1,1,4,"",""
322,41254888,0,0,0,0,0,0,0,0,0,0,0,-10,1000,162,0,512,-1,1,0,0,0,-4056,0,138,164,168,142,1,8,0,1,1,0,0,4.396456306079082,0,0,0,0,0,-4,0,-1,1,4,"",""
323,41256224,0,0,0,0,0,0,0,0,0,0,0,-10,1000,162,0,512,-1,1,0,0,0,-4056,0,138,164,168,142,1,8,0,1,1,0,0,4.3964561310608135,0,0,0,0,0,-4,0,-1,1,4,"",""
324,41257549,0,0,0,0,0,0,0,0,0,0,0,-10,1000,162,0,512,-1,1,0,0,0,-4056,0,138,164,168,141,1,8,0,1,1,0,0,4.396455956944268,0,0,0,0,0,-4,0,-1,1,4,"",""
325,41258876,0,0,0,0,0,0,0,0,0,0,0,-10,1000,162,0,512,-1,1,0,0,0,-4056,0,138,164,168,141,1,8,0,1,1,0,0,4.3964557820292445,0,0,0,0,0,-4,0,-1,1,4,"",""
326,41260199,0,0,0,0,0,0,0,0,0,0,0,-10,1000,162,0,512,-1,1,0,0,0,-4056,0,138,164,168,141,1,8,0,1,1,0,0,4.396455607106615,0,0,0,0,0,-4,0,-1,1,4,"",""
327,41261517,0,0,0,0,0,0,0,0,0,0,0,-10,1000,162,0,512,-1,1,0,0,0,-4056,0,138,164,168,141,1,8,0,1,1,0,0,4.396455432313843,0,0,0,0,0,-4,0,-1,1,4,"",""
328,41262833,0,0,0,0,0,0,0,0,0,0,0,-10,1000,162,0,512,-1,1,0,0,0,-4056,0,138,164,168,141,1,8,0,1,1,0,0,4.396455257257893,0,0,0,0,0,-4,0,-1,1,4,"",""
329,41264149,0,0,0,0,0,0,0,0,0,0,0,-10,1000,162,0,512,-1,1,0,0,0,-4056,0,138,164,168,141,1,8,0,1,1,0,0,4.396455081674328,0,0,0,0,0,-4,0,-1,1,4,"",""
330,41265458,0,0,0,0,0,0,0,0,0,0,0,-10,1000,162,0,512,-1,1,0,0,0,-4056,0,138,164,168,141,1,8,0,1,1,0,0,4.39645490649991,0,0,0,0,0,-4,0,-1,1,4,"",""
331,41266790,0,0,0,0,0,0,0,0,0,0,0,-10,1000,162,0,512,-1,1,0,0,0,-4056,0,138,164,168,141,1,8,0,1,1,0,0,4.396454727716369,0,0,0,0,0,-4,0,-1,1,4,"",""
332,41268118,0,0,0,0,0,0,0,0,0,0,0,-10,1000,163,0,512,-1,1,0,0,0,-4056,0,138,165,168,142,1,8,0,1,1,0,0,4.396454548930817,0,0,0,0,0,-4,0,-1,1,4,"",""
333,41269454,0,0,0,0,0,0,0,0,0,0,0,-10,1000,163,0,512,-1,1,0,0,0,-4056,0,138,165,168,142,1,8,0,1,1,0,0,4.396454368527722,0,0,0,0,0,-4,0,-1,1,4,"",""
334,41270773,0,0,0,0,0,0,0,0,0,0,0,-10,1000,163,0,512,-1,1,0,0,0,-4056,0,138,165,168,142,1,8,0,1,1,0,0,4.396454189883321,0,0,0,0,0,-4,0,-1,1,4,"",""
335,41272093,0,0,0,0,0,0,0,0,0,0,0,-10,1000,163,0,512,-1,1,0,0,0,-4056,0,138,165,169,143,1,8,0,1,1,0,0,4.396454010573052,0,0,0,0,0,-4,0,-1,1,4,"",""
336,41273405,0,0,0,0,0,0,0,0,0,0,0,-10,1000,163,0,512,-1,1,0,0,0,-4056,0,138,165,168,142,1,8,0,1,1,0,0,4.3964538318219,0,0,0,0,0,-4,0,-1,1,4,"",""
337,41274720,0,0,0,0,0,0,0,0,0,0,0,-10,1000,163,0,512,-1,1,0,0,0,-4056,0,138,164,168,142,1,8,0,1,1,0,0,4.396453652136403,0,0,0,0,0,-4,0,-1,1,4,"",""
338,41276048,0,0,0,0,0,0,0,0,0,0,0,-10,1000,163,0,512,-1,1,0,0,0,-4056,0,138,164,168,142,1,8,0,1,1,0,0,4.396453470142522,0,0,0,0,0,-4,0,-1,1,4,"",""
339,41277388,0,0,0,0,0,0,0,0,0,0,0,-10,1000,163,0,512,-1,1,0,0,0,-4056,0,138,164,168,142,1,8,0,1,1,0,0,4.396453285961979,0,0,0,0,0,-4,0,-1,1,4,"",""
340,41278853,0,0,0,0,0,0,0,0,0,0,0,-10,1000,163,0,512,-1,1,0,0,0,-4056,0,138,164,168,142,1,8,0,1,1,0,0,4.396453084002341,0,0,0,0,0,-4,0,-1,1,4,"",""
341,41280310,0,0,0,0,0,0,0,0,0,0,0,-10,1000,163,0,512,-1,1,0,0,0,-4056,0,138,165,168,142,1,8,0,1,1,0,0,4.396452882495266,0,0,0,0,0,-4,0,-1,1,4,"",""
342,41281626,0,0,0,0,0,0,0,0,0,0,0,-10,1000,163,0,512,-1,1,0,0,0,-4056,0,138,165,168,143,1,8,0,1,1,0,0,4.396452699904729,0,0,0,0,0,-4,0,-1,1,4,"",""
343,41282942,0,0,0,0,0,0,0,0,0,0,0,-10,1000,163,0,512,-1,1,0,0,0,-4056,0,138,165,168,143,1,8,0,1,1,0,0,4.39645251678657,0,0,0,0,0,-4,0,-1,1,4,"",""
344,41284256,0,0,0,0,0,0,0,0,0,0,0,-10,1000,163,0,512,-1,1,0,0,0,-4056,0,138,165,168,143,1,8,0,1,1,0,0,4.396452333419888,0,0,0,0,0,-4,0,-1,1,4,"",""
345,41285582,0,0,0,0,0,0,0,0,0,0,0,-10,1000,163,0,512,-1,1,0,0,0,-4056,0,138,164,168,143,1,8,0,1,1,0,0,4.396452147847802,0,0,0,0,0,-4,0,-1,1,4,"",""
346,41286911,0,0,0,0,0,0,0,0,0,0,0,-10,1000,163,0,512,-1,1,0,0,0,-4056,0,138,164,168,143,1,8,0,1,1,0,0,4.396451961318986,0,0,0,0,0,-4,0,-1,1,4,"",""
347,41288231,0,0,0,0,0,0,0,0,0,0,0,-10,1000,163,0,512,-1,1,0,0,0,-4056,0,138,164,168,143,1,8,0,1,1,0,0,4.396451775518892,0,0,0,0,0,-4,0,-1,1,4,"",""
348,41289548,0,0,0,0,0,0,0,0,0,0,0,-10,1000,163,0,512,-1,1,0,0,0,-4056,0,138,164,168,143,1,8,0,1,1,0,0,4.396451589611442,0,0,0,0,0,-4,0,-1,1,4,"",""
349,41290859,0,0,0,0,0,0,0,0,0,0,0,-10,1000,163,0,512,-1,1,0,0,0,-4056,0,138,164,168,143,1,8,0,1,1,0,0,4.396451404024934,0,0,0,0,0,-4,0,-1,1,4,"",""
350,41292175,0,0,0,0,0,0,0,0,0,0,0,-10,1000,163,0,512,-1,1,0,0,0,-4056,0,138,164,169,143,1,8,0,1,1,0,0,4.396451217205002,0,0,0,0,0,-4,0,-1,1,4,"",""
351,41293500,0,0,0,0,0,0,0,0,0,0,0,-10,1000,163,0,512,-1,1,0,0,0,-4056,0,138,164,169,143,1,8,0,1,1,0,0,4.396451028576194,0,0,0,0,0,-4,0,-1,1,4,"",""
352,41294824,0,0,0,0,0,0,0,0,0,0,0,-10,1000,163,0,512,-1,1,0,0,0,-4056,0,138,165,169,143,1,8,0,1,1,0,0,4.3964508395552855,0,0,0,0,0,-4,0,-1,1,4,"",""
353,41296156,0,0,0,0,0,0,0,0,0,0,0,-10,1000,163,0,512,-1,1,0,0,0,-4056,0,138,165,169,143,1,8,0,1,1,0,0,4.39645064885497,0,0,0,0,0,-4,0,-1,1,4,"",""
354,41297477,0,0,0,0,0,0,0,0,0,0,0,-10,1000,163,0,512,-1,1,0,0,0,-4056,0,138,164,168,142,1,8,0,1,1,0,0,4.3964504591934395,0,0,0,0,0,-4,0,-1,1,4,"",""
355,41298792,0,0,0,0,0,0,0,0,0,0,0,-10,1000,163,0,512,-1,1,0,0,0,-4056,0,138,164,168,142,1,8,0,1,1,0,0,4.396450269864126,0,0,0,0,0,-4,0,-1,1,4,"",""
356,41300107,0,0,0,0,0,0,0,0,0,0,0,-10,1000,163,0,512,-1,1,0,0,0,-4056,0,138,165,169,143,1,8,0,1,1,0,0,4.396450080007989,0,0,0,0,0,-4,0,-1,1,4,"",""
357,41301422,0,0,0,0,0,0,0,0,0,0,0,-10,1000,163,0,512,-1,1,0,0,0,-4056,0,138,165,169,143,1,8,0,1,1,0,0,4.3964498896250275,0,0,0,0,0,-4,0,-1,1,4,"",""
358,41302744,0,0,0,0,0,0,0,0,0,0,0,-10,1000,163,0,512,-1,1,0,0,0,-4056,0,138,165,169,143,1,8,0,1,1,0,0,4.3964496976989915,0,0,0,0,0,-4,0,-1,1,4,"",""
359,41304072,0,0,0,0,0,0,0,0,0,0,0,-10,1000,163,0,512,-1,1,0,0,0,-4056,0,138,165,169,143,1,8,0,1,1,0,0,4.396449504367018,0,0,0,0,0,-4,0,-1,1,4,"",""
360,41305397,0,0,0,0,0,0,0,0,0,0,0,-10,1000,163,0,512,-1,1,0,0,0,-4056,0,138,165,168,143,1,8,0,1,1,0,0,4.396449310935708,0,0,0,0,0,-4,0,-1,1,4,"",""
361,41306725,0,0,0,0,0,0,0,0,0,0,0,-10,1000,163,0,512,-1,1,0,0,0,-4056,0,138,164,168,143,1,8,0,1,1,0,0,4.396449116530361,0,0,0,0,0,-4,0,-1,1,4,"",""
362,41308183,0,0,0,0,0,0,0,0,0,0,0,-10,1000,163,0,512,-1,1,0,0,0,-4056,0,138,164,168,143,1,8,0,1,1,0,0,4.396448902504475,0,0,0,0,0,-4,0,-1,1,4,"",""
363,41309636,0,0,0,0,0,0,0,0,0,0,0,-10,1000,163,0,512,-1,1,0,0,0,-4056,0,138,164,168,143,1,8,0,1,1,0,0,4.396448688567144,0,0,0,0,0,-4,0,-1,1,4,"",""
364,41310954,0,0,0,0,0,0,0,0,0,0,0,-10,1000,163,0,512,-1,1,0,0,0,-4056,0,138,164,168,143,1,8,0,1,1,0,0,4.396448493923552,0,0,0,0,0,-4,0,-1,1,4,"",""
365,41312284,0,0,0,0,0,0,0,0,0,0,0,-10,1000,163,0,512,-1,1,0,0,0,-4056,0,138,165,168,143,1,8,0,1,1,0,0,4.396448296973736,0,0,0,0,0,-4,0,-1,1,4,"",""
366,41313616,0,0,0,0,0,0,0,0,0,0,0,-10,1000,163,0,512,-1,1,0,0,0,-4056,0,138,165,168,143,1,8,0,1,1,0,0,4.396448099188027,0,0,0,0,0,-4,0,-1,1,4,"",""
367,41314933,0,0,0,0,0,0,0,0,0,0,0,-10,1000,163,0,512,-1,1,0,0,0,-4056,0,138,165,168,143,1,8,0,1,1,0,0,4.396447903095185,0,0,0,0,0,-4,0,-1,1,4,"",""
368,41316246,0,0,0,0,0,0,0,0,0,0,0,-10,1000,163,0,512,-1,1,0,0,0,-4056,0,138,165,168,143,1,8,0,1,1,0,0,4.396447707071089,0,0,0,0,0,-4,0,-1,1,4,"",""
369,41317566,0,0,0,0,0,0,0,0,0,0,0,-10,1000,163,0,512,-1,1,0,0,0,-4056,0,138,164,168,142,1,8,0,1,1,0,0,4.3964475094739015,0,0,0,0,0,-4,0,-1,1,4,"",""
370,41318883,0,0,0,0,0,0,0,0,0,0,0,-10,1000,163,0,512,-1,1,0,0,0,-4056,0,138,164,168,143,1,8,0,1,1,0,0,4.396447311796161,0,0,0,0,0,-4,0,-1,1,4,"",""
371,41320200,0,0,0,0,0,0,0,0,0,0,0,-10,1000,163,0,512,-1,1,0,0,0,-4056,0,138,165,168,143,1,8,0,1,1,0,0,4.396447113589986,0,0,0,0,0,-4,0,-1,1,4,"",""
372,41321531,0,0,0,0,0,0,0,0,0,0,0,-10,1000,163,0,512,-1,1,0,0,0,-4056,0,138,165,168,143,1,8,0,1,1,0,0,4.396446912742784,0,0,0,0,0,-4,0,-1,1,4,"",""
373,41322862,0,0,0,0,0,0,0,0,0,0,0,-10,1000,163,0,512,-1,1,0,0,0,-4056,0,138,165,168,143,1,8,0,1,1,0,0,4.396446711355852,0,0,0,0,0,-4,0,-1,1,4,"",""
374,41324180,0,0,0,0,0,0,0,0,0,0,0,-10,1000,163,0,512,-1,1,0,0,0,-4056,0,138,165,168,142,1,8,0,1,1,0,0,4.396446511401427,0,0,0,0,0,-4,0,-1,1,4,"",""
375,41325493,0,0,0,0,0,0,0,0,0,0,0,-10,1000,163,0,512,-1,1,0,0,0,-4056,0,138,165,168,143,1,8,0,1,1,0,0,4.396446311678323,0,0,0,0,0,-4,0,-1,1,4,"",""
376,41326807,0,0,0,0,0,0,0,0,0,0,0,-10,1000,163,0,512,-1,1,0,0,0,-4056,0,138,164,168,142,1,8,0,1,1,0,0,4.396446111277477,0,0,0,0,0,-4,0,-1,1,4,"",""
377,41328122,0,0,0,0,0,0,0,0,0,0,0,-10,1000,162,0,512,-1,1,0,0,0,-4056,0,138,165,168,142,1,8,0,1,1,0,0,4.396445910197687,0,0,0,0,0,-4,0,-1,1,4,"",""
378,41329439,0,0,0,0,0,0,0,0,0,0,0,-10,1000,162,0,512,-1,1,0,0,0,-4056,0,138,165,168,142,1,8,0,1,1,0,0,4.396445708284436,0,0,0,0,0,-4,0,-1,1,4,"",""
379,41330763,0,0,0,0,0,0,0,0,0,0,0,-10,1000,162,0,512,-1,1,0,0,0,-4056,0,138,165,168,142,1,8,0,1,1,0,0,4.396445504766749,0,0,0,0,0,-4,0,-1,1,4,"",""
380,41332087,0,0,0,0,0,0,0,0,0,0,0,-10,1000,162,0,512,-1,1,0,0,0,-4056,0,138,165,168,142,1,8,0,1,1,0,0,4.3964453007149915,0,0,0,0,0,-4,0,-1,1,4,"",""
381,41333404,0,0,0,0,0,0,0,0,0,0,0,-10,1000,162,0,512,-1,1,0,0,0,-4056,0,138,165,168,142,1,8,0,1,1,0,0,4.39644509721081,0,0,0,0,0,-4,0,-1,1,4,"",""
382,41334719,0,0,0,0,0,0,0,0,0,0,0,-10,1000,162,0,512,-1,1,0,0,0,-4056,0,138,165,168,143,1,8,0,1,1,0,0,4.3964448934880345,0,0,0,0,0,-4,0,-1,1,4,"",""
383,41336034,0,0,0,0,0,0,0,0,0,0,0,-10,1000,162,0,512,-1,1,0,0,0,-4056,0,138,165,168,143,1,8,0,1,1,0,0,4.396444689238424,0,0,0,0,0,-4,0,-1,1,4,"",""
384,41337363,0,0,0,0,0,0,0,0,0,0,0,-10,1000,162,0,512,-1,1,0,0,0,-4056,0,138,165,168,143,1,8,0,1,1,0,0,4.396444482281848,0,0,0,0,0,-4,0,-1,1,4,"",""
385,41338838,0,0,0,0,0,0,0,0,0,0,0,-10,1000,162,0,512,-1,1,0,0,0,-4056,0,138,165,168,143,1,8,0,1,1,0,0,4.3964442519924,0,0,0,0,0,-4,0,-1,1,4,"",""
