"Product","Blackbox flight data recorder by Nicholas Sherlock"
"firmwareType",3
"firmware","3.3"
"firmwarePatch",3
"firmwareVersion","3.3.3"
"Firmware revision","Betaflight 3.3.3 (6bfd3c22e) MATEKF722"
"Firmware date","May 28 2020 21:27:38"
"Log start datetime","0000-01-01T00:00:00.000+00:00"
"Craft name","neuroflight"
"frameIntervalI",32
"frameIntervalPNum",1
"frameIntervalPDenom",1
"minthrottle",1070
"maxthrottle",2000
"gyroScale",1.7453292519943295e-8
"motorOutput","138,2047"
"acc_1G",0
"vbatscale",110
"vbatmincellvoltage",33
"vbatwarningcellvoltage",35
"vbatmaxcellvoltage",43
"vbatref",164
"currentMeterOffset",0
"currentMeterScale",179
"looptime",250
"gyro_sync_denom",2
"pid_process_denom",4
"thrMid",50
"thrExpo",0
"dynThrPID",10
"tpa_breakpoint",1650
"rc_rates","100,100,100"
"rc_expo","0,0,0"
"rates","70,70,70"
"rollPID","40,40,30"
"pitchPID","58,50,35"
"yawPID","70,45,20"
"altPID","50,0,0"
"posPID","15,0,0"
"posrPID","34,14,53"
"navrPID","25,33,83"
"levelPID","50,50,75"
"magPID","40,,"
"velPID","55,55,75"
"dterm_filter_type",1
"dterm_lpf_hz",100
"yaw_lpf_hz",0
"dterm_notch_hz",260
"dterm_notch_cutoff",160
"itermWindupPointPercent",50
"vbat_pid_compensation",0
"pidAtMinThrottle",1
"anti_gravity_threshold",350
"anti_gravity_gain",1000
"setpointRelaxRatio",100
"dtermSetpointWeight",0
"yawRateAccelLimit",0.1
"rateAccelLimit",0
"pidSumLimit",500
"pidSumLimitYaw",400
"deadband",0
"yaw_deadband",0
"gyro_lpf",0
"gyro_soft_type",0
"gyro_lowpass_hz",100
"gyro_notch_hz","400,200"
"gyro_notch_cutoff","300,100"
"acc_lpf_hz",1000
"acc_hardware",1
"baro_hardware",1
"mag_hardware",1
"gyro_cal_on_first_arm",0
"rc_interpolation",2
"rc_interpolation_interval",19
"airmode_activate_throttle",32
"serialrx_provider",2
"unsynced_fast_pwm",0
"fast_pwm_protocol",7
"motor_pwm_rate",480
"digitalIdleOffset",450
"debug_mode",31
"features",4457480
"loopIteration","time","axisP[0]","axisP[1]","axisP[2]","axisI[0]","axisI[1]","axisI[2]","axisD[0]","axisD[1]","axisD[2]","rcCommand[0]","rcCommand[1]","rcCommand[2]","rcCommand[3]","vbatLatest","amperageLatest","rssi","gyroADC[0]","gyroADC[1]","gyroADC[2]","debug[0]","debug[1]","debug[2]","debug[3]","motor[0]","motor[1]","motor[2]","motor[3]","flightModeFlags","stateFlags","failsafePhase","rxSignalReceived","rxFlightChannelsValid","heading[0]","heading[1]","heading[2]","axisSum[0]","axisSum[1]","axisSum[2]","rcCommands[0]","rcCommands[1]","rcCommands[2]","rcCommands[3]","axisError[0]","axisError[1]","axisError[2]"
0,75209289,0,0,0,0,0,0,0,0,0,0,0,-10,1000,164,0,512,0,0,0,0,0,-4056,0,138,165,158,136,"","","","","",0,0,4.396484385773716,0,0,0,0,0,-4,0,0,0,4,"",""
1,75210628,0,0,0,0,0,0,0,0,0,0,0,-10,1000,164,0,512,0,0,0,0,0,-4056,0,139,165,158,136,1,8,0,1,1,0,0,4.396484385773716,0,0,0,0,0,-4,0,0,0,4,"",""
2,75212126,0,0,0,0,0,0,0,0,0,0,0,-10,1000,164,0,512,0,0,0,0,0,-4056,0,138,164,158,136,1,8,0,1,1,0,0,4.396484385773716,0,0,0,0,0,-4,0,0,0,4,"",""
3,75213581,0,0,0,0,0,0,0,0,0,0,0,-10,1000,164,0,512,0,0,0,0,0,-4056,0,138,164,158,136,1,8,0,1,1,0,0,4.396484385773716,0,0,0,0,0,-4,0,0,0,4,"",""
4,75214896,0,0,0,0,0,0,0,0,0,0,0,-10,1000,164,0,512,0,0,0,0,0,-4056,0,138,164,158,136,1,8,0,1,1,0,0,4.396484385773716,0,0,0,0,0,-4,0,0,0,4,"",""
5,75216210,0,0,0,0,0,0,0,0,0,0,0,-10,1000,164,0,512,0,0,0,0,0,-4056,0,138,164,158,136,1,8,0,1,1,0,0,4.396484385773716,0,0,0,0,0,-4,0,0,0,4,"",""
6,75217525,0,0,0,0,0,0,0,0,0,0,0,-10,1000,164,0,512,0,0,0,0,0,-4056,0,138,165,158,136,1,8,0,1,1,0,0,4.396484385773716,0,0,0,0,0,-4,0,0,0,4,"",""
7,75218857,0,0,0,0,0,0,0,0,0,0,0,-10,1000,164,0,512,0,0,0,0,0,-4056,0,138,164,158,136,1,8,0,1,1,0,0,4.396484385773716,0,0,0,0,0,-4,0,0,0,4,"",""
8,75220191,0,0,0,0,0,0,0,0,0,0,0,-10,1000,164,0,512,0,0,0,0,0,-4056,0,138,164,158,136,1,8,0,1,1,0,0,4.396484385773716,0,0,0,0,0,-4,0,0,0,4,"",""
9,75221514,0,0,0,0,0,0,0,0,0,0,0,-10,1000,164,0,512,0,0,0,0,0,-4056,0,139,165,158,136,1,8,0,1,1,0,0,4.396484385773716,0,0,0,0,0,-4,0,0,0,4,"",""
10,75222832,0,0,0,0,0,0,0,0,0,0,0,-10,1000,164,0,512,0,0,0,0,0,-4056,0,138,164,158,136,1,8,0,1,1,0,0,4.396484385773716,0,0,0,0,0,-4,0,0,0,4,"",""
11,75224150,0,0,0,0,0,0,0,0,0,0,0,-10,1000,164,0,512,0,0,0,0,0,-4056,0,138,164,158,136,1,8,0,1,1,0,0,4.396484385773716,0,0,0,0,0,-4,0,0,0,4,"",""
12,75225463,0,0,0,0,0,0,0,0,0,0,0,-10,1000,164,0,512,0,0,0,0,0,-4056,0,138,164,157,136,1,8,0,1,1,0,0,4.396484385773716,0,0,0,0,0,-4,0,0,0,4,"",""
13,75226782,0,0,0,0,0,0,0,0,0,0,0,-10,1000,164,0,512,0,0,0,0,0,-4056,0,137,164,157,136,1,8,0,1,1,0,0,4.396484385773716,0,0,0,0,0,-4,0,0,0,4,"",""
14,75228114,0,0,0,0,0,0,0,0,0,0,0,-10,1000,164,0,512,0,0,0,0,0,-4056,0,138,165,158,136,1,8,0,1,1,0,0,4.396484385773716,0,0,0,0,0,-4,0,0,0,4,"",""
15,75229442,0,0,0,0,0,0,0,0,0,0,0,-10,1000,164,0,512,0,0,0,0,0,-4056,0,137,164,157,136,1,8,0,1,1,0,0,4.396484385773716,0,0,0,0,0,-4,0,0,0,4,"",""
16,75230778,0,0,0,0,0,0,0,0,0,0,0,-10,1000,164,0,512,0,0,0,0,0,-4056,0,138,164,157,136,1,8,0,1,1,0,0,4.396484385773716,0,0,0,0,0,-4,0,0,0,4,"",""
17,75232096,0,0,0,0,0,0,0,0,0,0,0,-10,1000,164,0,512,0,0,0,0,0,-4056,0,138,165,157,136,1,8,0,1,1,0,0,4.396484385773716,0,0,0,0,0,-4,0,0,0,4,"",""
18,75233411,0,0,0,0,0,0,0,0,0,0,0,-10,1000,164,0,512,0,0,0,0,0,-4056,0,137,165,157,136,1,8,0,1,1,0,0,4.396484385773716,0,0,0,0,0,-4,0,0,0,4,"",""
19,75234726,0,0,0,0,0,0,0,0,0,0,0,-10,1000,164,0,512,0,0,0,0,0,-4056,0,138,165,157,136,1,8,0,1,1,0,0,4.396484385773716,0,0,0,0,0,-4,0,0,0,4,"",""
20,75236035,0,0,0,0,0,0,0,0,0,0,0,-10,1000,164,0,512,0,0,0,0,0,-4056,0,138,165,157,136,1,8,0,1,1,0,0,4.396484385773716,0,0,0,0,0,-4,0,0,0,4,"",""
21,75237373,0,0,0,0,0,0,0,0,0,0,0,-10,1000,164,0,512,0,0,0,0,0,-4056,0,138,165,157,136,1,8,0,1,1,0,0,4.396484385773716,0,0,0,0,0,-4,0,0,0,4,"",""
22,75238701,0,0,0,0,0,0,0,0,0,0,0,-10,1000,164,0,512,0,0,0,0,0,-4056,0,138,165,157,136,1,8,0,1,1,0,0,4.396484385773716,0,0,0,0,0,-4,0,0,0,4,"",""
23,75240021,0,0,0,0,0,0,0,0,0,0,0,-10,1000,164,0,512,0,0,0,0,0,-4056,0,138,165,157,136,1,8,0,1,1,0,0,4.396484385773716,0,0,0,0,0,-4,0,0,0,4,"",""
24,75241349,0,0,0,0,0,0,0,0,0,0,0,-10,1000,164,0,512,0,0,0,0,0,-4056,0,138,165,157,136,1,8,0,1,1,0,0,4.396484385773716,0,0,0,0,0,-4,0,0,0,4,"",""
25,75242803,0,0,0,0,0,0,0,0,0,0,0,-10,1000,164,0,512,0,0,0,0,0,-4056,0,138,165,157,136,1,8,0,1,1,0,0,4.396484385773716,0,0,0,0,0,-4,0,0,0,4,"",""
26,75244260,0,0,0,0,0,0,0,0,0,0,0,-10,1000,164,0,512,0,0,0,0,0,-4056,0,138,165,157,136,1,8,0,1,1,0,0,4.396484385773716,0,0,0,0,0,-4,0,0,0,4,"",""
27,75245588,0,0,0,0,0,0,0,0,0,0,0,-10,1000,164,0,512,0,0,0,0,0,-4056,0,137,165,157,136,1,8,0,1,1,0,0,4.396484385773716,0,0,0,0,0,-4,0,0,0,4,"",""
28,75246922,0,0,0,0,0,0,0,0,0,0,0,-10,1000,164,0,512,0,0,0,0,0,-4056,0,138,165,157,136,1,8,0,1,1,0,0,4.396484385773716,0,0,0,0,0,-4,0,0,0,4,"",""
29,75248254,0,0,0,0,0,0,0,0,0,0,0,-10,1000,164,0,512,0,0,0,0,0,-4056,0,138,165,157,136,1,8,0,1,1,0,0,4.396484385773716,0,0,0,0,0,-4,0,0,0,4,"",""
30,75249576,0,0,0,0,0,0,0,0,0,0,0,-10,1000,164,0,512,0,0,0,0,0,-4056,0,138,165,158,136,1,8,0,1,1,0,0,4.396484385773716,0,0,0,0,0,-4,0,0,0,4,"",""
31,75250892,0,0,0,0,0,0,0,0,0,0,0,-10,1000,164,0,512,0,0,0,0,0,-4056,0,138,164,158,136,1,8,0,1,1,0,0,4.396484385773716,0,0,0,0,0,-4,0,0,0,4,"",""
32,75252218,0,0,0,0,0,0,0,0,0,0,0,-10,1000,164,0,512,0,0,0,0,0,-4056,0,138,163,158,136,1,8,0,1,1,0,0,4.396484385773716,0,0,0,0,0,-4,0,0,0,4,"",""
33,75253536,0,0,0,0,0,0,0,0,0,0,0,-10,1000,164,0,512,0,0,0,0,0,-4056,0,139,163,159,136,1,8,0,1,1,0,0,4.396484385773716,0,0,0,0,0,-4,0,0,0,4,"",""
34,75254866,0,0,0,0,0,0,0,0,0,0,0,-10,1000,164,0,512,0,0,0,0,0,-4056,0,138,163,159,136,1,8,0,1,1,0,0,4.396484385773716,0,0,0,0,0,-4,0,0,0,4,"",""
35,75256202,0,0,0,0,0,0,0,0,0,0,0,-10,1000,164,0,512,0,0,0,0,0,-4056,0,138,163,159,136,1,8,0,1,1,0,0,4.396484385773716,0,0,0,0,0,-4,0,0,0,4,"",""
36,75257527,0,0,0,0,0,0,0,0,0,0,0,-10,1000,164,0,512,-1,0,0,0,0,-4056,0,139,163,159,136,1,8,0,1,1,0,0,4.396484385773716,0,0,0,0,0,-4,0,-1,0,4,"",""
37,75258847,0,0,0,0,0,0,0,0,0,0,0,-10,1000,164,0,512,-1,0,0,0,0,-4056,0,138,163,159,136,1,8,0,1,1,0,0,4.396484385773716,0,0,0,0,0,-4,0,-1,0,4,"",""
38,75260162,0,0,0,0,0,0,0,0,0,0,0,-10,1000,164,0,512,-1,0,0,0,0,-4056,0,138,162,160,136,1,8,0,1,1,0,0,4.396484385773716,0,0,0,0,0,-4,0,-1,0,4,"",""
39,75261478,0,0,0,0,0,0,0,0,0,0,0,-10,1000,164,0,512,-1,0,0,0,0,-4056,0,140,163,160,136,1,8,0,1,1,0,0,4.396484385773716,0,0,0,0,0,-4,0,-1,0,4,"",""
40,75262796,0,0,0,0,0,0,0,0,0,0,0,-10,1000,164,0,512,-1,0,0,0,0,-4056,0,140,163,160,136,1,8,0,1,1,0,0,4.396484385773716,0,0,0,0,0,-4,0,-1,0,4,"",""
41,75264129,0,0,0,0,0,0,0,0,0,0,0,-10,1000,164,0,512,-1,0,0,0,0,-4056,0,141,163,161,136,1,8,0,1,1,0,0,4.396484385773716,0,0,0,0,0,-4,0,-1,0,4,"",""
42,75265459,0,0,0,0,0,0,0,0,0,0,0,-10,1000,164,0,512,0,-1,0,0,0,-4056,0,142,165,161,136,1,8,0,1,1,0,0,4.396484385773716,0,0,0,0,0,-4,0,0,-1,4,"",""
43,75266793,0,0,0,0,0,0,0,0,0,0,0,-10,1000,164,0,512,0,-1,0,0,0,-4056,0,142,165,161,136,1,8,0,1,1,0,0,4.396484385773716,0,0,0,0,0,-4,0,0,-1,4,"",""
44,75268118,0,0,0,0,0,0,0,0,0,0,0,-10,1000,164,0,512,0,-1,0,0,0,-4056,0,142,165,161,136,1,8,0,1,1,0,0,4.396484385773716,0,0,0,0,0,-4,0,0,-1,4,"",""
45,75269433,0,0,0,0,0,0,0,0,0,0,0,-10,1000,164,0,512,0,-1,0,0,0,-4056,0,142,166,160,136,1,8,0,1,1,0,0,4.396484385773716,0,0,0,0,0,-4,0,0,-1,4,"",""
46,75270758,0,0,0,0,0,0,0,0,0,0,0,-10,1000,164,0,512,0,0,0,0,0,-4056,0,142,166,160,136,1,8,0,1,1,0,0,4.396484385773716,0,0,0,0,0,-4,0,0,0,4,"",""
47,75272214,0,0,0,0,0,0,0,0,0,0,0,-10,1000,164,0,512,0,0,0,0,0,-4056,0,141,166,160,136,1,8,0,1,1,0,0,4.396484385773716,0,0,0,0,0,-4,0,0,0,4,"",""
48,75273691,0,0,0,0,0,0,0,0,0,0,0,-10,1000,164,0,512,0,0,0,0,0,-4056,0,141,166,159,136,1,8,0,1,1,0,0,4.396484385773716,0,0,0,0,0,-4,0,0,0,4,"",""
49,75275027,0,0,0,0,0,0,0,0,0,0,0,-10,1000,164,0,512,0,0,0,0,0,-4056,0,140,166,159,136,1,8,0,1,1,0,0,4.396484385773716,0,0,0,0,0,-4,0,0,0,4,"",""
50,75276355,0,0,0,0,0,0,0,0,0,0,0,-10,1000,164,0,512,0,0,0,0,0,-4056,0,139,166,158,136,1,8,0,1,1,0,0,4.396484385773716,0,0,0,0,0,-4,0,0,0,4,"",""
51,75277669,0,0,0,0,0,0,0,0,0,0,0,-10,1000,164,0,512,0,0,0,0,0,-4056,0,139,165,158,136,1,8,0,1,1,0,0,4.396484385773716,0,0,0,0,0,-4,0,0,0,4,"",""
52,75278982,0,0,0,0,0,0,0,0,0,0,0,-10,1000,164,0,512,0,0,0,0,0,-4056,0,138,165,157,136,1,8,0,1,1,0,0,4.396484385773716,0,0,0,0,0,-4,0,0,0,4,"",""
53,75280298,0,0,0,0,0,0,0,0,0,0,0,-10,1000,164,0,512,0,0,0,0,0,-4056,0,138,165,157,136,1,8,0,1,1,0,0,4.396484385773716,0,0,0,0,0,-4,0,0,0,4,"",""
54,75281620,0,0,0,0,0,0,0,0,0,0,0,-10,1000,164,0,512,0,0,0,0,0,-4056,0,137,165,157,136,1,8,0,1,1,0,0,4.396484385773716,0,0,0,0,0,-4,0,0,0,4,"",""
55,75282954,0,0,0,0,0,0,0,0,0,0,0,-10,1000,164,0,512,0,0,0,0,0,-4056,0,137,165,157,136,1,8,0,1,1,0,0,4.396484385773716,0,0,0,0,0,-4,0,0,0,4,"",""
56,75284288,0,0,0,0,0,0,0,0,0,0,0,-10,1000,164,0,512,0,0,0,0,0,-4056,0,136,165,156,136,1,8,0,1,1,0,0,4.396484385773716,0,0,0,0,0,-4,0,0,0,4,"",""
57,75285613,0,0,0,0,0,0,0,0,0,0,0,-10,1000,164,0,512,0,0,0,0,0,-4056,0,136,165,157,136,1,8,0,1,1,0,0,4.396484385773716,0,0,0,0,0,-4,0,0,0,4,"",""
58,75286926,0,0,0,0,0,0,0,0,0,0,0,-10,1000,164,0,512,0,1,0,0,0,-4056,0,136,165,157,136,1,8,0,1,1,0,0,4.396484385773716,0,0,0,0,0,-4,0,0,1,4,"",""
59,75288243,0,0,0,0,0,0,0,0,0,0,0,-10,1000,164,0,512,0,1,0,0,0,-4056,0,136,165,157,136,1,8,0,1,1,0,0,4.396484385773716,0,0,0,0,0,-4,0,0,1,4,"",""
60,75289559,0,0,0,0,0,0,0,0,0,0,0,-10,1000,164,0,512,0,1,0,0,0,-4056,0,136,165,156,136,1,8,0,1,1,0,0,4.396484385773716,0,0,0,0,0,-4,0,0,1,4,"",""
61,75290891,0,0,0,0,0,0,0,0,0,0,0,-10,1000,164,0,512,0,1,0,0,0,-4056,0,136,165,156,136,1,8,0,1,1,0,0,4.396484385773716,0,0,0,0,0,-4,0,0,1,4,"",""
62,75292228,0,0,0,0,0,0,0,0,0,0,0,-10,1000,164,0,512,0,1,0,0,0,-4056,0,136,166,156,136,1,8,0,1,1,0,0,4.396484385773716,0,0,0,0,0,-4,0,0,1,4,"",""
63,75293553,0,0,0,0,0,0,0,0,0,0,0,-10,1000,164,0,512,0,1,0,0,0,-4056,0,137,166,156,136,1,8,0,1,1,0,0,4.396484385773716,0,0,0,0,0,-4,0,0,1,4,"",""
64,75294872,0,0,0,0,0,0,0,0,0,0,0,-10,1000,164,0,512,0,1,0,0,0,-4056,0,138,166,158,137,1,8,0,1,1,0,0,4.396484385773716,0,0,0,0,0,-4,0,0,1,4,"",""
65,75296194,0,0,0,0,0,0,0,0,0,0,0,-10,1000,164,0,512,0,1,0,0,0,-4056,0,138,166,158,137,1,8,0,1,1,0,0,4.396484385773716,0,0,0,0,0,-4,0,0,1,4,"",""
66,75297518,0,0,0,0,0,0,0,0,0,0,0,-10,1000,164,0,512,0,0,0,0,0,-4056,0,139,166,158,137,1,8,0,1,1,0,0,4.396484385773716,0,0,0,0,0,-4,0,0,0,4,"",""
67,75298838,0,0,0,0,0,0,0,0,0,0,0,-10,1000,164,0,512,0,0,0,0,0,-4056,0,140,166,159,137,1,8,0,1,1,0,0,4.396484385773716,0,0,0,0,0,-4,0,0,0,4,"",""
68,75300179,0,0,0,0,0,0,0,0,0,0,0,-10,1000,164,0,512,0,0,0,0,0,-4056,0,140,166,159,137,1,8,0,1,1,0,0,4.396484385773716,0,0,0,0,0,-4,0,0,0,4,"",""
69,75301655,0,0,0,0,0,0,0,0,0,0,0,-10,1000,164,0,512,0,0,0,0,0,-4056,0,141,166,159,137,1,8,0,1,1,0,0,4.396484385773716,0,0,0,0,0,-4,0,0,0,4,"",""
70,75303120,0,0,0,0,0,0,0,0,0,0,0,-10,1000,164,0,512,0,0,0,0,0,-4056,0,141,166,160,137,1,8,0,1,1,0,0,4.396484385773716,0,0,0,0,0,-4,0,0,0,4,"",""
71,75304435,0,0,0,0,0,0,0,0,0,0,0,-10,1000,164,0,512,0,0,0,0,0,-4056,0,141,165,160,137,1,8,0,1,1,0,0,4.396484385773716,0,0,0,0,0,-4,0,0,0,4,"",""
72,75305750,0,0,0,0,0,0,0,0,0,0,0,-10,1000,164,0,512,0,0,0,0,0,-4056,0,141,165,160,137,1,8,0,1,1,0,0,4.396484385773716,0,0,0,0,0,-4,0,0,0,4,"",""
73,75307059,0,0,0,0,0,0,0,0,0,0,0,-10,1000,164,0,512,0,0,0,0,0,-4056,0,141,165,160,137,1,8,0,1,1,0,0,4.396484385773716,0,0,0,0,0,-4,0,0,0,4,"",""
74,75308373,0,0,0,0,0,0,0,0,0,0,0,-10,1000,164,0,512,0,0,0,0,0,-4056,0,141,165,161,137,1,8,0,1,1,0,0,4.396484385773716,0,0,0,0,0,-4,0,0,0,4,"",""
75,75309706,0,0,0,0,0,0,0,0,0,0,0,-10,1000,164,0,512,0,0,0,0,0,-4056,0,141,165,161,137,1,8,0,1,1,0,0,4.396484385773716,0,0,0,0,0,-4,0,0,0,4,"",""
76,75311033,0,0,0,0,0,0,0,0,0,0,0,-10,1000,164,0,512,0,0,0,0,0,-4056,0,140,165,160,137,1,8,0,1,1,0,0,4.396484385773716,0,0,0,0,0,-4,0,0,0,4,"",""
77,75312353,0,0,0,0,0,0,0,0,0,0,0,-10,1000,164,0,512,0,0,0,0,0,-4056,0,140,164,160,137,1,8,0,1,1,0,0,4.396484385773716,0,0,0,0,0,-4,0,0,0,4,"",""
78,75313666,0,0,0,0,0,0,0,0,0,0,0,-10,1000,164,0,512,0,0,0,0,0,-4056,0,139,164,160,137,1,8,0,1,1,0,0,4.396484385773716,0,0,0,0,0,-4,0,0,0,4,"",""
79,75314978,0,0,0,0,0,0,0,0,0,0,0,-10,1000,164,0,512,0,0,0,0,0,-4056,0,138,164,159,137,1,8,0,1,1,0,0,4.396484385773716,0,0,0,0,0,-4,0,0,0,4,"",""
80,75316289,0,0,0,0,0,0,0,0,0,0,0,-10,1000,164,0,512,0,0,0,0,0,-4056,0,138,164,159,137,1,8,0,1,1,0,0,4.396484385773716,0,0,0,0,0,-4,0,0,0,4,"",""
81,75317612,0,0,0,0,0,0,0,0,0,0,0,-10,1000,164,0,512,0,0,0,0,0,-4056,0,138,164,159,137,1,8,0,1,1,0,0,4.396484385773716,0,0,0,0,0,-4,0,0,0,4,"",""
82,75318946,0,0,0,0,0,0,0,0,0,0,0,-10,1000,165,0,512,0,0,0,0,0,-4056,0,138,165,158,137,1,8,0,1,1,0,0,4.396484385773716,0,0,0,0,0,-4,0,0,0,4,"",""
83,75320276,0,0,0,0,0,0,0,0,0,0,0,-10,1000,165,0,512,0,0,0,0,0,-4056,0,138,165,158,137,1,8,0,1,1,0,0,4.396484385773716,0,0,0,0,0,-4,0,0,0,4,"",""
84,75321594,0,0,0,0,0,0,0,0,0,0,0,-10,1000,165,0,512,0,0,0,0,0,-4056,0,138,166,158,137,1,8,0,1,1,0,0,4.396484385773716,0,0,0,0,0,-4,0,0,0,4,"",""
85,75322907,0,0,0,0,0,0,0,0,0,0,0,-10,1000,165,0,512,0,0,0,0,0,-4056,0,137,166,157,137,1,8,0,1,1,0,0,4.396484385773716,0,0,0,0,0,-4,0,0,0,4,"",""
86,75324231,0,0,0,0,0,0,0,0,0,0,0,-10,1000,165,0,512,0,0,0,0,0,-4056,0,137,166,157,137,1,8,0,1,1,0,0,4.396484385773716,0,0,0,0,0,-4,0,0,0,4,"",""
87,75325549,0,0,0,0,0,0,0,0,0,0,0,-10,1000,165,0,512,0,0,0,0,0,-4056,0,137,166,157,137,1,8,0,1,1,0,0,4.396484385773716,0,0,0,0,0,-4,0,0,0,4,"",""
88,75326883,0,0,0,0,0,0,0,0,0,0,0,-10,1000,165,0,512,0,1,0,0,0,-4056,0,137,166,156,137,1,8,0,1,1,0,0,4.396484385773716,0,0,0,0,0,-4,0,0,1,4,"",""
89,75328213,0,0,0,0,0,0,0,0,0,0,0,-10,1000,165,0,512,0,1,0,0,0,-4056,0,137,166,156,137,1,8,0,1,1,0,0,4.396484385773716,0,0,0,0,0,-4,0,0,1,4,"",""
90,75329540,0,0,0,0,0,0,0,0,0,0,0,-10,1000,165,0,512,0,1,0,0,0,-4056,0,137,166,156,137,1,8,0,1,1,0,0,4.396484385773716,0,0,0,0,0,-4,0,0,1,4,"",""
91,75330858,0,0,0,0,0,0,0,0,0,0,0,-10,1000,165,0,512,0,1,0,0,0,-4056,0,137,166,157,137,1,8,0,1,1,0,0,4.396484385773716,0,0,0,0,0,-4,0,0,1,4,"",""
92,75332184,0,0,0,0,0,0,0,0,0,0,0,-10,1000,165,0,512,0,1,0,0,0,-4056,0,137,166,157,137,1,8,0,1,1,0,0,4.396484385773716,0,0,0,0,0,-4,0,0,1,4,"",""
93,75333636,0,0,0,0,0,0,0,0,0,0,0,-10,1000,165,0,512,0,1,0,0,0,-4056,0,137,166,157,137,1,8,0,1,1,0,0,4.396484385773716,0,0,0,0,0,-4,0,0,1,4,"",""
94,75335090,0,0,0,0,0,0,0,0,0,0,0,-10,1000,165,0,512,0,1,0,0,0,-4056,0,137,166,157,137,1,8,0,1,1,0,0,4.396484385773716,0,0,0,0,0,-4,0,0,1,4,"",""
95,75336419,0,0,0,0,0,0,0,0,0,0,0,-10,1000,165,0,512,0,1,0,0,0,-4056,0,137,165,157,137,1,8,0,1,1,0,0,4.396484385773716,0,0,0,0,0,-4,0,0,1,4,"",""
96,75337742,0,0,0,0,0,0,0,0,0,0,0,-10,1000,165,0,512,0,1,0,0,0,-4056,0,138,166,158,138,1,8,0,1,1,0,0,4.396484385773716,0,0,0,0,0,-4,0,0,1,4,"",""
97,75339063,0,0,0,0,0,0,0,0,0,0,0,-10,1000,164,0,512,0,0,0,0,0,-4056,0,138,165,158,138,1,8,0,1,1,0,0,4.396484385773716,0,0,0,0,0,-4,0,0,0,4,"",""
98,75340382,0,0,0,0,0,0,0,0,0,0,0,-10,1000,164,0,512,0,0,0,0,0,-4056,0,138,165,158,138,1,8,0,1,1,0,0,4.396484385773716,0,0,0,0,0,-4,0,0,0,4,"",""
99,75341696,0,0,0,0,0,0,0,0,0,0,0,-10,1000,164,0,512,0,0,0,0,0,-4056,0,138,165,159,138,1,8,0,1,1,0,0,4.396484385773716,0,0,0,0,0,-4,0,0,0,4,"",""
100,75343011,0,0,0,0,0,0,0,0,0,0,0,-10,1000,164,0,512,-1,0,0,0,0,-4056,0,138,164,159,138,1,8,0,1,1,0,0,4.396484378775725,0,0,0,0,0,-4,0,-1,0,4,"",""
101,75344328,0,0,0,0,0,0,0,0,0,0,0,-10,1000,164,0,512,-1,0,0,0,0,-4056,0,138,165,159,138,1,8,0,1,1,0,0,4.39648437176709,0,0,0,0,0,-4,0,-1,0,4,"",""
102,75345654,0,0,0,0,0,0,0,0,0,0,0,-10,1000,164,0,512,-1,0,0,0,0,-4056,0,139,165,160,138,1,8,0,1,1,0,0,4.3964843647105605,0,0,0,0,0,-4,0,-1,0,4,"",""
103,75346983,0,0,0,0,0,0,0,0,0,0,0,-10,1000,164,0,512,-1,0,0,0,0,-4056,0,139,165,160,138,1,8,0,1,1,0,0,4.396484357638066,0,0,0,0,0,-4,0,-1,0,4,"",""
104,75348313,0,0,0,0,0,0,0,0,0,0,0,-10,1000,164,0,512,-1,0,0,0,0,-4056,0,139,165,160,138,1,8,0,1,1,0,0,4.396484350560249,0,0,0,0,0,-4,0,-1,0,4,"",""
105,75349630,0,0,0,0,0,0,0,0,0,0,0,-10,1000,164,0,512,-1,0,0,0,0,-4056,0,140,165,160,138,1,8,0,1,1,0,0,4.396484343551615,0,0,0,0,0,-4,0,-1,0,4,"",""
106,75350950,0,0,0,0,0,0,0,0,0,0,0,-10,1000,164,0,512,-1,0,0,0,0,-4056,0,141,166,160,138,1,8,0,1,1,0,0,4.396484336527014,0,0,0,0,0,-4,0,-1,0,4,"",""
107,75352267,0,0,0,0,0,0,0,0,0,0,0,-10,1000,164,0,512,0,0,0,0,0,-4056,0,141,166,161,138,1,8,0,1,1,0,0,4.396484336527014,0,0,0,0,0,-4,0,0,0,4,"",""
108,75353590,0,0,0,0,0,0,0,0,0,0,0,-10,1000,164,0,512,0,0,0,0,0,-4056,0,141,166,160,138,1,8,0,1,1,0,0,4.396484336527014,0,0,0,0,0,-4,0,0,0,4,"",""
109,75354929,0,0,0,0,0,0,0,0,0,0,0,-10,1000,164,0,512,0,0,0,0,0,-4056,0,142,167,161,138,1,8,0,1,1,0,0,4.396484336527014,0,0,0,0,0,-4,0,0,0,4,"",""
110,75356259,0,0,0,0,0,0,0,0,0,0,0,-10,1000,164,0,512,0,0,0,0,0,-4056,0,142,167,161,138,1,8,0,1,1,0,0,4.396484336527014,0,0,0,0,0,-4,0,0,0,4,"",""
111,75357576,0,0,0,0,0,0,0,0,0,0,0,-10,1000,164,0,512,0,0,0,0,0,-4056,0,141,167,160,138,1,8,0,1,1,0,0,4.396484336527014,0,0,0,0,0,-4,0,0,0,4,"",""
112,75358889,0,0,0,0,0,0,0,0,0,0,0,-10,1000,165,0,512,0,0,0,0,0,-4056,0,142,168,160,138,1,8,0,1,1,0,0,4.396484336527014,0,0,0,0,0,-4,0,0,0,4,"",""
113,75360206,0,0,0,0,0,0,0,0,0,0,0,-10,1000,165,0,512,0,0,0,0,0,-4056,0,141,168,160,138,1,8,0,1,1,0,0,4.396484336527014,0,0,0,0,0,-4,0,0,0,4,"",""
114,75361531,0,0,0,0,0,0,0,0,0,0,0,-10,1000,165,0,512,0,0,0,0,0,-4056,0,141,168,160,138,1,8,0,1,1,0,0,4.396484336527014,0,0,0,0,0,-4,0,0,0,4,"",""
115,75363001,0,0,0,0,0,0,0,0,0,0,0,-10,1000,165,0,512,0,0,0,0,0,-4056,0,141,168,160,138,1,8,0,1,1,0,0,4.396484336527014,0,0,0,0,0,-4,0,0,0,4,"",""
116,75364471,0,0,0,0,0,0,0,0,0,0,0,-10,1000,165,0,512,0,0,0,0,0,-4056,0,140,167,159,138,1,8,0,1,1,0,0,4.396484336527014,0,0,0,0,0,-4,0,0,0,4,"",""
117,75365795,0,0,0,0,0,0,0,0,0,0,0,-10,1000,165,0,512,0,0,0,0,0,-4056,0,140,167,160,138,1,8,0,1,1,0,0,4.396484336527014,0,0,0,0,0,-4,0,0,0,4,"",""
118,75367118,0,0,0,0,0,0,0,0,0,0,0,-10,1000,165,0,512,0,0,0,0,0,-4056,0,140,167,160,138,1,8,0,1,1,0,0,4.396484336527014,0,0,0,0,0,-4,0,0,0,4,"",""
119,75368433,0,0,0,0,0,0,0,0,0,0,0,-10,1000,165,0,512,0,0,0,0,0,-4056,0,140,167,159,138,1,8,0,1,1,0,0,4.396484336527014,0,0,0,0,0,-4,0,0,0,4,"",""
120,75369747,0,0,0,0,0,0,0,0,0,0,0,-10,1000,165,0,512,0,0,0,0,0,-4056,0,140,167,159,138,1,8,0,1,1,0,0,4.396484336527014,0,0,0,0,0,-4,0,0,0,4,"",""
121,75371057,0,0,0,0,0,0,0,0,0,0,0,-10,1000,165,0,512,0,0,0,0,0,-4056,0,140,167,159,138,1,8,0,1,1,0,0,4.396484336527014,0,0,0,0,0,-4,0,0,0,4,"",""
122,75372400,0,0,0,0,0,0,0,0,0,0,0,-10,1000,165,0,512,0,0,0,0,0,-4056,0,140,167,159,138,1,8,0,1,1,0,0,4.396484336527014,0,0,0,0,0,-4,0,0,0,4,"",""
123,75373725,0,0,0,0,0,0,0,0,0,0,0,-10,1000,165,0,512,0,0,0,0,0,-4056,0,139,166,159,138,1,8,0,1,1,0,0,4.396484336527014,0,0,0,0,0,-4,0,0,0,4,"",""
124,75375046,0,0,0,0,0,0,0,0,0,0,0,-10,1000,165,0,512,0,0,0,0,0,-4056,0,139,166,159,138,1,8,0,1,1,0,0,4.396484336527014,0,0,0,0,0,-4,0,0,0,4,"",""
125,75376358,0,0,0,0,0,0,0,0,0,0,0,-10,1000,165,0,512,0,0,0,0,0,-4056,0,140,166,160,138,1,8,0,1,1,0,0,4.396484336527014,0,0,0,0,0,-4,0,0,0,4,"",""
126,75377674,0,0,0,0,0,0,0,0,0,0,0,-10,1000,165,0,512,0,0,0,0,0,-4056,0,140,166,160,138,1,8,0,1,1,0,0,4.396484336527014,0,0,0,0,0,-4,0,0,0,4,"",""
127,75378986,0,0,0,0,0,0,0,0,0,0,0,-10,1000,165,0,512,0,0,0,0,0,-4056,0,140,166,160,138,1,8,0,1,1,0,0,4.396484336527014,0,0,0,0,0,-4,0,0,0,4,"",""
128,75380302,0,0,0,0,0,0,0,0,0,0,0,-10,1000,165,0,512,0,0,0,0,0,-4056,0,138,164,157,135,1,8,0,1,1,0,0,4.396484336527014,0,0,0,0,0,-4,0,0,0,4,"",""
129,75381628,0,0,0,0,0,0,0,0,0,0,0,-10,1000,165,0,512,0,0,0,0,0,-4056,0,139,164,158,135,1,8,0,1,1,0,0,4.396484336527014,0,0,0,0,0,-4,0,0,0,4,"",""
130,75382958,0,0,0,0,0,0,0,0,0,0,0,-10,1000,165,0,512,0,0,0,0,0,-4056,0,139,164,158,135,1,8,0,1,1,0,0,4.396484336527014,0,0,0,0,0,-4,0,0,0,4,"",""
131,75384280,0,0,0,0,0,0,0,0,0,0,0,-10,1000,165,0,512,0,0,0,0,0,-4056,0,140,164,158,135,1,8,0,1,1,0,0,4.396484336527014,0,0,0,0,0,-4,0,0,0,4,"",""
132,75385596,0,0,0,0,0,0,0,0,0,0,0,-10,1000,165,0,512,0,0,0,0,0,-4056,0,140,163,159,135,1,8,0,1,1,0,0,4.396484336527014,0,0,0,0,0,-4,0,0,0,4,"",""
133,75386910,0,0,0,0,0,0,0,0,0,0,0,-10,1000,165,0,512,0,0,0,0,0,-4056,0,140,163,159,135,1,8,0,1,1,0,0,4.396484336527014,0,0,0,0,0,-4,0,0,0,4,"",""
134,75388227,0,0,0,0,0,0,0,0,0,0,0,-10,1000,165,0,512,0,0,0,0,0,-4056,0,141,163,159,135,1,8,0,1,1,0,0,4.396484336527014,0,0,0,0,0,-4,0,0,0,4,"",""
135,75389547,0,0,0,0,0,0,0,0,0,0,0,-10,1000,165,0,512,0,0,0,0,0,-4056,0,140,163,159,135,1,8,0,1,1,0,0,4.396484336527014,0,0,0,0,0,-4,0,0,0,4,"",""
136,75390886,0,0,0,0,0,0,0,0,0,0,0,-10,1000,165,0,512,0,0,0,0,0,-4056,0,141,164,159,135,1,8,0,1,1,0,0,4.396484336527014,0,0,0,0,0,-4,0,0,0,4,"",""
137,75392364,0,0,0,0,0,0,0,0,0,0,0,-10,1000,165,0,512,0,0,0,0,0,-4056,0,140,163,159,135,1,8,0,1,1,0,0,4.396484336527014,0,0,0,0,0,-4,0,0,0,4,"",""
138,75393820,0,0,0,0,0,0,0,0,0,0,0,-10,1000,165,0,512,0,0,0,0,0,-4056,0,140,163,159,135,1,8,0,1,1,0,0,4.396484336527014,0,0,0,0,0,-4,0,0,0,4,"",""
139,75395134,0,0,0,0,0,0,0,0,0,0,0,-10,1000,165,0,512,0,0,0,0,0,-4056,0,140,164,159,135,1,8,0,1,1,0,0,4.396484336527014,0,0,0,0,0,-4,0,0,0,4,"",""
140,75396458,0,0,0,0,0,0,0,0,0,0,0,-10,1000,165,0,512,0,0,0,0,0,-4056,0,140,164,159,135,1,8,0,1,1,0,0,4.396484336527014,0,0,0,0,0,-4,0,0,0,4,"",""
141,75397767,0,0,0,0,0,0,0,0,0,0,0,-10,1000,165,0,512,0,0,0,0,0,-4056,0,140,164,159,135,1,8,0,1,1,0,0,4.396484336527014,0,0,0,0,0,-4,0,0,0,4,"",""
142,75399096,0,0,0,0,0,0,0,0,0,0,0,-10,1000,164,0,512,0,0,0,0,0,-4056,0,140,164,159,135,1,8,0,1,1,0,0,4.396484336527014,0,0,0,0,0,-4,0,0,0,4,"",""
143,75400428,0,0,0,0,0,0,0,0,0,0,0,-10,1000,164,0,512,0,0,0,0,0,-4056,0,139,163,158,135,1,8,0,1,1,0,0,4.396484336527014,0,0,0,0,0,-4,0,0,0,4,"",""
144,75401749,0,0,0,0,0,0,0,0,0,0,0,-10,1000,164,0,512,0,0,0,0,0,-4056,0,138,163,158,135,1,8,0,1,1,0,0,4.396484336527014,0,0,0,0,0,-4,0,0,0,4,"",""
145,75403068,0,0,0,0,0,0,0,0,0,0,0,-10,1000,164,0,512,0,0,0,0,0,-4056,0,137,163,158,135,1,8,0,1,1,0,0,4.396484336527014,0,0,0,0,0,-4,0,0,0,4,"",""
146,75404385,0,0,0,0,0,0,0,0,0,0,0,-10,1000,164,0,512,0,0,0,0,0,-4056,0,137,163,157,135,1,8,0,1,1,0,0,4.396484336527014,0,0,0,0,0,-4,0,0,0,4,"",""
147,75405704,0,0,0,0,0,0,0,0,0,0,0,-10,1000,164,0,512,0,0,0,0,0,-4056,0,136,163,157,135,1,8,0,1,1,0,0,4.396484336527014,0,0,0,0,0,-4,0,0,0,4,"",""
148,75407016,0,0,0,0,0,0,0,0,0,0,0,-10,1000,164,0,512,0,0,0,0,0,-4056,0,136,163,157,135,1,8,0,1,1,0,0,4.396484336527014,0,0,0,0,0,-4,0,0,0,4,"",""
149,75408348,0,0,0,0,0,0,0,0,0,0,0,-10,1000,164,0,512,0,0,0,0,0,-4056,0,137,164,157,135,1,8,0,1,1,0,0,4.396484336527014,0,0,0,0,0,-4,0,0,0,4,"",""
150,75409682,0,0,0,0,0,0,0,0,0,0,0,-10,1000,164,0,512,0,0,0,0,0,-4056,0,136,164,156,135,1,8,0,1,1,0,0,4.396484336527014,0,0,0,0,0,-4,0,0,0,4,"",""
151,75410998,0,0,0,0,0,0,0,0,0,0,0,-10,1000,164,0,512,0,0,0,0,0,-4056,0,136,164,156,135,1,8,0,1,1,0,0,4.396484336527014,0,0,0,0,0,-4,0,0,0,4,"",""
152,75412318,0,0,0,0,0,0,0,0,0,0,0,-10,1000,164,0,512,0,0,0,0,0,-4056,0,136,164,156,135,1,8,0,1,1,0,0,4.396484336527014,0,0,0,0,0,-4,0,0,0,4,"",""
153,75413633,0,0,0,0,0,0,0,0,0,0,0,-10,1000,164,0,512,0,0,0,0,0,-4056,0,135,164,156,135,1,8,0,1,1,0,0,4.396484336527014,0,0,0,0,0,-4,0,0,0,4,"",""
154,75414944,0,0,0,0,0,0,0,0,0,0,0,-10,1000,164,0,512,0,0,0,0,0,-4056,0,135,164,156,135,1,8,0,1,1,0,0,4.396484336527014,0,0,0,0,0,-4,0,0,0,4,"",""
155,75416263,0,0,0,0,0,0,0,0,0,0,0,-10,1000,164,0,512,0,0,0,0,0,-4056,0,135,164,156,135,1,8,0,1,1,0,0,4.396484336527014,0,0,0,0,0,-4,0,0,0,4,"",""
156,75417593,0,0,0,0,0,0,0,0,0,0,0,-10,1000,164,0,512,0,0,0,0,0,-4056,0,136,164,156,135,1,8,0,1,1,0,0,4.396484336527014,0,0,0,0,0,-4,0,0,0,4,"",""
157,75418932,0,0,0,0,0,0,0,0,0,0,0,-10,1000,164,0,512,0,0,0,0,0,-4056,0,136,164,156,135,1,8,0,1,1,0,0,4.396484336527014,0,0,0,0,0,-4,0,0,0,4,"",""
158,75420257,0,0,0,0,0,0,0,0,0,0,0,-10,1000,164,0,512,0,0,0,0,0,-4056,0,137,164,156,135,1,8,0,1,1,0,0,4.396484336527014,0,0,0,0,0,-4,0,0,0,4,"",""
159,75421583,0,0,0,0,0,0,0,0,0,0,0,-10,1000,164,0,512,0,0,0,0,0,-4056,0,137,164,156,135,1,8,0,1,1,0,0,4.396484336527014,0,0,0,0,0,-4,0,0,0,4,"",""
160,75423037,0,0,0,0,0,0,0,0,0,0,0,-10,1000,164,0,512,0,0,0,0,0,-4056,0,138,165,157,136,1,8,0,1,1,0,0,4.396484336527014,0,0,0,0,0,-4,0,0,0,4,"",""
161,75424496,0,0,0,0,0,0,0,0,0,0,0,-10,1000,164,0,512,0,0,0,0,0,-4056,0,138,165,157,136,1,8,0,1,1,0,0,4.396484336527014,0,0,0,0,0,-4,0,0,0,4,"",""
162,75425826,0,0,0,0,0,0,0,0,0,0,0,-10,1000,164,0,512,0,0,0,0,0,-4056,0,138,165,157,136,1,8,0,1,1,0,0,4.396484336527014,0,0,0,0,0,-4,0,0,0,4,"",""
163,75427159,0,0,0,0,0,0,0,0,0,0,0,-10,1000,164,0,512,0,0,0,0,0,-4056,0,137,164,157,136,1,8,0,1,1,0,0,4.396484336527014,0,0,0,0,0,-4,0,0,0,4,"",""
164,75428491,0,0,0,0,0,0,0,0,0,0,0,-10,1000,164,0,512,0,0,0,0,0,-4056,0,137,164,157,136,1,8,0,1,1,0,0,4.396484336527014,0,0,0,0,0,-4,0,0,0,4,"",""
165,75429808,0,0,0,0,0,0,0,0,0,0,0,-10,1000,164,0,512,0,0,0,0,0,-4056,0,138,165,158,136,1,8,0,1,1,0,0,4.396484336527014,0,0,0,0,0,-4,0,0,0,4,"",""
166,75431130,0,0,0,0,0,0,0,0,0,0,0,-10,1000,164,0,512,0,0,0,0,0,-4056,0,138,165,158,136,1,8,0,1,1,0,0,4.396484336527014,0,0,0,0,0,-4,0,0,0,4,"",""
167,75432440,0,0,0,0,0,0,0,0,0,0,0,-10,1000,164,0,512,0,0,0,0,0,-4056,0,138,164,158,136,1,8,0,1,1,0,0,4.396484336527014,0,0,0,0,0,-4,0,0,0,4,"",""
168,75433754,0,0,0,0,0,0,0,0,0,0,0,-10,1000,164,0,512,0,0,0,0,0,-4056,0,138,164,158,136,1,8,0,1,1,0,0,4.396484336527014,0,0,0,0,0,-4,0,0,0,4,"",""
169,75435079,0,0,0,0,0,0,0,0,0,0,0,-10,1000,164,0,512,0,0,0,0,0,-4056,0,138,164,158,136,1,8,0,1,1,0,0,4.396484336527014,0,0,0,0,0,-4,0,0,0,4,"",""
170,75436403,0,0,0,0,0,0,0,0,0,0,0,-10,1000,164,0,512,0,0,0,0,0,-4056,0,138,164,158,136,1,8,0,1,1,0,0,4.396484336527014,0,0,0,0,0,-4,0,0,0,4,"",""
171,75437721,0,0,0,0,0,0,0,0,0,0,0,-10,1000,164,0,512,0,0,0,0,0,-4056,0,138,164,158,136,1,8,0,1,1,0,0,4.396484336527014,0,0,0,0,0,-4,0,0,0,4,"",""
172,75439039,0,0,0,0,0,0,0,0,0,0,0,-10,1000,165,0,512,0,0,0,0,0,-4056,0,138,164,158,136,1,8,0,1,1,0,0,4.396484336527014,0,0,0,0,0,-4,0,0,0,4,"",""
173,75440360,0,0,0,0,0,0,0,0,0,0,0,-10,1000,165,0,512,0,0,0,0,0,-4056,0,138,164,158,136,1,8,0,1,1,0,0,4.396484336527014,0,0,0,0,0,-4,0,0,0,4,"",""
174,75441677,0,0,0,0,0,0,0,0,0,0,0,-10,1000,165,0,512,0,0,0,0,0,-4056,0,139,165,158,136,1,8,0,1,1,0,0,4.396484336527014,0,0,0,0,0,-4,0,0,0,4,"",""
175,75443004,0,0,0,0,0,0,0,0,0,0,0,-10,1000,165,0,512,0,0,0,0,0,-4056,0,138,165,158,136,1,8,0,1,1,0,0,4.396484336527014,0,0,0,0,0,-4,0,0,0,4,"",""
176,75444339,0,0,0,0,0,0,0,0,0,0,0,-10,1000,165,0,512,0,0,0,0,0,-4056,0,139,164,158,136,1,8,0,1,1,0,0,4.396484336527014,0,0,0,0,0,-4,0,0,0,4,"",""
177,75445676,0,0,0,0,0,0,0,0,0,0,0,-10,1000,165,0,512,0,0,0,0,0,-4056,0,138,164,158,136,1,8,0,1,1,0,0,4.396484336527014,0,0,0,0,0,-4,0,0,0,4,"",""
178,75447004,0,0,0,0,0,0,0,0,0,0,0,-10,1000,165,0,512,0,0,0,0,0,-4056,0,138,165,158,136,1,8,0,1,1,0,0,4.396484336527014,0,0,0,0,0,-4,0,0,0,4,"",""
179,75448314,0,0,0,0,0,0,0,0,0,0,0,-10,1000,165,0,512,0,0,0,0,0,-4056,0,138,165,157,136,1,8,0,1,1,0,0,4.396484336527014,0,0,0,0,0,-4,0,0,0,4,"",""
180,75449627,0,0,0,0,0,0,0,0,0,0,0,-10,1000,165,0,512,0,0,0,0,0,-4056,0,137,165,157,136,1,8,0,1,1,0,0,4.396484336527014,0,0,0,0,0,-4,0,0,0,4,"",""
181,75450941,0,0,0,0,0,0,0,0,0,0,0,-10,1000,165,0,512,0,0,0,0,0,-4056,0,137,165,157,136,1,8,0,1,1,0,0,4.396484336527014,0,0,0,0,0,-4,0,0,0,4,"",""
182,75452266,0,0,0,0,0,0,0,0,0,0,0,-10,1000,165,0,512,0,0,0,0,0,-4056,0,137,165,157,136,1,8,0,1,1,0,0,4.396484336527014,0,0,0,0,0,-4,0,0,0,4,"",""
183,75453740,0,0,0,0,0,0,0,0,0,0,0,-10,1000,165,0,512,0,0,0,0,0,-4056,0,138,165,157,136,1,8,0,1,1,0,0,4.396484336527014,0,0,0,0,0,-4,0,0,0,4,"",""
184,75455209,0,0,0,0,0,0,0,0,0,0,0,-10,1000,165,0,512,0,0,0,0,0,-4056,0,138,165,157,136,1,8,0,1,1,0,0,4.396484336527014,0,0,0,0,0,-4,0,0,0,4,"",""
185,75456531,0,0,0,0,0,0,0,0,0,0,0,-10,1000,165,0,512,0,0,0,0,0,-4056,0,138,165,157,136,1,8,0,1,1,0,0,4.396484336527014,0,0,0,0,0,-4,0,0,0,4,"",""
186,75457850,0,0,0,0,0,0,0,0,0,0,0,-10,1000,165,0,512,0,0,0,0,0,-4056,0,138,165,157,136,1,8,0,1,1,0,0,4.396484336527014,0,0,0,0,0,-4,0,0,0,4,"",""
187,75459165,0,0,0,0,0,0,0,0,0,0,0,-10,1000,165,0,512,0,0,0,0,0,-4056,0,138,165,157,136,1,8,0,1,1,0,0,4.396484336527014,0,0,0,0,0,-4,0,0,0,4,"",""
188,75460475,0,0,0,0,0,0,0,0,0,0,0,-10,1000,165,0,512,0,0,0,0,0,-4056,0,138,165,157,136,1,8,0,1,1,0,0,4.396484336527014,0,0,0,0,0,-4,0,0,0,4,"",""
189,75461797,0,0,0,0,0,0,0,0,0,0,0,-10,1000,165,0,512,0,0,0,0,0,-4056,0,138,165,157,136,1,8,0,1,1,0,0,4.396484336527014,0,0,0,0,0,-4,0,0,0,4,"",""
190,75463125,0,0,0,0,0,0,0,0,0,0,0,-10,1000,165,0,512,0,0,0,0,0,-4056,0,138,165,157,136,1,8,0,1,1,0,0,4.396484336527014,0,0,0,0,0,-4,0,0,0,4,"",""
191,75464456,0,0,0,0,0,0,0,0,0,0,0,-10,1000,165,0,512,0,0,0,0,0,-4056,0,139,165,158,136,1,8,0,1,1,0,0,4.396484336527014,0,0,0,0,0,-4,0,0,0,4,"",""
192,75465774,0,0,0,0,0,0,0,0,0,0,0,-10,1000,165,0,512,0,0,0,0,0,-4056,0,138,164,157,135,1,8,0,1,1,0,0,4.396484336527014,0,0,0,0,0,-4,0,0,0,4,"",""
193,75467093,0,0,0,0,0,0,0,0,0,0,0,-10,1000,165,0,512,0,0,0,0,0,-4056,0,138,164,157,135,1,8,0,1,1,0,0,4.396484336527014,0,0,0,0,0,-4,0,0,0,4,"",""
194,75468419,0,0,0,0,0,0,0,0,0,0,0,-10,1000,165,0,512,0,0,0,0,0,-4056,0,138,164,157,135,1,8,0,1,1,0,0,4.396484336527014,0,0,0,0,0,-4,0,0,0,4,"",""
195,75469736,0,0,0,0,0,0,0,0,0,0,0,-10,1000,165,0,512,0,0,0,0,0,-4056,0,138,164,157,135,1,8,0,1,1,0,0,4.396484336527014,0,0,0,0,0,-4,0,0,0,4,"",""
196,75471073,0,0,0,0,0,0,0,0,0,0,0,-10,1000,165,0,512,0,0,0,0,0,-4056,0,138,164,157,135,1,8,0,1,1,0,0,4.396484336527014,0,0,0,0,0,-4,0,0,0,4,"",""
197,75472401,0,0,0,0,0,0,0,0,0,0,0,-10,1000,165,0,512,0,0,0,0,0,-4056,0,137,164,157,135,1,8,0,1,1,0,0,4.396484336527014,0,0,0,0,0,-4,0,0,0,4,"",""
198,75473727,0,0,0,0,0,0,0,0,0,0,0,-10,1000,165,0,512,0,0,0,0,0,-4056,0,138,163,157,135,1,8,0,1,1,0,0,4.396484336527014,0,0,0,0,0,-4,0,0,0,4,"",""
199,75475048,0,0,0,0,0,0,0,0,0,0,0,-10,1000,165,0,512,0,0,0,0,0,-4056,0,137,163,157,135,1,8,0,1,1,0,0,4.396484336527014,0,0,0,0,0,-4,0,0,0,4,"",""
200,75476368,0,0,0,0,0,0,0,0,0,0,0,-10,1000,165,0,512,0,0,0,0,0,-4056,0,138,163,158,135,1,8,0,1,1,0,0,4.396484336527014,0,0,0,0,0,-4,0,0,0,4,"",""
201,75477684,0,0,0,0,0,0,0,0,0,0,0,-10,1000,165,0,512,0,0,0,0,0,-4056,0,137,163,157,135,1,8,0,1,1,0,0,4.396484336527014,0,0,0,0,0,-4,0,0,0,4,"",""
202,75479005,0,0,0,0,0,0,0,0,0,0,0,-10,1000,165,0,512,0,0,0,0,0,-4056,0,137,163,157,135,1,8,0,1,1,0,0,4.396484336527014,0,0,0,0,0,-4,0,0,0,4,"",""
203,75480337,0,0,0,0,0,0,0,0,0,0,0,-10,1000,165,0,512,0,0,0,0,0,-4056,0,137,163,157,135,1,8,0,1,1,0,0,4.396484336527014,0,0,0,0,0,-4,0,0,0,4,"",""
204,75481680,0,0,0,0,0,0,0,0,0,0,0,-10,1000,165,0,512,0,0,0,0,0,-4056,0,137,163,157,135,1,8,0,1,1,0,0,4.396484336527014,0,0,0,0,0,-4,0,0,0,4,"",""
205,75483139,0,0,0,0,0,0,0,0,0,0,0,-10,1000,165,0,512,0,0,0,0,0,-4056,0,136,163,157,135,1,8,0,1,1,0,0,4.396484336527014,0,0,0,0,0,-4,0,0,0,4,"",""
206,75484601,0,0,0,0,0,0,0,0,0,0,0,-10,1000,165,0,512,0,0,0,0,0,-4056,0,137,163,157,135,1,8,0,1,1,0,0,4.396484336527014,0,0,0,0,0,-4,0,0,0,4,"",""
207,75485925,0,0,0,0,0,0,0,0,0,0,0,-10,1000,165,0,512,0,0,0,0,0,-4056,0,136,163,157,135,1,8,0,1,1,0,0,4.396484336527014,0,0,0,0,0,-4,0,0,0,4,"",""
208,75487238,0,0,0,0,0,0,0,0,0,0,0,-10,1000,165,0,512,0,0,0,0,0,-4056,0,137,163,157,135,1,8,0,1,1,0,0,4.396484336527014,0,0,0,0,0,-4,0,0,0,4,"",""
209,75488560,0,0,0,0,0,0,0,0,0,0,0,-10,1000,165,0,512,0,0,0,0,0,-4056,0,137,163,157,135,1,8,0,1,1,0,0,4.396484336527014,0,0,0,0,0,-4,0,0,0,4,"",""
210,75489895,0,0,0,0,0,0,0,0,0,0,0,-10,1000,165,0,512,0,0,0,0,0,-4056,0,137,163,157,135,1,8,0,1,1,0,0,4.396484336527014,0,0,0,0,0,-4,0,0,0,4,"",""
211,75491233,0,0,0,0,0,0,0,0,0,0,0,-10,1000,165,0,512,0,0,0,0,0,-4056,0,138,164,157,135,1,8,0,1,1,0,0,4.396484336527014,0,0,0,0,0,-4,0,0,0,4,"",""
212,75492562,0,0,0,0,0,0,0,0,0,0,0,-10,1000,165,0,512,0,0,0,0,0,-4056,0,137,164,157,135,1,8,0,1,1,0,0,4.396484336527014,0,0,0,0,0,-4,0,0,0,4,"",""
213,75493881,0,0,0,0,0,0,0,0,0,0,0,-10,1000,165,0,512,0,0,0,0,0,-4056,0,137,164,157,135,1,8,0,1,1,0,0,4.396484336527014,0,0,0,0,0,-4,0,0,0,4,"",""
214,75495198,0,0,0,0,0,0,0,0,0,0,0,-10,1000,165,0,512,0,0,0,0,0,-4056,0,137,164,157,135,1,8,0,1,1,0,0,4.396484336527014,0,0,0,0,0,-4,0,0,0,4,"",""
215,75496516,0,0,0,0,0,0,0,0,0,0,0,-10,1000,165,0,512,0,0,0,0,0,-4056,0,137,164,157,135,1,8,0,1,1,0,0,4.396484336527014,0,0,0,0,0,-4,0,0,0,4,"",""
216,75497845,0,0,0,0,0,0,0,0,0,0,0,-10,1000,165,0,512,0,0,0,0,0,-4056,0,137,164,157,135,1,8,0,1,1,0,0,4.396484336527014,0,0,0,0,0,-4,0,0,0,4,"",""
217,75499176,0,0,0,0,0,0,0,0,0,0,0,-10,1000,164,0,512,0,0,0,0,0,-4056,0,137,164,157,135,1,8,0,1,1,0,0,4.396484336527014,0,0,0,0,0,-4,0,0,0,4,"",""
218,75500508,0,0,0,0,0,0,0,0,0,0,0,-10,1000,164,0,512,0,0,0,0,0,-4056,0,137,164,157,135,1,8,0,1,1,0,0,4.396484336527014,0,0,0,0,0,-4,0,0,0,4,"",""
219,75501830,0,0,0,0,0,0,0,0,0,0,0,-10,1000,164,0,512,0,0,0,0,0,-4056,0,138,164,157,135,1,8,0,1,1,0,0,4.396484336527014,0,0,0,0,0,-4,0,0,0,4,"",""
220,75503149,0,0,0,0,0,0,0,0,0,0,0,-10,1000,164,0,512,0,0,0,0,0,-4056,0,138,164,157,135,1,8,0,1,1,0,0,4.396484336527014,0,0,0,0,0,-4,0,0,0,4,"",""
221,75504464,0,0,0,0,0,0,0,0,0,0,0,-10,1000,164,0,512,0,0,0,0,0,-4056,0,138,164,157,135,1,8,0,1,1,0,0,4.396484336527014,0,0,0,0,0,-4,0,0,0,4,"",""
222,75505783,0,0,0,0,0,0,0,0,0,0,0,-10,1000,164,0,512,0,0,0,0,0,-4056,0,138,164,158,135,1,8,0,1,1,0,0,4.396484336527014,0,0,0,0,0,-4,0,0,0,4,"",""
223,75507114,0,0,0,0,0,0,0,0,0,0,0,-10,1000,164,0,512,0,0,0,0,0,-4056,0,138,163,158,135,1,8,0,1,1,0,0,4.396484336527014,0,0,0,0,0,-4,0,0,0,4,"",""
224,75508444,0,0,0,0,0,0,0,0,0,0,0,-10,1000,164,0,512,0,0,0,0,0,-4056,0,138,163,158,135,1,8,0,1,1,0,0,4.396484336527014,0,0,0,0,0,-4,0,0,0,4,"",""
225,75509767,0,0,0,0,0,0,0,0,0,0,0,-10,1000,164,0,512,0,0,0,0,0,-4056,0,138,163,157,135,1,8,0,1,1,0,0,4.396484336527014,0,0,0,0,0,-4,0,0,0,4,"",""
226,75511097,0,0,0,0,0,0,0,0,0,0,0,-10,1000,164,0,512,0,0,0,0,0,-4056,0,138,164,157,135,1,8,0,1,1,0,0,4.396484336527014,0,0,0,0,0,-4,0,0,0,4,"",""
227,75512551,0,0,0,0,0,0,0,0,0,0,0,-10,1000,164,0,512,0,0,0,0,0,-4056,0,137,163,157,135,1,8,0,1,1,0,0,4.396484336527014,0,0,0,0,0,-4,0,0,0,4,"",""
228,75514007,0,0,0,0,0,0,0,0,0,0,0,-10,1000,164,0,512,0,0,0,0,0,-4056,0,137,163,157,135,1,8,0,1,1,0,0,4.396484336527014,0,0,0,0,0,-4,0,0,0,4,"",""
229,75515329,0,0,0,0,0,0,0,0,0,0,0,-10,1000,164,0,512,0,0,0,0,0,-4056,0,137,163,157,135,1,8,0,1,1,0,0,4.396484336527014,0,0,0,0,0,-4,0,0,0,4,"",""
230,75516663,0,0,0,0,0,0,0,0,0,0,0,-10,1000,164,0,512,0,0,0,0,0,-4056,0,137,163,157,135,1,8,0,1,1,0,0,4.396484336527014,0,0,0,0,0,-4,0,0,0,4,"",""
231,75517992,0,0,0,0,0,0,0,0,0,0,0,-10,1000,164,0,512,0,0,0,0,0,-4056,0,137,163,157,135,1,8,0,1,1,0,0,4.396484336527014,0,0,0,0,0,-4,0,0,0,4,"",""
232,75519315,0,0,0,0,0,0,0,0,0,0,0,-10,1000,164,0,512,0,0,0,0,0,-4056,0,137,163,157,135,1,8,0,1,1,0,0,4.396484336527014,0,0,0,0,0,-4,0,0,0,4,"",""
233,75520634,0,0,0,0,0,0,0,0,0,0,0,-10,1000,164,0,512,0,0,0,0,0,-4056,0,137,163,157,135,1,8,0,1,1,0,0,4.396484336527014,0,0,0,0,0,-4,0,0,0,4,"",""
234,75521947,0,0,0,0,0,0,0,0,0,0,0,-10,1000,164,0,512,0,0,0,0,0,-4056,0,137,163,157,135,1,8,0,1,1,0,0,4.396484336527014,0,0,0,0,0,-4,0,0,0,4,"",""
235,75523258,0,0,0,0,0,0,0,0,0,0,0,-10,1000,164,0,512,0,0,0,0,0,-4056,0,137,163,157,135,1,8,0,1,1,0,0,4.396484336527014,0,0,0,0,0,-4,0,0,0,4,"",""
236,75524576,0,0,0,0,0,0,0,0,0,0,0,-10,1000,164,0,512,0,0,0,0,0,-4056,0,136,163,156,135,1,8,0,1,1,0,0,4.396484336527014,0,0,0,0,0,-4,0,0,0,4,"",""
237,75525908,0,0,0,0,0,0,0,0,0,0,0,-10,1000,164,0,512,0,0,0,0,0,-4056,0,136,163,156,135,1,8,0,1,1,0,0,4.396484336527014,0,0,0,0,0,-4,0,0,0,4,"",""
238,75527251,0,0,0,0,0,0,0,0,0,0,0,-10,1000,164,0,512,0,0,0,0,0,-4056,0,136,163,156,135,1,8,0,1,1,0,0,4.396484336527014,0,0,0,0,0,-4,0,0,0,4,"",""
239,75528570,0,0,0,0,0,0,0,0,0,0,0,-10,1000,164,0,512,0,0,0,0,0,-4056,0,136,163,156,135,1,8,0,1,1,0,0,4.396484336527014,0,0,0,0,0,-4,0,0,0,4,"",""
240,75529888,0,0,0,0,0,0,0,0,0,0,0,-10,1000,164,0,512,0,0,0,0,0,-4056,0,136,163,156,135,1,8,0,1,1,0,0,4.396484336527014,0,0,0,0,0,-4,0,0,0,4,"",""
241,75531199,0,0,0,0,0,0,0,0,0,0,0,-10,1000,164,0,512,0,0,0,0,0,-4056,0,136,163,156,135,1,8,0,1,1,0,0,4.396484336527014,0,0,0,0,0,-4,0,0,0,4,"",""
242,75532516,0,0,0,0,0,0,0,0,0,0,0,-10,1000,164,0,512,0,0,0,0,0,-4056,0,136,163,156,135,1,8,0,1,1,0,0,4.396484336527014,0,0,0,0,0,-4,0,0,0,4,"",""
243,75533847,0,0,0,0,0,0,0,0,0,0,0,-10,1000,164,0,512,0,0,0,0,0,-4056,0,136,163,156,135,1,8,0,1,1,0,0,4.396484336527014,0,0,0,0,0,-4,0,0,0,4,"",""
244,75535179,0,0,0,0,0,0,0,0,0,0,0,-10,1000,164,0,512,0,0,0,0,0,-4056,0,135,163,156,135,1,8,0,1,1,0,0,4.396484336527014,0,0,0,0,0,-4,0,0,0,4,"",""
245,75536505,0,0,0,0,0,0,0,0,0,0,0,-10,1000,164,0,512,0,0,0,0,0,-4056,0,135,164,156,135,1,8,0,1,1,0,0,4.396484336527014,0,0,0,0,0,-4,0,0,0,4,"",""
246,75537822,0,0,0,0,0,0,0,0,0,0,0,-10,1000,164,0,512,0,0,0,0,0,-4056,0,136,164,156,135,1,8,0,1,1,0,0,4.396484336527014,0,0,0,0,0,-4,0,0,0,4,"",""
247,75539137,0,0,0,0,0,0,0,0,0,0,0,-10,1000,164,0,512,0,0,0,0,0,-4056,0,136,164,155,135,1,8,0,1,1,0,0,4.396484336527014,0,0,0,0,0,-4,0,0,0,4,"",""
248,75540460,0,0,0,0,0,0,0,0,0,0,0,-10,1000,164,0,512,0,0,0,0,0,-4056,0,136,164,156,135,1,8,0,1,1,0,0,4.396484336527014,0,0,0,0,0,-4,0,0,0,4,"",""
249,75541784,0,0,0,0,0,0,0,0,0,0,0,-10,1000,164,0,512,0,0,0,0,0,-4056,0,136,164,156,135,1,8,0,1,1,0,0,4.396484336527014,0,0,0,0,0,-4,0,0,0,4,"",""
250,75543255,0,0,0,0,0,0,0,0,0,0,0,-10,1000,164,0,512,0,0,0,0,0,-4056,0,136,163,155,135,1,8,0,1,1,0,0,4.396484336527014,0,0,0,0,0,-4,0,0,0,4,"",""
251,75544728,0,0,0,0,0,0,0,0,0,0,0,-10,1000,164,0,512,0,0,0,0,0,-4056,0,135,163,155,135,1,8,0,1,1,0,0,4.396484336527014,0,0,0,0,0,-4,0,0,0,4,"",""
252,75546051,0,0,0,0,0,0,0,0,0,0,0,-10,1000,164,0,512,0,0,0,0,0,-4056,0,136,163,156,135,1,8,0,1,1,0,0,4.396484336527014,0,0,0,0,0,-4,0,0,0,4,"",""
253,75547366,0,0,0,0,0,0,0,0,0,0,0,-10,1000,164,0,512,0,0,0,0,0,-4056,0,135,163,156,135,1,8,0,1,1,0,0,4.396484336527014,0,0,0,0,0,-4,0,0,0,4,"",""
254,75548682,0,0,0,0,0,0,0,0,0,0,0,-10,1000,164,0,512,0,0,0,0,0,-4056,0,136,163,156,135,1,8,0,1,1,0,0,4.396484336527014,0,0,0,0,0,-4,0,0,0,4,"",""
255,75549995,0,0,0,0,0,0,0,0,0,0,0,-10,1000,164,0,512,0,0,0,0,0,-4056,0,137,163,156,135,1,8,0,1,1,0,0,4.396484336527014,0,0,0,0,0,-4,0,0,0,4,"",""
256,75551311,0,0,0,0,0,0,0,0,0,0,0,-10,1000,164,0,512,0,0,0,0,0,-4056,0,138,164,158,136,1,8,0,1,1,0,0,4.396484336527014,0,0,0,0,0,-4,0,0,0,4,"",""
257,75552644,0,0,0,0,0,0,0,0,0,0,0,-10,1000,164,0,512,0,0,0,0,0,-4056,0,138,164,158,136,1,8,0,1,1,0,0,4.396484336527014,0,0,0,0,0,-4,0,0,0,4,"",""
258,75553971,0,0,0,0,0,0,0,0,0,0,0,-10,1000,164,0,512,0,0,0,0,0,-4056,0,138,164,158,136,1,8,0,1,1,0,0,4.396484336527014,0,0,0,0,0,-4,0,0,0,4,"",""
259,75555289,0,0,0,0,0,0,0,0,0,0,0,-10,1000,164,0,512,0,0,0,0,0,-4056,0,138,163,158,136,1,8,0,1,1,0,0,4.396484336527014,0,0,0,0,0,-4,0,0,0,4,"",""
260,75556606,0,0,0,0,0,0,0,0,0,0,0,-10,1000,164,0,512,0,0,0,0,0,-4056,0,138,164,158,136,1,8,0,1,1,0,0,4.396484336527014,0,0,0,0,0,-4,0,0,0,4,"",""
261,75557921,0,0,0,0,0,0,0,0,0,0,0,-10,1000,164,0,512,0,0,0,0,0,-4056,0,138,164,158,136,1,8,0,1,1,0,0,4.396484336527014,0,0,0,0,0,-4,0,0,0,4,"",""
262,75559232,0,0,0,0,0,0,0,0,0,0,0,-10,1000,164,0,512,0,0,0,0,0,-4056,0,138,164,159,136,1,8,0,1,1,0,0,4.396484336527014,0,0,0,0,0,-4,0,0,0,4,"",""
263,75560553,0,0,0,0,0,0,0,0,0,0,0,-10,1000,164,0,512,0,0,0,0,0,-4056,0,139,164,159,136,1,8,0,1,1,0,0,4.396484336527014,0,0,0,0,0,-4,0,0,0,4,"",""
264,75561886,0,0,0,0,0,0,0,0,0,0,0,-10,1000,164,0,512,0,0,0,0,0,-4056,0,139,165,159,136,1,8,0,1,1,0,0,4.396484336527014,0,0,0,0,0,-4,0,0,0,4,"",""
265,75563220,0,0,0,0,0,0,0,0,0,0,0,-10,1000,164,0,512,0,0,0,0,0,-4056,0,139,164,159,136,1,8,0,1,1,0,0,4.396484336527014,0,0,0,0,0,-4,0,0,0,4,"",""
266,75564545,0,0,0,0,0,0,0,0,0,0,0,-10,1000,164,0,512,0,0,0,0,0,-4056,0,139,164,159,136,1,8,0,1,1,0,0,4.396484336527014,0,0,0,0,0,-4,0,0,0,4,"",""
267,75565861,0,0,0,0,0,0,0,0,0,0,0,-10,1000,164,0,512,0,0,0,0,0,-4056,0,139,164,158,136,1,8,0,1,1,0,0,4.396484336527014,0,0,0,0,0,-4,0,0,0,4,"",""
268,75567180,0,0,0,0,0,0,0,0,0,0,0,-10,1000,164,0,512,0,0,0,0,0,-4056,0,139,164,158,136,1,8,0,1,1,0,0,4.396484336527014,0,0,0,0,0,-4,0,0,0,4,"",""
269,75568492,0,0,0,0,0,0,0,0,0,0,0,-10,1000,164,0,512,0,0,0,0,0,-4056,0,139,165,158,136,1,8,0,1,1,0,0,4.396484336527014,0,0,0,0,0,-4,0,0,0,4,"",""
270,75569821,0,0,0,0,0,0,0,0,0,0,0,-10,1000,164,0,512,0,0,0,0,0,-4056,0,139,165,158,136,1,8,0,1,1,0,0,4.396484336527014,0,0,0,0,0,-4,0,0,0,4,"",""
271,75571149,0,0,0,0,0,0,0,0,0,0,0,-10,1000,164,0,512,0,0,0,0,0,-4056,0,139,165,158,136,1,8,0,1,1,0,0,4.396484336527014,0,0,0,0,0,-4,0,0,0,4,"",""
272,75572488,0,0,0,0,0,0,0,0,0,0,0,-10,1000,164,0,512,0,0,0,0,0,-4056,0,139,165,159,136,1,8,0,1,1,0,0,4.396484336527014,0,0,0,0,0,-4,0,0,0,4,"",""
273,75573946,0,0,0,0,0,0,0,0,0,0,0,-10,1000,164,0,512,0,0,0,0,0,-4056,0,139,165,159,136,1,8,0,1,1,0,0,4.396484336527014,0,0,0,0,0,-4,0,0,0,4,"",""
274,75575400,0,0,0,0,0,0,0,0,0,0,0,-10,1000,164,0,512,0,0,0,0,0,-4056,0,139,165,158,136,1,8,0,1,1,0,0,4.396484336527014,0,0,0,0,0,-4,0,0,0,4,"",""
275,75576722,0,0,0,0,0,0,0,0,0,0,0,-10,1000,164,0,512,0,0,0,0,0,-4056,0,139,165,158,136,1,8,0,1,1,0,0,4.396484336527014,0,0,0,0,0,-4,0,0,0,4,"",""
276,75578036,0,0,0,0,0,0,0,0,0,0,0,-10,1000,164,0,512,0,0,0,0,0,-4056,0,139,166,158,136,1,8,0,1,1,0,0,4.396484336527014,0,0,0,0,0,-4,0,0,0,4,"",""
277,75579361,0,0,0,0,0,0,0,0,0,0,0,-10,1000,165,0,512,0,0,0,0,0,-4056,0,138,165,158,136,1,8,0,1,1,0,0,4.396484336527014,0,0,0,0,0,-4,0,0,0,4,"",""
278,75580724,0,0,0,0,0,0,0,0,0,0,0,-10,1000,165,0,512,0,0,0,0,0,-4056,0,138,165,158,136,1,8,0,1,1,0,0,4.396484336527014,0,0,0,0,0,-4,0,0,0,4,"",""
279,75582044,0,0,0,0,0,0,0,0,0,0,0,-10,1000,165,0,512,0,0,0,0,0,-4056,0,138,166,158,136,1,8,0,1,1,0,0,4.396484336527014,0,0,0,0,0,-4,0,0,0,4,"",""
280,75583359,0,0,0,0,0,0,0,0,0,0,0,-10,1000,165,0,512,0,0,0,0,0,-4056,0,139,166,158,136,1,8,0,1,1,0,0,4.396484336527014,0,0,0,0,0,-4,0,0,0,4,"",""
281,75584678,0,0,0,0,0,0,0,0,0,0,0,-10,1000,165,0,512,0,0,0,0,0,-4056,0,139,166,158,136,1,8,0,1,1,0,0,4.396484336527014,0,0,0,0,0,-4,0,0,0,4,"",""
282,75585999,0,0,0,0,0,0,0,0,0,0,0,-10,1000,165,0,512,0,0,0,0,0,-4056,0,139,165,158,136,1,8,0,1,1,0,0,4.396484336527014,0,0,0,0,0,-4,0,0,0,4,"",""
283,75587316,0,0,0,0,0,0,0,0,0,0,0,-10,1000,165,0,512,0,0,0,0,0,-4056,0,139,166,158,136,1,8,0,1,1,0,0,4.396484336527014,0,0,0,0,0,-4,0,0,0,4,"",""
284,75588641,0,0,0,0,0,0,0,0,0,0,0,-10,1000,165,0,512,0,0,0,0,0,-4056,0,140,165,159,136,1,8,0,1,1,0,0,4.396484336527014,0,0,0,0,0,-4,0,0,0,4,"",""
285,75589972,0,0,0,0,0,0,0,0,0,0,0,-10,1000,165,0,512,0,0,0,0,0,-4056,0,139,165,158,136,1,8,0,1,1,0,0,4.396484336527014,0,0,0,0,0,-4,0,0,0,4,"",""
286,75591293,0,0,0,0,0,0,0,0,0,0,0,-10,1000,165,0,512,0,0,0,0,0,-4056,0,139,165,158,136,1,8,0,1,1,0,0,4.396484336527014,0,0,0,0,0,-4,0,0,0,4,"",""
287,75592617,0,0,0,0,0,0,0,0,0,0,0,-10,1000,165,0,512,0,0,0,0,0,-4056,0,139,165,158,136,1,8,0,1,1,0,0,4.396484336527014,0,0,0,0,0,-4,0,0,0,4,"",""
288,75593936,0,0,0,0,0,0,0,0,0,0,0,-10,1000,165,0,512,0,0,0,0,0,-4056,0,138,164,158,135,1,8,0,1,1,0,0,4.396484336527014,0,0,0,0,0,-4,0,0,0,4,"",""
289,75595252,0,0,0,0,0,0,0,0,0,0,0,-10,1000,165,0,512,0,0,0,0,0,-4056,0,138,163,158,135,1,8,0,1,1,0,0,4.396484336527014,0,0,0,0,0,-4,0,0,0,4,"",""
290,75596568,0,0,0,0,0,0,0,0,0,0,0,-10,1000,165,0,512,0,0,0,0,0,-4056,0,138,163,158,135,1,8,0,1,1,0,0,4.396484336527014,0,0,0,0,0,-4,0,0,0,4,"",""
291,75597904,0,0,0,0,0,0,0,0,0,0,0,-10,1000,165,0,512,0,0,0,0,0,-4056,0,139,164,158,135,1,8,0,1,1,0,0,4.396484336527014,0,0,0,0,0,-4,0,0,0,4,"",""
292,75599232,0,0,0,0,0,0,0,0,0,0,0,-10,1000,165,0,512,0,0,0,0,0,-4056,0,138,163,158,135,1,8,0,1,1,0,0,4.396484336527014,0,0,0,0,0,-4,0,0,0,4,"",""
293,75600554,0,0,0,0,0,0,0,0,0,0,0,-10,1000,165,0,512,0,0,0,0,0,-4056,0,139,163,158,135,1,8,0,1,1,0,0,4.396484336527014,0,0,0,0,0,-4,0,0,0,4,"",""
294,75601878,0,0,0,0,0,0,0,0,0,0,0,-10,1000,165,0,512,0,0,0,0,0,-4056,0,139,163,158,135,1,8,0,1,1,0,0,4.396484336527014,0,0,0,0,0,-4,0,0,0,4,"",""
295,75603330,0,0,0,0,0,0,0,0,0,0,0,-10,1000,165,0,512,0,0,0,0,0,-4056,0,139,164,158,135,1,8,0,1,1,0,0,4.396484336527014,0,0,0,0,0,-4,0,0,0,4,"",""
296,75604784,0,0,0,0,0,0,0,0,0,0,0,-10,1000,165,0,512,0,0,0,0,0,-4056,0,140,164,158,135,1,8,0,1,1,0,0,4.396484336527014,0,0,0,0,0,-4,0,0,0,4,"",""
297,75606122,0,0,0,0,0,0,0,0,0,0,0,-10,1000,165,0,512,0,0,0,0,0,-4056,0,139,164,158,135,1,8,0,1,1,0,0,4.396484336527014,0,0,0,0,0,-4,0,0,0,4,"",""
298,75607442,0,0,0,0,0,0,0,0,0,0,0,-10,1000,165,0,512,0,0,0,0,0,-4056,0,139,163,158,135,1,8,0,1,1,0,0,4.396484336527014,0,0,0,0,0,-4,0,0,0,4,"",""
299,75608766,0,0,0,0,0,0,0,0,0,0,0,-10,1000,165,0,512,0,0,0,0,0,-4056,0,139,163,158,135,1,8,0,1,1,0,0,4.396484336527014,0,0,0,0,0,-4,0,0,0,4,"",""
300,75610086,0,0,0,0,0,0,0,0,0,0,0,-10,1000,165,0,512,0,0,0,0,0,-4056,0,138,163,158,135,1,8,0,1,1,0,0,4.396484336527014,0,0,0,0,0,-4,0,0,0,4,"",""
301,75611405,0,0,0,0,0,0,0,0,0,0,0,-10,1000,165,0,512,0,0,0,0,0,-4056,0,138,163,158,135,1,8,0,1,1,0,0,4.396484336527014,0,0,0,0,0,-4,0,0,0,4,"",""
302,75612722,0,0,0,0,0,0,0,0,0,0,0,-10,1000,165,0,512,0,0,0,0,0,-4056,0,138,163,158,135,1,8,0,1,1,0,0,4.396484336527014,0,0,0,0,0,-4,0,0,0,4,"",""
303,75614030,0,0,0,0,0,0,0,0,0,0,0,-10,1000,165,0,512,0,0,0,0,0,-4056,0,138,164,158,135,1,8,0,1,1,0,0,4.396484336527014,0,0,0,0,0,-4,0,0,0,4,"",""
304,75615360,0,0,0,0,0,0,0,0,0,0,0,-10,1000,165,0,512,0,0,0,0,0,-4056,0,138,164,158,135,1,8,0,1,1,0,0,4.396484336527014,0,0,0,0,0,-4,0,0,0,4,"",""
305,75616732,0,0,0,0,0,0,0,0,0,0,0,-10,1000,165,0,512,0,0,0,0,0,-4056,0,138,164,157,135,1,8,0,1,1,0,0,4.396484336527014,0,0,0,0,0,-4,0,0,0,4,"",""
306,75618052,0,0,0,0,0,0,0,0,0,0,0,-10,1000,165,0,512,0,0,0,0,0,-4056,0,138,164,157,135,1,8,0,1,1,0,0,4.396484336527014,0,0,0,0,0,-4,0,0,0,4,"",""
307,75619367,0,0,0,0,0,0,0,0,0,0,0,-10,1000,165,0,512,0,0,0,0,0,-4056,0,137,164,157,135,1,8,0,1,1,0,0,4.396484336527014,0,0,0,0,0,-4,0,0,0,4,"",""
308,75620685,0,0,0,0,0,0,0,0,0,0,0,-10,1000,165,0,512,0,0,0,0,0,-4056,0,137,164,157,135,1,8,0,1,1,0,0,4.396484336527014,0,0,0,0,0,-4,0,0,0,4,"",""
309,75622004,0,0,0,0,0,0,0,0,0,0,0,-10,1000,165,0,512,0,0,0,0,0,-4056,0,137,164,157,135,1,8,0,1,1,0,0,4.396484336527014,0,0,0,0,0,-4,0,0,0,4,"",""
310,75623316,0,0,0,0,0,0,0,0,0,0,0,-10,1000,165,0,512,0,0,0,0,0,-4056,0,137,164,157,135,1,8,0,1,1,0,0,4.396484336527014,0,0,0,0,0,-4,0,0,0,4,"",""
311,75624647,0,0,0,0,0,0,0,0,0,0,0,-10,1000,165,0,512,0,0,0,0,0,-4056,0,137,164,156,135,1,8,0,1,1,0,0,4.396484336527014,0,0,0,0,0,-4,0,0,0,4,"",""
312,75625987,0,0,0,0,0,0,0,0,0,0,0,-10,1000,165,0,512,0,0,0,0,0,-4056,0,136,163,156,135,1,8,0,1,1,0,0,4.396484336527014,0,0,0,0,0,-4,0,0,0,4,"",""
313,75627311,0,0,0,0,0,0,0,0,0,0,0,-10,1000,165,0,512,0,0,0,0,0,-4056,0,137,163,156,135,1,8,0,1,1,0,0,4.396484336527014,0,0,0,0,0,-4,0,0,0,4,"",""
314,75628628,0,0,0,0,0,0,0,0,0,0,0,-10,1000,165,0,512,0,0,0,0,0,-4056,0,137,163,156,135,1,8,0,1,1,0,0,4.396484336527014,0,0,0,0,0,-4,0,0,0,4,"",""
315,75629948,0,0,0,0,0,0,0,0,0,0,0,-10,1000,165,0,512,0,0,0,0,0,-4056,0,137,164,157,135,1,8,0,1,1,0,0,4.396484336527014,0,0,0,0,0,-4,0,0,0,4,"",""
316,75631266,0,0,0,0,0,0,0,0,0,0,0,-10,1000,165,0,512,0,0,0,0,0,-4056,0,138,164,157,135,1,8,0,1,1,0,0,4.396484336527014,0,0,0,0,0,-4,0,0,0,4,"",""
317,75632598,0,0,0,0,0,0,0,0,0,0,0,-10,1000,165,0,512,0,0,0,0,0,-4056,0,138,164,157,135,1,8,0,1,1,0,0,4.396484336527014,0,0,0,0,0,-4,0,0,0,4,"",""
318,75634070,0,0,0,0,0,0,0,0,0,0,0,-10,1000,165,0,512,0,0,0,0,0,-4056,0,137,164,156,135,1,8,0,1,1,0,0,4.396484336527014,0,0,0,0,0,-4,0,0,0,4,"",""
319,75635533,0,0,0,0,0,0,0,0,0,0,0,-10,1000,165,0,512,0,0,0,0,0,-4056,0,137,163,157,135,1,8,0,1,1,0,0,4.396484336527014,0,0,0,0,0,-4,0,0,0,4,"",""
320,75636853,0,0,0,0,0,0,0,0,0,0,0,-10,1000,165,0,512,0,0,0,0,0,-4056,0,138,164,157,136,1,8,0,1,1,0,0,4.396484336527014,0,0,0,0,0,-4,0,0,0,4,"",""
321,75638174,0,0,0,0,0,0,0,0,0,0,0,-10,1000,165,0,512,0,0,0,0,0,-4056,0,137,164,157,136,1,8,0,1,1,0,0,4.396484336527014,0,0,0,0,0,-4,0,0,0,4,"",""
322,75639492,0,0,0,0,0,0,0,0,0,0,0,-10,1000,164,0,512,0,0,0,0,0,-4056,0,137,164,158,136,1,8,0,1,1,0,0,4.396484336527014,0,0,0,0,0,-4,0,0,0,4,"",""
323,75640820,0,0,0,0,0,0,0,0,0,0,0,-10,1000,164,0,512,0,0,0,0,0,-4056,0,137,164,157,136,1,8,0,1,1,0,0,4.396484336527014,0,0,0,0,0,-4,0,0,0,4,"",""
324,75642145,0,0,0,0,0,0,0,0,0,0,0,-10,1000,164,0,512,0,0,0,0,0,-4056,0,136,164,157,136,1,8,0,1,1,0,0,4.396484336527014,0,0,0,0,0,-4,0,0,0,4,"",""
325,75643469,0,0,0,0,0,0,0,0,0,0,0,-10,1000,164,0,512,0,0,0,0,0,-4056,0,136,164,157,136,1,8,0,1,1,0,0,4.396484336527014,0,0,0,0,0,-4,0,0,0,4,"",""
326,75644795,0,0,0,0,0,0,0,0,0,0,0,-10,1000,164,0,512,0,0,0,0,0,-4056,0,136,164,157,136,1,8,0,1,1,0,0,4.396484336527014,0,0,0,0,0,-4,0,0,0,4,"",""
327,75646118,0,0,0,0,0,0,0,0,0,0,0,-10,1000,164,0,512,0,0,0,0,0,-4056,0,136,164,157,136,1,8,0,1,1,0,0,4.396484336527014,0,0,0,0,0,-4,0,0,0,4,"",""
328,75647431,0,0,0,0,0,0,0,0,0,0,0,-10,1000,164,0,512,0,0,0,0,0,-4056,0,136,164,157,136,1,8,0,1,1,0,0,4.396484336527014,0,0,0,0,0,-4,0,0,0,4,"",""
329,75648746,0,0,0,0,0,0,0,0,0,0,0,-10,1000,164,0,512,0,0,0,0,0,-4056,0,136,164,157,136,1,8,0,1,1,0,0,4.396484336527014,0,0,0,0,0,-4,0,0,0,4,"",""
330,75650065,0,0,0,0,0,0,0,0,0,0,0,-10,1000,164,0,512,0,0,0,0,0,-4056,0,136,164,157,136,1,8,0,1,1,0,0,4.396484336527014,0,0,0,0,0,-4,0,0,0,4,"",""
331,75651395,0,0,0,0,0,0,0,0,0,0,0,-10,1000,164,0,512,0,0,0,0,0,-4056,0,137,164,157,136,1,8,0,1,1,0,0,4.396484336527014,0,0,0,0,0,-4,0,0,0,4,"",""
332,75652747,0,0,0,0,0,0,0,0,0,0,0,-10,1000,164,0,512,0,0,0,0,0,-4056,0,137,164,157,136,1,8,0,1,1,0,0,4.396484336527014,0,0,0,0,0,-4,0,0,0,4,"",""
333,75654065,0,0,0,0,0,0,0,0,0,0,0,-10,1000,164,0,512,0,0,0,0,0,-4056,0,136,164,157,136,1,8,0,1,1,0,0,4.396484336527014,0,0,0,0,0,-4,0,0,0,4,"",""
334,75655378,0,0,0,0,0,0,0,0,0,0,0,-10,1000,164,0,512,0,0,0,0,0,-4056,0,137,165,157,136,1,8,0,1,1,0,0,4.396484336527014,0,0,0,0,0,-4,0,0,0,4,"",""
335,75656693,0,0,0,0,0,0,0,0,0,0,0,-10,1000,164,0,512,0,0,0,0,0,-4056,0,138,165,157,136,1,8,0,1,1,0,0,4.396484336527014,0,0,0,0,0,-4,0,0,0,4,"",""
336,75658005,0,0,0,0,0,0,0,0,0,0,0,-10,1000,164,0,512,0,0,0,0,0,-4056,0,137,165,157,136,1,8,0,1,1,0,0,4.396484336527014,0,0,0,0,0,-4,0,0,0,4,"",""
337,75659322,0,0,0,0,0,0,0,0,0,0,0,-10,1000,164,0,512,0,0,0,0,0,-4056,0,138,165,157,136,1,8,0,1,1,0,0,4.396484336527014,0,0,0,0,0,-4,0,0,0,4,"",""
338,75660653,0,0,0,0,0,0,0,0,0,0,0,-10,1000,164,0,512,0,0,0,0,0,-4056,0,138,165,157,136,1,8,0,1,1,0,0,4.396484336527014,0,0,0,0,0,-4,0,0,0,4,"",""
339,75662001,0,0,0,0,0,0,0,0,0,0,0,-10,1000,164,0,512,0,0,0,0,0,-4056,0,137,165,157,136,1,8,0,1,1,0,0,4.396484336527014,0,0,0,0,0,-4,0,0,0,4,"",""
340,75663457,0,0,0,0,0,0,0,0,0,0,0,-10,1000,164,0,512,0,0,0,0,0,-4056,0,137,165,157,136,1,8,0,1,1,0,0,4.396484336527014,0,0,0,0,0,-4,0,0,0,4,"",""
341,75664923,0,0,0,0,0,0,0,0,0,0,0,-10,1000,164,0,512,0,0,0,0,0,-4056,0,137,165,157,136,1,8,0,1,1,0,0,4.396484336527014,0,0,0,0,0,-4,0,0,0,4,"",""
342,75666244,0,0,0,0,0,0,0,0,0,0,0,-10,1000,164,0,512,0,0,0,0,0,-4056,0,137,165,157,136,1,8,0,1,1,0,0,4.396484336527014,0,0,0,0,0,-4,0,0,0,4,"",""
343,75667559,0,0,0,0,0,0,0,0,0,0,0,-10,1000,164,0,512,0,0,0,0,0,-4056,0,137,165,157,136,1,8,0,1,1,0,0,4.396484336527014,0,0,0,0,0,-4,0,0,0,4,"",""
344,75668885,0,0,0,0,0,0,0,0,0,0,0,-10,1000,164,0,512,0,0,0,0,0,-4056,0,137,165,157,136,1,8,0,1,1,0,0,4.396484336527014,0,0,0,0,0,-4,0,0,0,4,"",""
345,75670216,0,0,0,0,0,0,0,0,0,0,0,-10,1000,164,0,512,0,0,0,0,0,-4056,0,137,165,157,136,1,8,0,1,1,0,0,4.396484336527014,0,0,0,0,0,-4,0,0,0,4,"",""
346,75671547,0,0,0,0,0,0,0,0,0,0,0,-10,1000,164,0,512,0,0,0,0,0,-4056,0,137,165,157,136,1,8,0,1,1,0,0,4.396484336527014,0,0,0,0,0,-4,0,0,0,4,"",""
347,75672867,0,0,0,0,0,0,0,0,0,0,0,-10,1000,164,0,512,0,0,0,0,0,-4056,0,137,165,157,136,1,8,0,1,1,0,0,4.396484336527014,0,0,0,0,0,-4,0,0,0,4,"",""
348,75674183,0,0,0,0,0,0,0,0,0,0,0,-10,1000,164,0,512,0,0,0,0,0,-4056,0,137,165,157,136,1,8,0,1,1,0,0,4.396484336527014,0,0,0,0,0,-4,0,0,0,4,"",""
349,75675498,0,0,0,0,0,0,0,0,0,0,0,-10,1000,164,0,512,0,0,0,0,0,-4056,0,137,165,157,136,1,8,0,1,1,0,0,4.396484336527014,0,0,0,0,0,-4,0,0,0,4,"",""
350,75676811,0,0,0,0,0,0,0,0,0,0,0,-10,1000,164,0,512,0,0,0,0,0,-4056,0,137,165,157,136,1,8,0,1,1,0,0,4.396484336527014,0,0,0,0,0,-4,0,0,0,4,"",""
351,75678148,0,0,0,0,0,0,0,0,0,0,0,-10,1000,164,0,512,0,0,0,0,0,-4056,0,137,164,157,136,1,8,0,1,1,0,0,4.396484336527014,0,0,0,0,0,-4,0,0,0,4,"",""
352,75679480,0,0,0,0,0,0,0,0,0,0,0,-10,1000,164,0,512,0,0,0,0,0,-4056,0,138,164,157,136,1,8,0,1,1,0,0,4.396484336527014,0,0,0,0,0,-4,0,0,0,4,"",""
353,75680801,0,0,0,0,0,0,0,0,0,0,0,-10,1000,164,0,512,0,0,0,0,0,-4056,0,138,164,158,136,1,8,0,1,1,0,0,4.396484336527014,0,0,0,0,0,-4,0,0,0,4,"",""
354,75682124,0,0,0,0,0,0,0,0,0,0,0,-10,1000,164,0,512,0,0,0,0,0,-4056,0,138,164,158,136,1,8,0,1,1,0,0,4.396484336527014,0,0,0,0,0,-4,0,0,0,4,"",""
355,75683437,0,0,0,0,0,0,0,0,0,0,0,-10,1000,164,0,512,0,0,0,0,0,-4056,0,138,164,158,136,1,8,0,1,1,0,0,4.396484336527014,0,0,0,0,0,-4,0,0,0,4,"",""
356,75684757,0,0,0,0,0,0,0,0,0,0,0,-10,1000,164,0,512,0,0,0,0,0,-4056,0,138,164,158,136,1,8,0,1,1,0,0,4.396484336527014,0,0,0,0,0,-4,0,0,0,4,"",""
357,75686068,0,0,0,0,0,0,0,0,0,0,0,-10,1000,164,0,512,0,0,0,0,0,-4056,0,139,165,158,136,1,8,0,1,1,0,0,4.396484336527014,0,0,0,0,0,-4,0,0,0,4,"",""
358,75687390,0,0,0,0,0,0,0,0,0,0,0,-10,1000,164,0,512,0,0,0,0,0,-4056,0,139,165,158,136,1,8,0,1,1,0,0,4.396484336527014,0,0,0,0,0,-4,0,0,0,4,"",""
359,75688757,0,0,0,0,0,0,0,0,0,0,0,-10,1000,164,0,512,0,0,0,0,0,-4056,0,138,165,158,136,1,8,0,1,1,0,0,4.396484336527014,0,0,0,0,0,-4,0,0,0,4,"",""
360,75690073,0,0,0,0,0,0,0,0,0,0,0,-10,1000,164,0,512,0,0,0,0,0,-4056,0,139,165,158,136,1,8,0,1,1,0,0,4.396484336527014,0,0,0,0,0,-4,0,0,0,4,"",""
361,75691396,0,0,0,0,0,0,0,0,0,0,0,-10,1000,164,0,512,0,0,0,0,0,-4056,0,139,165,159,136,1,8,0,1,1,0,0,4.396484336527014,0,0,0,0,0,-4,0,0,0,4,"",""
362,75692726,0,0,0,0,0,0,0,0,0,0,0,-10,1000,164,0,512,0,0,0,0,0,-4056,0,138,165,158,136,1,8,0,1,1,0,0,4.396484336527014,0,0,0,0,0,-4,0,0,0,4,"",""
363,75694186,0,0,0,0,0,0,0,0,0,0,0,-10,1000,164,0,512,0,0,0,0,0,-4056,0,138,165,158,136,1,8,0,1,1,0,0,4.396484336527014,0,0,0,0,0,-4,0,0,0,4,"",""
364,75695642,0,0,0,0,0,0,0,0,0,0,0,-10,1000,164,0,512,0,0,0,0,0,-4056,0,138,165,158,136,1,8,0,1,1,0,0,4.396484336527014,0,0,0,0,0,-4,0,0,0,4,"",""
365,75696981,0,0,0,0,0,0,0,0,0,0,0,-10,1000,164,0,512,0,0,0,0,0,-4056,0,138,164,158,136,1,8,0,1,1,0,0,4.396484336527014,0,0,0,0,0,-4,0,0,0,4,"",""
366,75698311,0,0,0,0,0,0,0,0,0,0,0,-10,1000,164,0,512,0,0,0,0,0,-4056,0,138,164,158,136,1,8,0,1,1,0,0,4.396484336527014,0,0,0,0,0,-4,0,0,0,4,"",""
367,75699628,0,0,0,0,0,0,0,0,0,0,0,-10,1000,165,0,512,0,0,0,0,0,-4056,0,138,164,158,136,1,8,0,1,1,0,0,4.396484336527014,0,0,0,0,0,-4,0,0,0,4,"",""
368,75700945,0,0,0,0,0,0,0,0,0,0,0,-10,1000,165,0,512,0,0,0,0,0,-4056,0,138,164,158,136,1,8,0,1,1,0,0,4.396484336527014,0,0,0,0,0,-4,0,0,0,4,"",""
369,75702266,0,0,0,0,0,0,0,0,0,0,0,-10,1000,165,0,512,0,0,0,0,0,-4056,0,138,165,158,136,1,8,0,1,1,0,0,4.396484336527014,0,0,0,0,0,-4,0,0,0,4,"",""
370,75703586,0,0,0,0,0,0,0,0,0,0,0,-10,1000,165,0,512,0,0,0,0,0,-4056,0,138,165,158,136,1,8,0,1,1,0,0,4.396484336527014,0,0,0,0,0,-4,0,0,0,4,"",""
371,75704911,0,0,0,0,0,0,0,0,0,0,0,-10,1000,165,0,512,0,0,0,0,0,-4056,0,139,165,158,136,1,8,0,1,1,0,0,4.396484336527014,0,0,0,0,0,-4,0,0,0,4,"",""
372,75706240,0,0,0,0,0,0,0,0,0,0,0,-10,1000,165,0,512,0,0,0,0,0,-4056,0,138,165,158,136,1,8,0,1,1,0,0,4.396484336527014,0,0,0,0,0,-4,0,0,0,4,"",""
373,75707571,0,0,0,0,0,0,0,0,0,0,0,-10,1000,165,0,512,0,0,0,0,0,-4056,0,138,164,158,136,1,8,0,1,1,0,0,4.396484336527014,0,0,0,0,0,-4,0,0,0,4,"",""
374,75708893,0,0,0,0,0,0,0,0,0,0,0,-10,1000,165,0,512,0,0,0,0,0,-4056,0,139,165,158,136,1,8,0,1,1,0,0,4.396484336527014,0,0,0,0,0,-4,0,0,0,4,"",""
375,75710203,0,0,0,0,0,0,0,0,0,0,0,-10,1000,165,0,512,0,0,0,0,0,-4056,0,139,164,158,136,1,8,0,1,1,0,0,4.396484336527014,0,0,0,0,0,-4,0,0,0,4,"",""
376,75711517,0,0,0,0,0,0,0,0,0,0,0,-10,1000,165,0,512,0,0,0,0,0,-4056,0,138,165,158,136,1,8,0,1,1,0,0,4.396484336527014,0,0,0,0,0,-4,0,0,0,4,"",""
377,75712838,0,0,0,0,0,0,0,0,0,0,0,-10,1000,165,0,512,0,0,0,0,0,-4056,0,139,165,158,136,1,8,0,1,1,0,0,4.396484336527014,0,0,0,0,0,-4,0,0,0,4,"",""
378,75714165,0,0,0,0,0,0,0,0,0,0,0,-10,1000,165,0,512,0,0,0,0,0,-4056,0,139,165,158,136,1,8,0,1,1,0,0,4.396484336527014,0,0,0,0,0,-4,0,0,0,4,"",""
379,75715499,0,0,0,0,0,0,0,0,0,0,0,-10,1000,165,0,512,0,0,0,0,0,-4056,0,139,165,158,136,1,8,0,1,1,0,0,4.396484336527014,0,0,0,0,0,-4,0,0,0,4,"",""
380,75716821,0,0,0,0,0,0,0,0,0,0,0,-10,1000,165,0,512,0,0,0,0,0,-4056,0,139,165,158,136,1,8,0,1,1,0,0,4.396484336527014,0,0,0,0,0,-4,0,0,0,4,"",""
381,75718136,0,0,0,0,0,0,0,0,0,0,0,-10,1000,165,0,512,0,0,0,0,0,-4056,0,139,165,158,136,1,8,0,1,1,0,0,4.396484336527014,0,0,0,0,0,-4,0,0,0,4,"",""
382,75719455,0,0,0,0,0,0,0,0,0,0,0,-10,1000,165,0,512,0,0,0,0,0,-4056,0,139,165,158,136,1,8,0,1,1,0,0,4.396484336527014,0,0,0,0,0,-4,0,0,0,4,"",""
383,75720777,0,0,0,0,0,0,0,0,0,0,0,-10,1000,165,0,512,0,0,0,0,0,-4056,0,139,165,158,136,1,8,0,1,1,0,0,4.396484336527014,0,0,0,0,0,-4,0,0,0,4,"",""
384,75722091,0,0,0,0,0,0,0,0,0,0,0,-10,1000,165,0,512,0,0,0,0,0,-4056,0,138,164,158,135,1,8,0,1,1,0,0,4.396484336527014,0,0,0,0,0,-4,0,0,0,4,"",""
385,75723423,0,0,0,0,0,0,0,0,0,0,0,-10,1000,165,0,512,0,0,0,0,0,-4056,0,138,164,158,135,1,8,0,1,1,0,0,4.396484336527014,0,0,0,0,0,-4,0,0,0,4,"",""
386,75724898,0,0,0,0,0,0,0,0,0,0,0,-10,1000,165,0,512,0,0,0,0,0,-4056,0,138,164,158,135,1,8,0,1,1,0,0,4.396484336527014,0,0,0,0,0,-4,0,0,0,4,"",""
387,75726355,0,0,0,0,0,0,0,0,0,0,0,-10,1000,165,0,512,0,0,0,0,0,-4056,0,138,164,158,135,1,8,0,1,1,0,0,4.396484336527014,0,0,0,0,0,-4,0,0,0,4,"",""
388,75727673,0,0,0,0,0,0,0,0,0,0,0,-10,1000,165,0,512,0,0,0,0,0,-4056,0,138,164,158,135,1,8,0,1,1,0,0,4.396484336527014,0,0,0,0,0,-4,0,0,0,4,"",""
389,75728991,0,0,0,0,0,0,0,0,0,0,0,-10,1000,165,0,512,0,0,0,0,0,-4056,0,138,164,158,135,1,8,0,1,1,0,0,4.396484336527014,0,0,0,0,0,-4,0,0,0,4,"",""
390,75730307,0,0,0,0,0,0,0,0,0,0,0,-10,1000,165,0,512,0,0,0,0,0,-4056,0,138,164,158,135,1,8,0,1,1,0,0,4.396484336527014,0,0,0,0,0,-4,0,0,0,4,"",""
