"Product","Blackbox flight data recorder by Nicholas Sherlock"
"firmwareType",3
"firmware","3.3"
"firmwarePatch",3
"firmwareVersion","3.3.3"
"Firmware revision","Betaflight 3.3.3 (4dd6907a9) MATEKF722"
"Firmware date","Jun 11 2022 14:50:31"
"Log start datetime","0000-01-01T00:00:00.000+00:00"
"Craft name","NEUROFLIGHT"
"frameIntervalI",32
"frameIntervalPNum",1
"frameIntervalPDenom",1
"minthrottle",1070
"maxthrottle",2000
"gyroScale",1.7453292519943295e-8
"motorOutput","128,2047"
"acc_1G",2048
"vbatscale",110
"vbatmincellvoltage",33
"vbatwarningcellvoltage",35
"vbatmaxcellvoltage",43
"vbatref",150
"currentMeterOffset",0
"currentMeterScale",179
"looptime",125
"gyro_sync_denom",1
"pid_process_denom",8
"thrMid",50
"thrExpo",0
"dynThrPID",10
"tpa_breakpoint",1650
"rc_rates","100,100,100"
"rc_expo","0,0,0"
"rates","70,70,70"
"rollPID","40,40,30"
"pitchPID","58,50,35"
"yawPID","70,45,20"
"altPID","50,0,0"
"posPID","15,0,0"
"posrPID","34,14,53"
"navrPID","25,33,83"
"levelPID","50,50,75"
"magPID","40,,"
"velPID","55,55,75"
"dterm_filter_type",1
"dterm_lpf_hz",100
"yaw_lpf_hz",0
"dterm_notch_hz",260
"dterm_notch_cutoff",160
"itermWindupPointPercent",50
"vbat_pid_compensation",0
"pidAtMinThrottle",1
"anti_gravity_threshold",350
"anti_gravity_gain",1000
"setpointRelaxRatio",100
"dtermSetpointWeight",0
"yawRateAccelLimit",0.1
"rateAccelLimit",0
"pidSumLimit",500
"pidSumLimitYaw",400
"deadband",0
"yaw_deadband",0
"gyro_lpf",0
"gyro_soft_type",0
"gyro_lowpass_hz",90
"gyro_notch_hz","400,200"
"gyro_notch_cutoff","300,100"
"acc_lpf_hz",1000
"acc_hardware",0
"baro_hardware",0
"mag_hardware",0
"gyro_cal_on_first_arm",0
"rc_interpolation",2
"rc_interpolation_interval",19
"airmode_activate_throttle",32
"serialrx_provider",2
"unsynced_fast_pwm",0
"fast_pwm_protocol",7
"motor_pwm_rate",480
"digitalIdleOffset",400
"debug_mode",0
"features",263176
"loopIteration","time","axisP[0]","axisP[1]","axisP[2]","axisI[0]","axisI[1]","axisI[2]","axisD[0]","axisD[1]","axisD[2]","rcCommand[0]","rcCommand[1]","rcCommand[2]","rcCommand[3]","vbatLatest","amperageLatest","BaroAlt","gyroADC[0]","gyroADC[1]","gyroADC[2]","accSmooth[0]","accSmooth[1]","accSmooth[2]","motor[0]","motor[1]","motor[2]","motor[3]","flightModeFlags","stateFlags","failsafePhase","rxSignalReceived","rxFlightChannelsValid","heading[0]","heading[1]","heading[2]","axisSum[0]","axisSum[1]","axisSum[2]","rcCommands[0]","rcCommands[1]","rcCommands[2]","rcCommands[3]","axisError[0]","axisError[1]","axisError[2]"
0,354323978,0,0,0,0,0,0,0,0,0,-26,-2,0,1000,151,0,-82,0,0,-1,85,-26,2132,128,50,212,170,"","","","","",-0.012194517448251816,-0.03984460452999006,4.396484403239573,0,0,0,-11,-1,0,0,11,1,-1,"",""
1,354325461,0,0,0,0,0,0,0,0,0,-27,-2,0,1000,151,0,-82,0,0,0,85,-22,2130,127,50,213,187,1,8,0,1,1,-0.011261065071138806,-0.03986373385805841,4.396484403239778,0,0,0,-12,-1,0,0,12,1,0,"",""
2,354326950,0,0,0,0,0,0,0,0,0,-27,-2,0,1000,151,0,-82,0,-1,1,84,-18,2129,126,50,225,191,1,8,0,1,1,-0.010325277253315977,-0.039737259953124236,4.396458127628859,0,0,0,-12,-1,0,0,12,0,1,"",""
3,354328428,0,0,0,0,0,0,0,0,0,-27,-2,0,1000,151,0,-82,-1,-1,2,83,-13,2127,123,50,237,181,1,8,0,1,1,-0.009291430414284547,-0.03957210934670553,4.396406285229005,0,0,0,-12,-1,0,0,11,0,2,"",""
4,354329791,0,0,0,0,0,0,0,0,0,-27,-2,0,1000,151,0,-82,0,-1,3,83,-9,2126,118,50,238,182,1,8,0,1,1,-0.00828005566826643,-0.03948009846628384,4.396334720673473,0,0,0,-12,-1,0,0,12,0,3,"",""
5,354331155,0,0,0,0,0,0,0,0,0,-28,-2,0,1000,151,0,-82,0,-1,3,84,-5,2125,117,50,216,172,1,8,0,1,1,-0.0072919425315899344,-0.039504314810383835,4.396263148064966,0,0,0,-12,-1,0,0,12,0,3,"",""
6,354332489,0,0,0,0,0,0,0,0,0,-28,-2,0,1000,151,0,-82,-1,-1,4,84,0,2123,109,50,200,157,1,8,0,1,1,-0.006270334349882925,-0.03952978279764585,4.396169902997174,0,0,0,-12,-1,0,0,11,0,4,"",""
7,354333819,0,0,0,0,0,0,0,0,0,-28,-2,0,1000,151,0,-82,0,-1,4,86,5,2122,112,50,202,157,1,8,0,1,1,-0.005191369965093202,-0.039672144935436325,4.396076988580546,0,0,0,-12,-1,0,0,12,0,4,"",""
8,354335152,0,0,0,0,0,0,0,0,0,-28,-2,0,1000,151,0,-82,0,-1,4,87,10,2121,101,50,179,140,1,8,0,1,1,-0.0040893012234757735,-0.03984018996667222,4.395983916386417,0,0,0,-12,-1,0,0,12,0,4,"",""
9,354336483,0,0,0,0,0,0,0,0,0,-28,-2,0,1000,151,0,-82,0,0,3,89,15,2120,99,50,175,134,1,8,0,1,1,-0.0029698465622185043,-0.04005274406341468,4.3959143535266065,0,0,0,-12,-1,0,0,12,1,3,"",""
10,354337831,0,0,0,0,0,0,0,0,0,-28,-2,0,1000,151,0,-82,0,0,3,91,20,2120,102,50,174,141,1,8,0,1,1,-0.0018380515398540831,-0.04031289992930953,4.395843899735871,0,0,0,-12,-1,0,0,12,1,3,"",""
11,354339197,0,0,0,0,0,0,0,0,0,-28,-2,0,1000,151,0,-82,-1,1,2,94,24,2120,102,50,171,139,1,8,0,1,1,-0.0007573877064204207,-0.040626562807210755,4.395796373694006,0,0,0,-12,-1,0,0,11,2,2,"",""
12,354340592,0,0,0,0,0,0,0,0,0,-28,-2,0,1000,151,0,-82,-1,1,1,98,29,2121,110,50,173,154,1,8,0,1,1,0.0003386486723209633,-0.041034355131211356,4.39577214842211,0,0,0,-12,-1,0,0,11,2,1,"",""
13,354341949,0,0,0,0,0,0,0,0,0,-28,-2,0,1000,151,0,-82,-1,2,0,101,34,2121,112,50,178,159,1,8,0,1,1,0.0014480402127812495,-0.04146265606808122,4.395772203784347,0,0,0,-12,-1,0,0,11,3,0,"",""
14,354343300,0,0,0,0,0,0,0,0,0,-28,-2,0,1000,150,0,-82,-1,2,0,104,38,2122,119,50,176,171,1,8,0,1,1,0.002535185587563856,-0.04192470619803031,4.3957721524842075,0,0,0,-12,-1,0,0,11,3,0,"",""
15,354344640,0,0,0,0,0,0,0,0,0,-28,-2,0,1000,150,0,-82,-1,2,-1,107,42,2123,122,50,184,184,1,8,0,1,1,0.0036052629539691707,-0.042414333554252205,4.395795407328229,0,0,0,-12,-1,0,0,11,3,-1,"",""
16,354345978,0,0,0,0,0,0,0,0,0,-28,-2,0,1000,150,0,-82,-2,2,-2,110,46,2124,125,50,187,194,1,8,0,1,1,0.00463932971948961,-0.04292638317632601,4.395841902879288,0,0,0,-12,-1,0,0,10,3,-2,"",""
17,354347339,0,0,0,0,0,0,0,0,0,-28,-2,0,1000,150,0,-82,-2,1,-2,112,50,2125,122,50,206,190,1,8,0,1,1,0.00566129145341409,-0.0434522872326057,4.395889237064733,0,0,0,-12,-1,0,0,10,2,-2,"",""
18,354348700,0,0,0,0,0,0,0,0,0,-28,-2,0,1000,150,0,-82,-2,1,-2,114,53,2125,123,50,208,189,1,8,0,1,1,0.006648725858629522,-0.04397163097799227,4.395936527711617,0,0,0,-12,-1,0,0,10,2,-2,"",""
19,354350054,0,0,0,0,0,0,0,0,0,-28,-2,0,1000,150,0,-82,-2,0,-2,114,56,2125,123,50,211,183,1,8,0,1,1,0.007607104821253392,-0.044460242482592054,4.395983713767779,0,0,0,-12,-1,0,0,10,1,-2,"",""
20,354351492,0,0,0,0,0,0,0,0,0,-28,-2,0,1000,150,0,-82,-2,0,-2,114,59,2125,124,50,216,183,1,8,0,1,1,0.008537764759898725,-0.04490212919546006,4.396033840275453,0,0,0,-12,-1,0,0,10,1,-2,"",""
21,354352830,0,0,0,0,0,0,0,0,0,-28,-2,0,1000,150,0,-82,-1,-1,-2,114,62,2124,122,50,216,176,1,8,0,1,1,0.009472628494336999,-0.04532695959230091,4.396080698863004,0,0,0,-12,-1,0,0,11,0,-2,"",""
22,354354160,0,0,0,0,0,0,0,0,0,-28,-2,0,1000,150,0,-82,-1,-1,-2,113,64,2123,127,50,220,192,1,8,0,1,1,0.01036731914486383,-0.04569572753372281,4.396127325396985,0,0,0,-12,-1,0,0,11,0,-2,"",""
23,354355504,0,0,0,0,0,0,0,0,0,-28,-2,0,1000,150,0,-82,-1,-2,-1,111,66,2122,127,50,228,190,1,8,0,1,1,0.01122560221689691,-0.04601853398042893,4.3961512722873515,0,0,0,-12,-1,0,0,11,-1,-1,"",""
24,354356869,0,0,0,0,0,0,0,0,0,-28,-2,0,1000,150,0,-82,-1,-2,-1,109,68,2120,129,50,218,202,1,8,0,1,1,0.012052942691793522,-0.04628141527428991,4.396175676943378,0,0,0,-12,-1,0,0,11,-1,-1,"",""
25,354358242,0,0,0,0,0,0,0,0,0,-28,-2,0,1000,150,0,-82,-1,-2,-1,107,71,2118,140,50,199,215,1,8,0,1,1,0.012871696125461986,-0.046490883709919655,4.396200305274725,0,0,0,-12,-1,0,0,11,-1,-1,"",""
26,354359719,0,0,0,0,0,0,0,0,0,-28,-2,0,1000,150,0,-82,-1,-2,0,104,73,2117,138,50,202,214,1,8,0,1,1,0.013662180218967934,-0.04663778999770024,4.396201073318006,0,0,0,-12,-1,0,0,11,-1,0,"",""
27,354361188,0,0,0,0,0,0,0,0,0,-28,-2,0,1000,150,0,-82,-1,-1,0,102,76,2116,132,50,184,188,1,8,0,1,1,0.014447412848338444,-0.04671746474782186,4.396201549201396,0,0,0,-12,-1,0,0,11,0,0,"",""
28,354362533,0,0,0,0,0,0,0,0,0,-28,-2,0,1000,150,0,-82,-1,-1,0,100,79,2115,126,50,181,178,1,8,0,1,1,0.015229989409078047,-0.04675797162122942,4.396202032904224,0,0,0,-12,-1,0,0,11,0,0,"",""
29,354363857,0,0,0,0,0,0,0,0,0,-28,-2,0,1000,150,0,-82,-1,-1,0,99,82,2113,121,50,183,173,1,8,0,1,1,0.01600891424358871,-0.04678158331480279,4.396202547653482,0,0,0,-12,-1,0,0,11,0,0,"",""
30,354365211,0,0,0,0,0,0,0,0,0,-28,-2,0,1000,150,0,-82,-1,0,0,98,86,2113,112,50,179,161,1,8,0,1,1,0.01679885063371354,-0.046766434274066286,4.396202713366587,0,0,0,-12,-1,0,0,11,1,0,"",""
31,354366575,0,0,0,0,0,0,0,0,0,-28,-2,0,1000,150,0,-82,-2,0,0,98,89,2112,108,50,182,160,1,8,0,1,1,0.017561250050731204,-0.04675287027119213,4.396202878520346,0,0,0,-12,-1,0,0,10,1,0,"",""
32,354367923,0,0,0,0,0,0,0,0,0,-28,-2,0,1000,150,0,-82,-2,1,1,98,93,2112,128,75,210,184,1,8,0,1,1,0.01833433374911649,-0.04671765357492545,4.396179065531008,0,0,0,-12,-1,0,0,10,2,1,"",""
33,354369255,0,0,0,0,0,0,0,0,0,-28,-2,0,1000,150,0,-82,-2,1,1,99,96,2111,126,75,213,186,1,8,0,1,1,0.01910430012814817,-0.04669894147643742,4.396155499945959,0,0,0,-12,-1,0,0,10,2,1,"",""
34,354370579,0,0,0,0,0,0,0,0,0,-28,-2,0,1000,150,0,-82,-3,2,1,100,100,2111,124,75,216,188,1,8,0,1,1,0.01986235775273192,-0.04667213195412587,4.396131583197872,0,0,0,-12,-1,0,0,9,3,1,"",""
35,354371908,0,0,0,0,0,0,0,0,0,-28,-2,0,1000,150,0,-82,-3,2,1,101,103,2112,126,75,218,191,1,8,0,1,1,0.020616467615819492,-0.04665818508198154,4.396107502629284,0,0,0,-12,-1,0,0,9,3,1,"",""
36,354373242,0,0,0,0,0,0,0,0,0,-28,-2,0,1000,150,0,-82,-3,2,1,102,105,2112,128,75,220,196,1,8,0,1,1,0.021354088453324958,-0.046656687149586686,4.3960832580941815,0,0,0,-12,-1,0,0,9,3,1,"",""
37,354374604,0,0,0,0,0,0,0,0,0,-28,-2,0,1000,150,0,-82,-3,2,1,103,106,2113,125,75,226,194,1,8,0,1,1,0.022062258639183225,-0.04666530553320699,4.396058432318056,0,0,0,-12,-1,0,0,9,3,1,"",""
38,354375963,0,0,0,0,0,0,0,0,0,-28,-2,0,1000,150,0,-82,-3,2,1,104,107,2113,131,75,222,201,1,8,0,1,1,0.02274503433430287,-0.04668485001462839,4.396033593059293,0,0,0,-12,-1,0,0,9,3,1,"",""
39,354377300,0,0,0,0,0,0,0,0,0,-28,-2,0,1000,150,0,-82,-3,2,1,105,107,2113,138,75,244,208,1,8,0,1,1,0.02339314393367399,-0.04671517167553021,4.396009092707376,0,0,0,-12,-1,0,0,9,3,1,"",""
40,354378629,0,0,0,0,0,0,0,0,0,-28,-2,0,1000,150,0,-82,-3,1,1,105,107,2113,136,75,238,204,1,8,0,1,1,0.02400847263429343,-0.04676580224194396,4.395985238740643,0,0,0,-12,-1,0,0,9,2,1,"",""
41,354379957,0,0,0,0,0,0,0,0,0,-28,-2,0,1000,150,0,-82,-2,1,1,105,106,2113,129,75,236,193,1,8,0,1,1,0.024603984882083794,-0.046813532722084085,4.3959613798204105,0,0,0,-12,-1,0,0,10,2,1,"",""
42,354381284,0,0,0,0,0,0,0,0,0,-28,-2,0,1000,150,0,-82,-1,1,1,106,104,2113,128,75,236,191,1,8,0,1,1,0.025170722445402808,-0.046869913930822474,4.3959375197228665,0,0,0,-12,-1,0,0,11,2,1,"",""
43,354382620,0,0,0,0,0,0,0,0,0,-28,-2,0,1000,150,0,-82,-1,0,1,105,101,2112,129,75,238,187,1,8,0,1,1,0.025678052841861858,-0.046935330602997184,4.395914084263245,0,0,0,-12,-1,0,0,11,1,1,"",""
44,354383981,0,0,0,0,0,0,0,0,0,-28,-2,0,1000,150,0,-82,0,0,1,104,98,2112,126,75,226,188,1,8,0,1,1,0.026152524029932903,-0.04698706175100229,4.395890223451121,0,0,0,-12,-1,0,0,12,1,1,"",""
45,354385361,0,0,0,0,0,0,0,0,0,-28,-2,0,1000,150,0,-82,0,0,0,103,95,2111,128,75,213,187,1,8,0,1,1,0.026575840807906807,-0.04702587344271408,4.39589014494888,0,0,0,-12,-1,0,0,12,1,0,"",""
46,354386691,0,0,0,0,0,0,0,0,0,-28,-2,0,1000,150,0,-82,0,0,0,101,91,2110,132,75,218,190,1,8,0,1,1,0.026939778219746958,-0.04704276268314421,4.395890078005385,0,0,0,-12,-1,0,0,12,1,0,"",""
47,354388024,0,0,0,0,0,0,0,0,0,-28,-2,0,1000,150,0,-82,1,-1,0,99,87,2109,138,75,211,197,1,8,0,1,1,0.027270806103074297,-0.04706183658076109,4.39589065706586,0,0,0,-12,-1,0,0,13,0,0,"",""
48,354389368,0,0,0,0,0,0,0,0,0,-28,-2,0,1000,150,0,-82,1,0,0,97,84,2108,142,75,179,190,1,8,0,1,1,0.02755921068715414,-0.047038331520322926,4.395890615602037,0,0,0,-12,-1,0,0,13,1,0,"",""
49,354390834,0,0,0,0,0,0,0,0,0,-28,-2,0,1000,150,0,-82,1,0,-1,94,80,2107,143,75,186,201,1,8,0,1,1,0.02780080855518606,-0.046986157384277985,4.395916187822809,0,0,0,-12,-1,0,0,13,1,-1,"",""
50,354392346,0,0,0,0,0,0,0,0,0,-28,-2,0,1000,150,0,-82,1,0,-1,91,77,2106,147,75,196,208,1,8,0,1,1,0.02800564174159007,-0.04690759267390146,4.3959425697322985,0,0,0,-12,-1,0,0,13,1,-1,"",""
51,354393705,0,0,0,0,0,0,0,0,0,-28,-2,0,1000,150,0,-82,1,0,-1,89,74,2105,151,75,189,191,1,8,0,1,1,0.028172269907166553,-0.046813670845488216,4.3959662850259695,0,0,0,-12,-1,0,0,13,1,-1,"",""
52,354395041,0,0,0,0,0,0,0,0,0,-28,-2,0,1000,150,0,-82,1,0,-1,87,71,2104,148,75,193,205,1,8,0,1,1,0.028305051492309954,-0.046705180769985845,4.395989603938443,0,0,0,-12,-1,0,0,13,1,-1,"",""
53,354396370,0,0,0,0,0,0,0,0,0,-27,-2,0,1000,150,0,-82,0,0,-1,86,70,2104,159,75,215,228,1,8,0,1,1,0.028401363168241243,-0.04659157035467215,4.39601280245591,0,0,0,-12,-1,0,0,12,1,-1,"",""
54,354397717,0,0,0,0,0,0,0,0,0,-26,-2,0,1000,150,0,-82,0,0,0,85,68,2104,154,75,218,208,1,8,0,1,1,0.028475198765653326,-0.04647376499576008,4.39601279309629,0,0,0,-11,-1,0,0,11,1,0,"",""
55,354399043,0,0,0,0,0,0,0,0,0,-25,-2,0,1000,150,0,-82,-1,0,0,84,66,2104,145,75,223,203,1,8,0,1,1,0.02850605404207029,-0.04635135942489399,4.396012787044909,0,0,0,-11,-1,0,0,10,1,0,"",""
56,354400376,0,0,0,0,0,0,0,0,0,-24,-2,0,1000,150,0,-82,-1,0,0,85,64,2104,140,75,237,216,1,8,0,1,1,0.028517976561629216,-0.04624190807810229,4.396012783748862,0,0,0,-10,-1,0,0,9,1,0,"",""
57,354401734,0,0,0,0,0,0,0,0,0,-23,-2,0,1000,150,0,-82,-2,0,1,85,63,2105,132,75,246,210,1,8,0,1,1,0.02849555228068514,-0.04613649099785589,4.39598906466383,0,0,0,-10,-1,0,0,8,1,1,"",""
58,354403120,0,0,0,0,0,0,0,0,0,-23,-2,0,1000,149,0,-82,-2,0,1,87,61,2105,114,75,249,186,1,8,0,1,1,0.028455332872259622,-0.046051440642141256,4.395964859001979,0,0,0,-10,-1,0,0,8,1,1,"",""
59,354404460,0,0,0,0,0,0,0,0,0,-22,-2,0,1000,149,0,-82,-2,0,1,89,59,2106,122,75,270,204,1,8,0,1,1,0.02840052012116249,-0.045985341871386455,4.3959414590022705,0,0,0,-10,-1,0,0,8,1,1,"",""
60,354405791,0,0,0,0,0,0,0,0,0,-22,-2,0,1000,149,0,-82,-2,0,1,92,57,2106,123,75,279,208,1,8,0,1,1,0.028330800522533308,-0.04594579372691015,4.395918218015382,0,0,0,-10,-1,0,0,8,1,1,"",""
61,354407117,0,0,0,0,0,0,0,0,0,-21,-2,0,1000,149,0,-82,-2,0,1,94,54,2108,114,75,262,201,1,8,0,1,1,0.028238284284136994,-0.04592281524767173,4.395895067568535,0,0,0,-9,-1,0,0,7,1,1,"",""
62,354408447,0,0,0,0,0,0,0,0,0,-21,-2,0,1000,149,0,-82,-2,0,1,97,51,2109,128,75,271,201,1,8,0,1,1,0.028123949103195964,-0.045923876803195374,4.39587184996724,0,0,0,-9,-1,0,0,7,1,1,"",""
63,354409793,0,0,0,0,0,0,0,0,0,-21,-2,0,1000,149,0,-82,-1,0,1,100,47,2110,128,75,267,205,1,8,0,1,1,0.0280037037178865,-0.04594788879666365,4.395848356688452,0,0,0,-9,-1,0,0,8,1,1,"",""
64,354411150,0,0,0,0,0,0,0,0,0,-20,-2,0,1000,149,0,-82,-1,0,1,102,43,2110,128,71,244,198,1,8,0,1,1,0.027855948027861063,-0.045986511734432946,4.395824674942211,0,0,0,-9,-1,0,0,8,1,1,"",""
65,354412506,0,0,0,0,0,0,0,0,0,-20,-2,0,1000,149,0,-82,-1,0,0,105,40,2111,136,71,230,199,1,8,0,1,1,0.02769052922535884,-0.04604562266529415,4.395824695365224,0,0,0,-9,-1,0,0,8,1,0,"",""
66,354413832,0,0,0,0,0,0,0,0,0,-20,-2,0,1000,149,0,-82,0,0,0,107,36,2112,132,71,230,190,1,8,0,1,1,0.027523013837433094,-0.04611753115526598,4.395824719451593,0,0,0,-9,-1,0,0,9,1,0,"",""
67,354415158,0,0,0,0,0,0,0,0,0,-20,-2,0,1000,149,0,-82,1,0,-1,109,33,2112,142,71,217,204,1,8,0,1,1,0.02736222842714826,-0.046201384764176484,4.395847905030744,0,0,0,-9,-1,0,0,10,1,-1,"",""
68,354416485,0,0,0,0,0,0,0,0,0,-20,-2,0,1000,149,0,-82,1,1,-2,111,29,2113,151,71,208,217,1,8,0,1,1,0.027178308130221297,-0.04627354128433394,4.395893658721801,0,0,0,-9,-1,0,0,10,2,-2,"",""
69,354417813,0,0,0,0,0,0,0,0,0,-20,-2,0,1000,149,0,-82,1,1,-2,113,27,2113,145,71,214,206,1,8,0,1,1,0.026985714066319375,-0.046357578023498006,4.395939458354819,0,0,0,-9,-1,0,0,10,2,-2,"",""
70,354419168,0,0,0,0,0,0,0,0,0,-20,-2,0,1000,149,0,-82,1,1,-3,114,24,2112,162,71,213,234,1,8,0,1,1,0.026779508116327486,-0.046445202501881465,4.39600986863565,0,0,0,-9,-1,0,0,10,2,-3,"",""
71,354420543,0,0,0,0,0,0,0,0,0,-20,-2,0,1000,149,0,-82,1,1,-3,115,22,2112,172,71,215,264,1,8,0,1,1,0.026565858909518413,-0.046536663450270646,4.396081331446963,0,0,0,-9,-1,0,0,10,2,-3,"",""
72,354422030,0,0,0,0,0,0,0,0,0,-20,-2,0,1000,149,0,-82,1,1,-3,115,20,2112,171,71,219,271,1,8,0,1,1,0.026346872895446245,-0.04662323572356999,4.396158626006368,0,0,0,-9,-1,0,0,10,2,-3,"",""
73,354423500,0,0,0,0,0,0,0,0,0,-19,-2,0,1000,151,0,-82,0,1,-3,115,19,2112,163,71,224,266,1,8,0,1,1,0.026101780211847593,-0.04670745295234343,4.396235052174965,0,0,0,-8,-1,0,0,8,2,-3,"",""
74,354424829,0,0,0,0,0,0,0,0,0,-19,-2,0,1000,151,0,-82,0,1,-3,116,18,2111,163,71,229,275,1,8,0,1,1,0.025856410471027165,-0.04679871513735145,4.396304168003637,0,0,0,-8,-1,0,0,8,2,-3,"",""
75,354426163,0,0,0,0,0,0,0,0,0,-19,-2,0,1000,151,0,-82,0,1,-2,116,18,2111,157,71,235,273,1,8,0,1,1,0.02561647545097754,-0.04688778376502298,4.396350253615825,0,0,0,-8,-1,0,0,8,2,-2,"",""
76,354427506,0,0,0,0,0,0,0,0,0,-19,-2,0,1000,151,0,-82,0,1,-1,115,18,2111,147,71,241,259,1,8,0,1,1,0.025381727875397865,-0.046968158356655375,4.396373201405722,0,0,0,-8,-1,0,0,8,2,-1,"",""
77,354428864,0,0,0,0,0,0,0,0,0,-19,-2,0,1000,151,0,-82,-1,1,0,115,19,2111,133,71,265,233,1,8,0,1,1,0.02513500055428013,-0.04704650845135279,4.39637269110226,0,0,0,-8,-1,0,0,7,2,0,"",""
78,354430247,0,0,0,0,0,0,0,0,0,-19,-2,0,1000,151,0,-82,-1,0,1,116,20,2112,119,71,275,209,1,8,0,1,1,0.024898931098378443,-0.047152625098624286,4.3963486201097455,0,0,0,-8,-1,0,0,7,1,1,"",""
79,354431574,0,0,0,0,0,0,0,0,0,-19,-2,0,1000,151,0,-82,-1,0,3,116,21,2112,107,71,278,196,1,8,0,1,1,0.02467362322072058,-0.047257193021736636,4.396279163217964,0,0,0,-8,-1,0,0,7,1,3,"",""
80,354432897,0,0,0,0,0,0,0,0,0,-19,-2,0,1000,151,0,-82,-1,0,4,116,22,2111,94,71,285,181,1,8,0,1,1,0.02445895198809531,-0.047360024871962864,4.396186800094025,0,0,0,-8,-1,0,0,7,1,4,"",""
81,354434225,0,0,0,0,0,0,0,0,0,-19,-2,0,1000,151,0,-82,-1,0,5,116,22,2111,87,71,282,172,1,8,0,1,1,0.024248005657960325,-0.047460920858693946,4.396070886583011,0,0,0,-8,-1,0,0,7,1,5,"",""
82,354435551,0,0,0,0,0,0,0,0,0,-19,-2,0,1000,151,0,-82,-1,0,5,117,22,2111,88,71,292,168,1,8,0,1,1,0.024041849125056042,-0.04756546824247873,4.3959551435495605,0,0,0,-8,-1,0,0,7,1,5,"",""
83,354436895,0,0,0,0,0,0,0,0,0,-19,-2,0,1000,151,0,-82,-1,0,5,118,21,2110,84,71,275,159,1,8,0,1,1,0.023834004197453757,-0.04767387635809449,4.395837826574793,0,0,0,-8,-1,0,0,7,1,5,"",""
84,354438258,0,0,0,0,0,0,0,0,0,-19,-2,0,1000,151,0,-82,0,0,5,118,21,2110,91,71,264,148,1,8,0,1,1,0.02365379942918941,-0.047779781858944874,4.39571884629815,0,0,0,-8,-1,0,0,8,1,5,"",""
85,354439624,0,0,0,0,0,0,0,0,0,-18,-2,0,1000,151,0,-82,0,1,4,120,19,2110,100,71,251,146,1,8,0,1,1,0.02346700730081801,-0.047870924423738144,4.395622906353029,0,0,0,-8,-1,0,0,8,2,4,"",""
86,354440960,0,0,0,0,0,0,0,0,0,-17,-2,0,1000,151,0,-82,1,1,3,121,18,2110,112,71,245,155,1,8,0,1,1,0.023302849283746128,-0.047965479808284577,4.395552420190705,0,0,0,-7,-1,0,0,8,2,3,"",""
87,354442288,0,0,0,0,0,0,0,0,0,-16,-2,0,1000,151,0,-82,2,1,2,123,16,2111,111,71,212,137,1,8,0,1,1,0.02315482409613625,-0.04806849494067167,4.395505564712477,0,0,0,-7,-1,0,0,9,2,2,"",""
88,354443626,0,0,0,0,0,0,0,0,0,-15,-2,0,1000,150,0,-82,2,1,1,126,15,2111,124,71,186,170,1,8,0,1,1,0.023006305952635336,-0.04818535959767367,4.395481736528691,0,0,0,-7,-1,0,0,9,2,1,"",""
89,354444954,0,0,0,0,0,0,0,0,0,-15,-2,0,1000,150,0,-82,2,1,-1,128,13,2112,141,71,231,188,1,8,0,1,1,0.022851991673984738,-0.04830951944564513,4.39550449605905,0,0,0,-7,-1,0,0,9,2,-1,"",""
90,354446298,0,0,0,0,0,0,0,0,0,-14,-2,0,1000,150,0,-82,2,1,-2,130,10,2114,150,71,210,205,1,8,0,1,1,0.022686203646460897,-0.04844053820220236,4.395551022916503,0,0,0,-6,-1,0,0,8,2,-2,"",""
91,354447657,0,0,0,0,0,0,0,0,0,-13,-2,0,1000,150,0,-82,3,2,-4,130,7,2115,144,71,209,208,1,8,0,1,1,0.02253401355838315,-0.04854343812157145,4.395645031674729,0,0,0,-6,-1,0,0,9,3,-4,"",""
92,354449004,0,0,0,0,0,0,0,0,0,-13,-2,0,1000,150,0,-82,2,2,-5,131,4,2117,170,71,232,261,1,8,0,1,1,0.022346402274359498,-0.048648504523481045,4.395761771854427,0,0,0,-6,-1,0,0,8,3,-5,"",""
93,354450332,0,0,0,0,0,0,0,0,0,-13,-2,0,1000,150,0,-82,2,1,-6,131,1,2118,168,71,240,260,1,8,0,1,1,0.022147326646940427,-0.048773695414754854,4.395900611903003,0,0,0,-6,-1,0,0,8,2,-6,"",""
94,354451655,0,0,0,0,0,0,0,0,0,-13,-2,0,1000,150,0,-82,1,2,-6,129,-1,2119,179,71,248,301,1,8,0,1,1,0.021919068446167304,-0.04886230734316363,4.396038441803128,0,0,0,-6,-1,0,0,7,3,-6,"",""
95,354453006,0,0,0,0,0,0,0,0,0,-12,-2,0,1000,150,0,-82,1,1,-6,127,-2,2121,166,71,248,228,1,8,0,1,1,0.021690981117303176,-0.048959755670444,4.396179723578602,0,0,0,-5,-1,0,0,6,2,-6,"",""
96,354454482,0,0,0,0,0,0,0,0,0,-12,-2,0,1000,150,0,-82,1,1,-5,126,-2,2123,128,45,240,241,1,8,0,1,1,0.021469239653529145,-0.04904729468892572,4.396308285946096,0,0,0,-5,-1,0,0,6,2,-5,"",""
97,354455984,0,0,0,0,0,0,0,0,0,-12,-2,0,1000,150,0,-82,0,0,-5,126,-2,2124,120,45,248,195,1,8,0,1,1,0.021226918665287232,-0.04915795898567972,4.396439678553422,0,0,0,-5,-1,0,0,5,1,-5,"",""
98,354457386,0,0,0,0,0,0,0,0,0,-12,-2,0,1000,150,0,-82,0,0,-3,125,-2,2124,116,45,256,202,1,8,0,1,1,0.020986794418688507,-0.04926242145394913,4.396513347082729,0,0,0,-5,-1,0,0,5,1,-3,"",""
99,354458714,0,0,0,0,0,0,0,0,0,-12,-2,0,1000,150,0,-82,0,-1,-2,124,-1,2125,106,45,266,193,1,8,0,1,1,0.020755271213358642,-0.049382888541439365,4.396560411308338,0,0,0,-5,-1,0,0,5,0,-2,"",""
100,354460046,0,0,0,0,0,0,0,0,0,-12,-2,0,1000,150,0,-82,0,-1,-1,124,-1,2125,100,45,277,195,1,8,0,1,1,0.020527261215307617,-0.0495017069546124,4.396584332115303,0,0,0,-5,-1,0,0,5,0,-1,"",""
101,354461375,0,0,0,0,0,0,0,0,0,-12,-2,0,1000,150,0,-82,0,-1,0,123,-1,2124,101,45,282,228,1,8,0,1,1,0.020302728897051817,-0.049614033753423416,4.396584966766044,0,0,0,-5,-1,0,0,5,0,0,"",""
102,354462700,0,0,0,0,0,0,0,0,0,-12,-2,0,1000,150,0,-82,0,-1,1,123,0,2123,82,45,260,193,1,8,0,1,1,0.02008653770871852,-0.04972500759082535,4.396562433580131,0,0,0,-5,-1,0,0,5,0,1,"",""
103,354464045,0,0,0,0,0,0,0,0,0,-12,-2,0,1000,150,0,-82,0,-1,2,124,1,2121,78,45,271,185,1,8,0,1,1,0.019878484921472775,-0.04984027496392266,4.396516042186275,0,0,0,-5,-1,0,0,5,0,2,"",""
104,354465404,0,0,0,0,0,0,0,0,0,-12,-2,0,1000,150,0,-82,0,0,2,125,3,2120,70,45,251,169,1,8,0,1,1,0.01968424369276927,-0.049935445683556186,4.39646867964276,0,0,0,-5,-1,0,0,5,1,2,"",""
105,354466766,0,0,0,0,0,0,0,0,0,-12,-2,0,1000,150,0,-82,0,0,2,126,5,2119,67,45,229,159,1,8,0,1,1,0.019503468111109788,-0.050033892382825684,4.3964212026669385,0,0,0,-5,-1,0,0,5,1,2,"",""
106,354468101,0,0,0,0,0,0,0,0,0,-12,-2,0,1000,150,0,-82,1,0,2,127,7,2118,78,45,235,164,1,8,0,1,1,0.019358898854893825,-0.05013550994037071,4.396374660011629,0,0,0,-5,-1,0,0,6,1,2,"",""
107,354469441,0,0,0,0,0,0,0,0,0,-12,-2,0,1000,150,0,-82,1,1,1,129,9,2117,68,45,208,159,1,8,0,1,1,0.01922805332144602,-0.050221408358821044,4.396350896098919,0,0,0,-5,-1,0,0,6,2,1,"",""
108,354470782,0,0,0,0,0,0,0,0,0,-12,-2,0,1000,150,0,-82,1,1,1,130,12,2116,97,45,221,166,1,8,0,1,1,0.019114119308128848,-0.050310461665781826,4.396327108870384,0,0,0,-5,-1,0,0,6,2,1,"",""
109,354472113,0,0,0,0,0,0,0,0,0,-12,-2,0,1000,150,0,-82,1,2,0,131,16,2116,78,45,210,170,1,8,0,1,1,0.019022208202385534,-0.05037909956843978,4.396326303264853,0,0,0,-5,-1,0,0,6,3,0,"",""
110,354473469,0,0,0,0,0,0,0,0,0,-12,-2,0,1000,150,0,-82,1,2,-1,132,20,2116,94,45,214,193,1,8,0,1,1,0.018952397654406976,-0.05044943446995557,4.396349167072208,0,0,0,-5,-1,0,0,6,3,-1,"",""
111,354474824,0,0,0,0,0,0,0,0,0,-12,-2,0,1000,150,0,-82,1,2,-2,132,24,2117,113,45,230,228,1,8,0,1,1,0.018903602675331883,-0.05051746112710518,4.3963956807151,0,0,0,-5,-1,0,0,6,3,-2,"",""
112,354476166,0,0,0,0,0,0,0,0,0,-12,-2,0,1000,150,0,-82,1,2,-3,131,27,2117,120,45,235,256,1,8,0,1,1,0.018870564358751802,-0.05057932457333441,4.396465190055089,0,0,0,-5,-1,0,0,6,3,-3,"",""
113,354477509,0,0,0,0,0,0,0,0,0,-12,-2,0,1000,150,0,-82,0,1,-3,129,31,2117,115,45,242,231,1,8,0,1,1,0.01883334721652797,-0.05065380054996933,4.396535181365579,0,0,0,-5,-1,0,0,5,2,-3,"",""
114,354478836,0,0,0,0,0,0,0,0,0,-12,-2,0,1000,150,0,-82,0,1,-3,128,34,2117,111,45,249,224,1,8,0,1,1,0.018810306246692107,-0.05072256074953843,4.3966043284470455,0,0,0,-5,-1,0,0,5,2,-3,"",""
115,354480165,0,0,0,0,0,0,0,0,0,-12,-2,0,1000,150,0,-82,0,1,-3,126,36,2116,107,45,256,199,1,8,0,1,1,0.018796738303624147,-0.05078119080396623,4.3966735723029124,0,0,0,-5,-1,0,0,5,2,-3,"",""
116,354481512,0,0,0,0,0,0,0,0,0,-12,-2,0,1000,150,0,-82,0,0,-2,123,38,2115,102,45,264,181,1,8,0,1,1,0.01879128872694868,-0.050848943150866105,4.396720652226875,0,0,0,-5,-1,0,0,5,1,-2,"",""
117,354482874,0,0,0,0,0,0,0,0,0,-12,-2,0,1000,150,0,-82,0,0,-1,120,40,2114,98,45,274,200,1,8,0,1,1,0.018793679462263204,-0.05090299419265325,4.396744449771735,0,0,0,-5,-1,0,0,5,1,-1,"",""
118,354484280,0,0,0,0,0,0,0,0,0,-12,-2,0,1000,150,0,-82,0,-1,0,117,42,2112,95,45,281,195,1,8,0,1,1,0.01880377680422223,-0.050968227437167654,4.396744902628221,0,0,0,-5,-1,0,0,5,0,0,"",""
119,354485767,0,0,0,0,0,0,0,0,0,-12,-2,0,1000,150,0,-82,0,-1,1,113,44,2111,91,45,284,168,1,8,0,1,1,0.018821159224363827,-0.05101732977997274,4.396719392262934,0,0,0,-5,-1,0,0,5,0,1,"",""
120,354487232,0,0,0,0,0,0,0,0,0,-12,-2,0,1000,150,0,-82,0,-1,2,110,46,2109,80,45,277,179,1,8,0,1,1,0.018845748418036556,-0.05105344144112875,4.396668654370887,0,0,0,-5,-1,0,0,5,0,2,"",""
121,354488563,0,0,0,0,0,0,0,0,0,-12,-2,0,1000,150,0,-82,0,-1,3,108,48,2107,73,45,262,163,1,8,0,1,1,0.018877687726240606,-0.05107908118243552,4.39659929257244,0,0,0,-5,-1,0,0,5,0,3,"",""
122,354489918,0,0,0,0,0,0,0,0,0,-12,-2,0,1000,150,0,-82,1,-1,3,106,51,2105,75,45,257,151,1,8,0,1,1,0.018945353878316015,-0.0510968750931666,4.3965286726389605,0,0,0,-5,-1,0,0,6,0,3,"",""
123,354491274,0,0,0,0,0,0,0,0,0,-12,-2,0,1000,150,0,-82,1,0,3,105,55,2103,65,45,221,140,1,8,0,1,1,0.019029089705204717,-0.051087341928758065,4.396457539525123,0,0,0,-5,-1,0,0,6,1,3,"",""
124,354492638,0,0,0,0,0,0,0,0,0,-12,-2,0,1000,150,0,-82,1,1,3,105,60,2102,53,45,209,133,1,8,0,1,1,0.01913273535952418,-0.05105458460683848,4.396385514788614,0,0,0,-5,-1,0,0,6,2,3,"",""
125,354493981,0,0,0,0,0,0,0,0,0,-12,-2,0,1000,150,0,-82,1,1,2,105,65,2101,62,45,210,147,1,8,0,1,1,0.019256622656193316,-0.051022282267834285,4.396338042815863,0,0,0,-5,-1,0,0,6,2,2,"",""
126,354495321,0,0,0,0,0,0,0,0,0,-12,-2,0,1000,150,0,-82,1,2,1,106,69,2101,69,45,209,157,1,8,0,1,1,0.01939633407087784,-0.050970856798708906,4.3963136176419075,0,0,0,-5,-1,0,0,6,3,1,"",""
127,354496649,0,0,0,0,0,0,0,0,0,-12,-2,0,1000,150,0,-82,1,2,1,107,73,2102,79,45,216,171,1,8,0,1,1,0.019550137919113354,-0.0509241868503899,4.3962893845588535,0,0,0,-5,-1,0,0,6,3,1,"",""
128,354497990,0,0,0,0,0,0,0,0,0,-12,-2,0,1000,150,0,-82,1,2,0,108,78,2103,128,89,266,223,1,8,0,1,1,0.019723375768269602,-0.05088085732575744,4.396288314545367,0,0,0,-5,-1,0,0,6,3,0,"",""
129,354499329,0,0,0,0,0,0,0,0,0,-12,-2,0,1000,150,0,-82,1,2,-1,109,81,2104,134,89,272,239,1,8,0,1,1,0.01990730019164902,-0.050841297470440326,4.396310616152139,0,0,0,-5,-1,0,0,6,3,-1,"",""
130,354500690,0,0,0,0,0,0,0,0,0,-12,-2,0,1000,150,0,-82,0,2,-1,109,84,2105,145,89,291,250,1,8,0,1,1,0.020077391765978107,-0.050801030541328514,4.3963332609662995,0,0,0,-5,-1,0,0,5,3,-1,"",""
131,354502052,0,0,0,0,0,0,0,0,0,-12,-2,0,1000,150,0,-82,0,2,-1,110,86,2105,144,89,295,270,1,8,0,1,1,0.020252887727561463,-0.050764978744897514,4.396355899918994,0,0,0,-5,-1,0,0,5,3,-1,"",""
132,354503390,0,0,0,0,0,0,0,0,0,-12,-2,0,1000,150,0,-82,0,1,-1,110,87,2106,140,89,305,243,1,8,0,1,1,0.020429635061021634,-0.05075292943530056,4.396378595989007,0,0,0,-5,-1,0,0,5,2,-1,"",""
133,354504725,0,0,0,0,0,0,0,0,0,-12,-2,0,1000,150,0,-82,0,1,-1,110,87,2107,141,89,309,240,1,8,0,1,1,0.02060366691274619,-0.050740750058050205,4.3964012356012505,0,0,0,-5,-1,0,0,5,2,-1,"",""
134,354506060,0,0,0,0,0,0,0,0,0,-12,-2,0,1000,150,0,-82,0,0,-1,109,85,2108,144,89,315,212,1,8,0,1,1,0.020767253220371117,-0.05074760414628107,4.396424364347849,0,0,0,-5,-1,0,0,5,1,-1,"",""
135,354507389,0,0,0,0,0,0,0,0,0,-12,-2,0,1000,150,0,-82,0,-1,-1,108,83,2109,143,89,317,214,1,8,0,1,1,0.020920612123133966,-0.05077329006507742,4.396447886384764,0,0,0,-5,-1,0,0,5,0,-1,"",""
136,354508728,0,0,0,0,0,0,0,0,0,-12,-2,0,1000,150,0,-82,0,-1,-1,107,80,2110,147,89,305,218,1,8,0,1,1,0.021060092964959545,-0.050794881102849,4.396471609973326,0,0,0,-5,-1,0,0,5,0,-1,"",""
137,354510083,0,0,0,0,0,0,0,0,0,-12,-2,0,1000,150,0,-82,1,-2,0,106,76,2110,151,89,300,167,1,8,0,1,1,0.02120453166270317,-0.05083671237104765,4.396472473599557,0,0,0,-5,-1,0,0,6,-1,0,"",""
138,354511442,0,0,0,0,0,0,0,0,0,-12,-2,0,1000,150,0,-82,1,-2,-1,105,73,2110,158,89,302,283,1,8,0,1,1,0.02133688284153664,-0.05087409385563452,4.396497111410467,0,0,0,-5,-1,0,0,6,-1,-1,"",""
139,354512780,0,0,0,0,0,0,0,0,0,-12,-2,0,1000,150,0,-82,1,-1,-1,103,70,2111,154,89,288,234,1,8,0,1,1,0.021455657152736677,-0.0508796242362846,4.396520889639526,0,0,0,-5,-1,0,0,6,0,-1,"",""
140,354514112,0,0,0,0,0,0,0,0,0,-12,-2,0,1000,150,0,-82,1,-1,-1,102,68,2112,161,89,290,243,1,8,0,1,1,0.021565186129282342,-0.050881180979334494,4.396544574972979,0,0,0,-5,-1,0,0,6,0,-1,"",""
141,354515453,0,0,0,0,0,0,0,0,0,-12,-2,0,1000,150,0,-82,1,-1,-1,101,66,2113,142,89,274,235,1,8,0,1,1,0.021665929858132812,-0.05087909805744777,4.396568434315617,0,0,0,-5,-1,0,0,6,0,-1,"",""
142,354516915,0,0,0,0,0,0,0,0,0,-12,-2,0,1000,150,0,-82,1,0,-2,99,66,2114,135,89,256,225,1,8,0,1,1,0.02176879471066655,-0.05084577594051083,4.396619446704973,0,0,0,-5,-1,0,0,6,1,-2,"",""
143,354518410,0,0,0,0,0,0,0,0,0,-12,-2,0,1000,150,0,-82,1,0,-2,98,65,2115,144,89,275,251,1,8,0,1,1,0.021867253629135046,-0.05080901687557362,4.396671616876273,0,0,0,-5,-1,0,0,6,1,-2,"",""
144,354519767,0,0,0,0,0,0,0,0,0,-12,-2,0,1000,150,0,-82,0,1,-1,97,66,2116,137,89,278,249,1,8,0,1,1,0.021940753043587915,-0.050746031374910586,4.396694732625277,0,0,0,-5,-1,0,0,5,2,-1,"",""
145,354521115,0,0,0,0,0,0,0,0,0,-12,-2,0,1000,150,0,-82,0,1,-1,96,66,2117,130,89,277,240,1,8,0,1,1,0.022013156860000452,-0.050680103082871866,4.396717692043386,0,0,0,-5,-1,0,0,5,2,-1,"",""
146,354522447,0,0,0,0,0,0,0,0,0,-12,-2,0,1000,150,0,-82,-1,1,0,96,65,2119,131,89,293,269,1,8,0,1,1,0.022056538594551128,-0.0506153598822002,4.396717108059897,0,0,0,-5,-1,0,0,4,2,0,"",""
147,354523776,0,0,0,0,0,0,0,0,0,-12,-2,0,1000,150,0,-82,-1,1,1,96,64,2120,120,89,296,246,1,8,0,1,1,0.022094395585568437,-0.05055174042764278,4.396693308092452,0,0,0,-5,-1,0,0,4,2,1,"",""
148,354525105,0,0,0,0,0,0,0,0,0,-12,-2,0,1000,150,0,-82,-1,1,1,97,62,2121,115,89,321,227,1,8,0,1,1,0.022124356805999692,-0.05049224752461821,4.396669514865701,0,0,0,-5,-1,0,0,4,2,1,"",""
149,354526436,0,0,0,0,0,0,0,0,0,-12,-2,0,1000,150,0,-82,-1,1,2,100,58,2122,108,89,334,211,1,8,0,1,1,0.022138256292231036,-0.05044438676634088,4.396622446978026,0,0,0,-5,-1,0,0,4,2,2,"",""
150,354527798,0,0,0,0,0,0,0,0,0,-12,-2,0,1000,150,0,-82,-1,1,3,102,54,2123,108,89,328,215,1,8,0,1,1,0.022135808654329965,-0.05040394297616403,4.396550504092607,0,0,0,-5,-1,0,0,4,2,3,"",""
151,354529164,0,0,0,0,0,0,0,0,0,-13,-2,0,1000,150,0,-82,-1,0,3,105,49,2123,114,89,333,204,1,8,0,1,1,0.022115593552413906,-0.05039804836865633,4.3964788986376035,0,0,0,-6,-1,0,0,5,1,3,"",""
152,354530510,0,0,0,0,0,0,0,0,0,-13,-2,0,1000,150,0,-82,0,0,3,108,43,2124,116,89,326,199,1,8,0,1,1,0.022098142322165906,-0.05040253336837546,4.396408366027403,0,0,0,-6,-1,0,0,6,1,3,"",""
153,354531837,0,0,0,0,0,0,0,0,0,-13,-2,0,1000,150,0,-82,0,0,3,111,37,2125,117,89,301,194,1,8,0,1,1,0.02206000872347792,-0.0504172014889625,4.396338853178035,0,0,0,-6,-1,0,0,6,1,3,"",""
154,354533166,0,0,0,0,0,0,0,0,0,-13,-2,0,1000,150,0,-82,0,0,2,113,32,2126,128,89,291,197,1,8,0,1,1,0.022006144437147473,-0.05043792289995394,4.396292474132032,0,0,0,-6,-1,0,0,6,1,2,"",""
155,354534491,0,0,0,0,0,0,0,0,0,-13,-2,0,1000,150,0,-82,1,1,1,115,27,2127,136,89,264,205,1,8,0,1,1,0.021959796596065256,-0.050441626126308925,4.396268895072254,0,0,0,-6,-1,0,0,7,2,1,"",""
156,354535837,0,0,0,0,0,0,0,0,0,-13,-2,0,1000,150,0,-82,1,1,-1,116,23,2128,149,89,264,226,1,8,0,1,1,0.021903118481409432,-0.05044702590174207,4.396291992139478,0,0,0,-6,-1,0,0,7,2,-1,"",""
157,354537196,0,0,0,0,0,0,0,0,0,-13,-2,0,1000,150,0,-82,1,1,-1,116,20,2129,149,89,260,243,1,8,0,1,1,0.02183726830697423,-0.050451833378089755,4.396315326304799,0,0,0,-6,-1,0,0,7,2,-1,"",""
158,354538550,0,0,0,0,0,0,0,0,0,-13,-2,0,1000,150,0,-82,1,1,-3,115,18,2130,149,89,248,240,1,8,0,1,1,0.021767837415885016,-0.05045197342483947,4.396385898780137,0,0,0,-6,-1,0,0,7,2,-3,"",""
159,354539892,0,0,0,0,0,0,0,0,0,-13,-2,0,1000,150,0,-82,1,1,-3,113,18,2131,173,89,266,282,1,8,0,1,1,0.02169912401418308,-0.05044532120824124,4.396455849901955,0,0,0,-6,-1,0,0,7,2,-3,"",""
160,354541217,0,0,0,0,0,0,0,0,0,-13,-2,0,1000,150,0,-82,1,1,-3,110,19,2132,128,39,215,254,1,8,0,1,1,0.02163435586442387,-0.05042875481868786,4.3965249149460615,0,0,0,-6,-1,0,0,7,2,-3,"",""
161,354542554,0,0,0,0,0,0,0,0,0,-13,-2,0,1000,150,0,-82,1,1,-3,107,21,2132,124,39,218,256,1,8,0,1,1,0.02157743276986905,-0.05040208433140048,4.396594598083287,0,0,0,-6,-1,0,0,7,2,-3,"",""
162,354543894,0,0,0,0,0,0,0,0,0,-13,-2,0,1000,151,0,-82,0,1,-2,104,23,2131,105,39,236,216,1,8,0,1,1,0.02150371446656794,-0.050366322383958405,4.396641019084295,0,0,0,-6,-1,0,0,6,2,-2,"",""
163,354545249,0,0,0,0,0,0,0,0,0,-13,-2,0,1000,151,0,-82,0,1,-1,101,26,2130,97,39,246,184,1,8,0,1,1,0.021439701820116626,-0.05032141716794889,4.396664273321916,0,0,0,-6,-1,0,0,6,2,-1,"",""
164,354546622,0,0,0,0,0,0,0,0,0,-13,-2,0,1000,151,0,-82,0,0,1,99,29,2127,88,39,259,194,1,8,0,1,1,0.021384153049546845,-0.050295381972313855,4.396640359758764,0,0,0,-6,-1,0,0,6,1,1,"",""
165,354548108,0,0,0,0,0,0,0,0,0,-13,-2,0,1000,151,0,-82,0,0,3,97,32,2124,83,39,269,176,1,8,0,1,1,0.021336558571592685,-0.05026479304357264,4.396562532254566,0,0,0,-6,-1,0,0,6,1,3,"",""
166,354549583,0,0,0,0,0,0,0,0,0,-13,-2,0,1000,151,0,-82,0,0,4,96,34,2121,71,39,275,163,1,8,0,1,1,0.021294948037119465,-0.050232361905524124,4.396459501167135,0,0,0,-6,-1,0,0,6,1,4,"",""
167,354550921,0,0,0,0,0,0,0,0,0,-13,-2,0,1000,151,0,-82,1,0,5,96,36,2117,60,39,265,142,1,8,0,1,1,0.021283035482444094,-0.05020126050953342,4.396342658287495,0,0,0,-6,-1,0,0,7,1,5,"",""
168,354552247,0,0,0,0,0,0,0,0,0,-13,-2,0,1000,151,0,-82,1,0,5,98,39,2115,55,39,245,125,1,8,0,1,1,0.021280953505036067,-0.05017722479468716,4.396226850206101,0,0,0,-6,-1,0,0,7,1,5,"",""
169,354553582,0,0,0,0,0,0,0,0,0,-13,-2,0,1000,151,0,-82,1,0,5,100,42,2112,50,39,225,125,1,8,0,1,1,0.021288873407698344,-0.05016033385022602,4.396110242519338,0,0,0,-6,-1,0,0,7,1,5,"",""
170,354554938,0,0,0,0,0,0,0,0,0,-13,-2,0,1000,151,0,-82,1,1,4,102,46,2109,51,39,201,121,1,8,0,1,1,0.021311112891036602,-0.05012648332459271,4.3960149689265355,0,0,0,-6,-1,0,0,7,2,4,"",""
171,354556301,0,0,0,0,0,0,0,0,0,-14,-2,0,1000,151,0,-82,2,1,3,105,49,2108,67,39,204,132,1,8,0,1,1,0.021367640051239863,-0.05010190424921566,4.395943002697255,0,0,0,-6,-1,0,0,8,2,3,"",""
172,354557634,0,0,0,0,0,0,0,0,0,-15,-2,0,1000,151,0,-82,1,2,2,107,52,2106,65,39,196,135,1,8,0,1,1,0.021410351215321016,-0.05006095984157557,4.395895396099651,0,0,0,-7,-1,0,0,8,3,2,"",""
173,354558963,0,0,0,0,0,0,0,0,0,-15,-2,0,1000,151,0,-82,2,2,1,108,56,2106,74,39,174,148,1,8,0,1,1,0.02148931073109828,-0.05002301187818884,4.395871129421308,0,0,0,-7,-1,0,0,9,3,1,"",""
174,354560287,0,0,0,0,0,0,0,0,0,-16,-2,0,1000,151,0,-82,2,2,-1,108,59,2106,101,39,191,174,1,8,0,1,1,0.021579045560222186,-0.04998444826864521,4.395893198705444,0,0,0,-7,-1,0,0,9,3,-1,"",""
175,354561612,0,0,0,0,0,0,0,0,0,-17,-2,0,1000,151,0,-82,1,2,-1,107,62,2107,101,39,197,174,1,8,0,1,1,0.02165426636303488,-0.04994280756708101,4.395915265975831,0,0,0,-7,-1,0,0,8,3,-1,"",""
176,354563024,0,0,0,0,0,0,0,0,0,-17,-2,0,1000,151,0,-82,1,2,-2,106,65,2107,112,39,191,192,1,8,0,1,1,0.021740793690872662,-0.04989474770943804,4.395963436169152,0,0,0,-7,-1,0,0,8,3,-2,"",""
177,354564381,0,0,0,0,0,0,0,0,0,-18,-2,0,1000,150,0,-82,1,1,-2,105,67,2108,117,39,213,153,1,8,0,1,1,0.02183151677187197,-0.04986923954029687,4.396010227986947,0,0,0,-8,-1,0,0,9,2,-2,"",""
178,354565732,0,0,0,0,0,0,0,0,0,-18,-2,0,1000,150,0,-82,1,1,-2,103,70,2109,115,39,217,159,1,8,0,1,1,0.021930315832296775,-0.049837754253596246,4.3960567947962605,0,0,0,-8,-1,0,0,9,2,-2,"",""
179,354567060,0,0,0,0,0,0,0,0,0,-18,-2,0,1000,150,0,-82,1,0,-2,101,73,2109,120,39,220,158,1,8,0,1,1,0.02203683004635846,-0.049823870244952946,4.396103059995365,0,0,0,-8,-1,0,0,9,1,-2,"",""
180,354568387,0,0,0,0,0,0,0,0,0,-19,-2,0,1000,150,0,-82,1,-1,-1,99,76,2109,122,39,230,154,1,8,0,1,1,0.022150206411395718,-0.04982760601751235,4.396126606530745,0,0,0,-8,-1,0,0,9,0,-1,"",""
181,354569714,0,0,0,0,0,0,0,0,0,-19,-2,0,1000,150,0,-82,1,-2,-1,97,78,2108,115,39,221,130,1,8,0,1,1,0.022268553734707302,-0.049848552933389335,4.396150665928267,0,0,0,-8,-1,0,0,9,-1,-1,"",""
182,354571054,0,0,0,0,0,0,0,0,0,-19,-2,0,1000,150,0,-82,1,-2,0,96,81,2107,125,39,212,213,1,8,0,1,1,0.022393841273664485,-0.049867595974847564,4.396151549312762,0,0,0,-8,-1,0,0,9,-1,0,"",""
183,354572410,0,0,0,0,0,0,0,0,0,-19,-2,0,1000,150,0,-82,1,-2,0,95,84,2106,120,39,220,173,1,8,0,1,1,0.022527155022695238,-0.04988436708835237,4.396152444111098,0,0,0,-8,-1,0,0,9,-1,0,"",""
184,354573772,0,0,0,0,0,0,0,0,0,-19,-2,0,1000,150,0,-82,1,-2,0,95,87,2104,120,39,207,185,1,8,0,1,1,0.02266826889751967,-0.0499016664221144,4.396153343740658,0,0,0,-8,-1,0,0,9,-1,0,"",""
185,354575114,0,0,0,0,0,0,0,0,0,-19,-2,0,1000,150,0,-82,1,-1,0,94,92,2102,102,39,192,157,1,8,0,1,1,0.022822493744558376,-0.04989236225081595,4.396153685173914,0,0,0,-8,-1,0,0,9,0,0,"",""
186,354576442,0,0,0,0,0,0,0,0,0,-19,-2,0,1000,150,0,-82,1,-1,0,93,97,2101,106,39,182,163,1,8,0,1,1,0.02298969291412451,-0.04988021684936506,4.396154008689741,0,0,0,-8,-1,0,0,9,0,0,"",""
187,354577767,0,0,0,0,0,0,0,0,0,-19,-2,0,1000,150,0,-82,1,0,0,93,101,2099,107,39,186,169,1,8,0,1,1,0.0231669762831765,-0.04984555210014195,4.3961537874469245,0,0,0,-8,-1,0,0,9,1,0,"",""
188,354579120,0,0,0,0,0,0,0,0,0,-19,-2,0,1000,150,0,-82,1,0,0,92,106,2098,95,39,185,153,1,8,0,1,1,0.023357604067328324,-0.04980847437993998,4.396153547755141,0,0,0,-8,-1,0,0,9,1,0,"",""
189,354580593,0,0,0,0,0,0,0,0,0,-19,-2,0,1000,150,0,-82,1,1,0,92,111,2098,90,39,188,152,1,8,0,1,1,0.02356288107798158,-0.04974622309150694,4.3961526834902465,0,0,0,-8,-1,0,0,9,2,0,"",""
190,354582145,0,0,0,0,0,0,0,0,0,-19,-2,0,1000,150,0,-82,0,1,0,93,115,2098,89,39,197,159,1,8,0,1,1,0.023752114928783173,-0.04968600589250416,4.396151762744773,0,0,0,-8,-1,0,0,8,2,0,"",""
191,354583500,0,0,0,0,0,0,0,0,0,-20,-2,0,1000,150,0,-82,0,1,1,93,117,2098,86,39,204,164,1,8,0,1,1,0.023943961182667353,-0.04963026375814818,4.396127236843892,0,0,0,-9,-1,0,0,9,2,1,"",""
192,354584832,0,0,0,0,0,0,0,0,0,-22,-2,0,1000,151,0,-82,-1,2,1,94,119,2099,128,82,245,206,1,8,0,1,1,0.024116353940091192,-0.04955499651783034,4.396102547007799,0,0,0,-10,-1,0,0,9,3,1,"",""
193,354586166,0,0,0,0,0,0,0,0,0,-23,-2,0,1000,151,0,-82,-1,2,1,95,120,2099,127,82,252,203,1,8,0,1,1,0.02428967529168735,-0.04948308090616607,4.39607780208252,0,0,0,-10,-1,0,0,9,3,1,"",""
194,354587496,0,0,0,0,0,0,0,0,0,-24,-2,0,1000,151,0,-82,-1,1,2,97,120,2099,133,82,278,195,1,8,0,1,1,0.024460070545377667,-0.04944113497362682,4.39603045059808,0,0,0,-10,-1,0,0,9,2,2,"",""
195,354588821,0,0,0,0,0,0,0,0,0,-25,-2,0,1000,151,0,-82,-1,1,3,99,119,2100,127,82,276,194,1,8,0,1,1,0.02462468094107393,-0.04940567558288302,4.3959601288529795,0,0,0,-11,-1,0,0,10,2,3,"",""
196,354590172,0,0,0,0,0,0,0,0,0,-26,-2,0,1000,151,0,-82,-1,0,3,102,116,2100,138,82,269,202,1,8,0,1,1,0.024778575212159624,-0.049401941889795006,4.395889027569894,0,0,0,-11,-1,0,0,10,1,3,"",""
197,354591528,0,0,0,0,0,0,0,0,0,-27,-2,0,1000,151,0,-82,-1,0,3,105,113,2101,145,82,272,203,1,8,0,1,1,0.02492222467472421,-0.04940652661669015,4.395817681306746,0,0,0,-12,-1,0,0,11,1,3,"",""
198,354592881,0,0,0,0,0,0,0,0,0,-28,-2,0,1000,151,0,-82,-1,0,2,108,110,2100,134,82,251,184,1,8,0,1,1,0.025057234043365743,-0.0494189910070953,4.395770144470658,0,0,0,-12,-1,0,0,11,1,2,"",""
199,354594215,0,0,0,0,0,0,0,0,0,-29,-2,0,1000,151,0,-82,0,0,2,111,107,2101,141,82,225,194,1,8,0,1,1,0.02520588727212325,-0.04943951323922442,4.395723287926795,0,0,0,-13,-1,0,0,13,1,2,"",""
200,354595552,0,0,0,0,0,0,0,0,0,-31,-2,0,1000,151,0,-82,0,0,1,113,105,2101,134,82,208,189,1,8,0,1,1,0.02534865680507662,-0.04946478632190898,4.395699694296892,0,0,0,-14,-1,0,0,14,1,1,"",""
201,354596881,0,0,0,0,0,0,0,0,0,-32,-2,0,1000,151,0,-82,1,0,0,116,104,2102,132,82,194,184,1,8,0,1,1,0.025511387340124037,-0.04949733823752967,4.3956994637547355,0,0,0,-14,-1,0,0,15,1,0,"",""
202,354598209,0,0,0,0,0,0,0,0,0,-33,-2,0,1000,151,0,-82,1,0,-1,117,103,2102,147,82,185,205,1,8,0,1,1,0.025670984655579314,-0.049531719448299094,4.3957224389223075,0,0,0,-14,-1,0,0,15,1,-1,"",""
203,354599568,0,0,0,0,0,0,0,0,0,-34,-2,0,1000,151,0,-82,1,0,-1,118,103,2102,146,82,176,199,1,8,0,1,1,0.0258296760936845,-0.04956846727719865,4.395745957877309,0,0,0,-15,-1,0,0,16,1,-1,"",""
204,354600929,0,0,0,0,0,0,0,0,0,-35,-2,0,1000,151,0,-82,1,0,-2,119,103,2103,145,82,173,197,1,8,0,1,1,0.025988052165433168,-0.049606816530900426,4.395793289286046,0,0,0,-15,-1,0,0,16,1,-2,"",""
205,354602270,0,0,0,0,0,0,0,0,0,-35,-2,0,1000,151,0,-82,0,0,-2,118,104,2102,150,82,174,194,1,8,0,1,1,0.026124118565881406,-0.04964222417678988,4.395839919473678,0,0,0,-15,-1,0,0,15,1,-2,"",""
206,354603609,0,0,0,0,0,0,0,0,0,-36,-2,0,1000,151,0,-82,0,0,-1,117,104,2102,149,82,179,200,1,8,0,1,1,0.026257718107791657,-0.049675191722453445,4.395863091120878,0,0,0,-16,-1,0,0,16,1,-1,"",""
207,354604949,0,0,0,0,0,0,0,0,0,-36,-2,0,1000,150,0,-82,-1,0,-1,116,105,2101,149,82,200,208,1,8,0,1,1,0.026369537458162937,-0.049705282116737595,4.395886277619613,0,0,0,-16,-1,0,0,15,1,-1,"",""
208,354606285,0,0,0,0,0,0,0,0,0,-36,-2,0,1000,150,0,-82,-1,0,0,114,105,2100,146,82,203,193,1,8,0,1,1,0.026479178669233657,-0.049730479760633065,4.3958860578462815,0,0,0,-16,-1,0,0,15,1,0,"",""
209,354607626,0,0,0,0,0,0,0,0,0,-37,-2,0,1000,150,0,-82,-1,0,1,112,106,2100,143,82,221,207,1,8,0,1,1,0.026589101857617488,-0.04975072565764224,4.395862410151006,0,0,0,-16,-1,0,0,15,1,1,"",""
210,354608988,0,0,0,0,0,0,0,0,0,-37,-2,0,1000,150,0,-82,-2,-1,2,110,106,2099,141,82,221,182,1,8,0,1,1,0.026672785555854533,-0.049789880691905763,4.395815239800784,0,0,0,-16,-1,0,0,14,0,2,"",""
211,354610484,0,0,0,0,0,0,0,0,0,-39,-2,0,1000,150,0,-82,-2,-1,3,109,106,2098,139,82,232,178,1,8,0,1,1,0.026749377240988064,-0.049829397002156973,4.395737323966169,0,0,0,-17,-1,0,0,15,0,3,"",""
212,354611961,0,0,0,0,0,0,0,0,0,-40,-2,0,1000,150,0,-82,-2,-1,4,108,106,2097,140,82,226,181,1,8,0,1,1,0.02682452776659221,-0.04986648528296033,4.395634600843555,0,0,0,-18,-1,0,0,16,0,4,"",""
213,354613298,0,0,0,0,0,0,0,0,0,-41,-2,0,1000,150,0,-82,-3,-1,4,109,106,2096,139,82,222,171,1,8,0,1,1,0.026880958547875877,-0.049903403090379016,4.395541600654723,0,0,0,-18,-1,0,0,15,0,4,"",""
214,354614626,0,0,0,0,0,0,0,0,0,-43,-2,0,1000,150,0,-82,-3,-1,5,110,106,2096,138,82,198,167,1,8,0,1,1,0.026935922374242333,-0.049943135400784114,4.395426032364604,0,0,0,-19,-1,0,0,16,0,5,"",""
215,354615955,0,0,0,0,0,0,0,0,0,-44,-2,0,1000,150,0,-82,-3,-1,5,111,106,2095,133,82,183,163,1,8,0,1,1,0.02699009884667588,-0.04998535470117139,4.395310382715048,0,0,0,-19,-1,0,0,16,0,5,"",""
216,354617309,0,0,0,0,0,0,0,0,0,-45,-2,0,1000,150,0,-82,-3,-1,5,112,106,2095,131,82,164,144,1,8,0,1,1,0.027042075180274544,-0.050030371778447526,4.395192566750973,0,0,0,-20,-1,0,0,17,0,5,"",""
217,354618673,0,0,0,0,0,0,0,0,0,-47,-2,0,1000,150,0,-82,-2,0,4,114,106,2096,123,82,155,157,1,8,0,1,1,0.027117478383687395,-0.05005600521715536,4.395097069359931,0,0,0,-21,-1,0,0,19,1,4,"",""
218,354620011,0,0,0,0,0,0,0,0,0,-47,-2,0,1000,150,0,-82,-2,0,3,117,106,2097,121,82,149,154,1,8,0,1,1,0.027194078582086157,-0.05008832592859866,4.395026763063114,0,0,0,-21,-1,0,0,19,1,3,"",""
219,354621339,0,0,0,0,0,0,0,0,0,-47,-2,0,1000,150,0,-82,-2,1,2,119,107,2098,120,82,144,150,1,8,0,1,1,0.027273785090027126,-0.050101669530353034,4.394979543932505,0,0,0,-21,-1,0,0,19,2,2,"",""
220,354622664,0,0,0,0,0,0,0,0,0,-48,-2,0,1000,150,0,-82,-2,1,2,121,107,2099,117,82,143,165,1,8,0,1,1,0.027352625076544672,-0.05011983794113399,4.394932427464346,0,0,0,-21,-1,0,0,19,2,2,"",""
221,354623990,0,0,0,0,0,0,0,0,0,-48,-2,0,1000,150,0,-82,-2,1,1,123,106,2101,120,82,141,160,1,8,0,1,1,0.027429000653783366,-0.05014195186580161,4.39490843949192,0,0,0,-21,-1,0,0,19,2,1,"",""
222,354625323,0,0,0,0,0,0,0,0,0,-48,-2,0,1000,150,0,-82,-2,1,0,125,106,2102,116,82,138,176,1,8,0,1,1,0.02750535280038514,-0.05016797112324448,4.394907608107684,0,0,0,-21,-1,0,0,19,2,0,"",""
223,354626678,0,0,0,0,0,0,0,0,0,-48,-2,0,1000,150,0,-82,-2,1,0,127,105,2104,122,82,144,178,1,8,0,1,1,0.027577415112006724,-0.050198085701599136,4.39490676666277,0,0,0,-21,-1,0,0,19,2,0,"",""
224,354628038,0,0,0,0,0,0,0,0,0,-49,-2,0,1000,150,0,-82,-2,1,-1,128,104,2106,128,87,149,191,1,8,0,1,1,0.027647011351597743,-0.05022937183250986,4.394929681040472,0,0,0,-22,-1,0,0,20,2,-1,"",""
225,354629393,0,0,0,0,0,0,0,0,0,-49,-2,0,1001,150,0,-82,-2,1,-1,128,102,2107,128,87,155,196,1,8,0,1,1,0.02771089725609375,-0.05026025786801841,4.394952515613158,0,0,0,-22,-1,0,0,20,2,-1,"",""
226,354630730,0,0,0,0,0,0,0,0,0,-49,-2,0,1001,150,0,-82,-3,0,-1,129,100,2108,131,87,173,200,1,8,0,1,1,0.027746407143664886,-0.050316681015401044,4.3949756982834005,0,0,0,-22,-1,0,0,19,1,-1,"",""
227,354632065,0,0,0,0,0,0,0,0,0,-49,-2,0,1001,150,0,-82,-3,0,-1,129,98,2108,132,87,178,201,1,8,0,1,1,0.02777647357614156,-0.05037260834269437,4.394998855070593,0,0,0,-22,-1,0,0,19,1,-1,"",""
228,354633393,0,0,0,0,0,0,0,0,0,-49,-2,0,1001,150,0,-82,-3,0,-1,128,96,2109,132,87,181,201,1,8,0,1,1,0.027801352473120065,-0.05042544597611411,4.39502189883739,0,0,0,-22,-1,0,0,19,1,-1,"",""
229,354634732,0,0,0,0,0,0,0,0,0,-49,-2,0,1001,150,0,-82,-3,-1,-1,128,93,2109,132,87,192,200,1,8,0,1,1,0.027817816515626047,-0.05050105975523435,4.395045798450107,0,0,0,-22,-1,0,0,19,0,-1,"",""
230,354636099,0,0,0,0,0,0,0,0,0,-49,-2,0,1001,150,0,-82,-4,-1,0,127,90,2109,131,87,194,195,1,8,0,1,1,0.02780012949766935,-0.0505747725122009,4.395046334961525,0,0,0,-22,-1,0,0,18,0,0,"",""
231,354637460,0,0,0,0,0,0,0,0,0,-49,-2,0,1012,150,0,-82,-4,-2,0,125,87,2109,133,87,189,192,1,8,0,1,1,0.027775338936115855,-0.05066655118234842,4.3950475426400315,0,0,0,-22,-1,0,0,18,-1,0,"",""
232,354638789,0,0,0,0,0,0,0,0,0,-49,-2,0,1012,150,0,-82,-4,-2,0,123,84,2108,135,87,186,197,1,8,0,1,1,0.027745374206812876,-0.05075183728029025,4.395048732885077,0,0,0,-22,-1,0,0,18,-1,0,"",""
233,354640132,0,0,0,0,0,0,0,0,0,-49,-2,0,1012,150,0,-82,-4,-2,1,122,82,2107,136,87,187,199,1,8,0,1,1,0.02770837605653611,-0.05083537524935668,4.395026484258332,0,0,0,-22,-1,0,0,18,-1,1,"",""
234,354641596,0,0,0,0,0,0,0,0,0,-49,-2,0,1012,150,0,-82,-4,-2,1,120,79,2107,139,87,178,187,1,8,0,1,1,0.02765556562546408,-0.05091777536960507,4.395002249691497,0,0,0,-22,-1,0,0,18,-1,1,"",""
235,354643062,0,0,0,0,0,0,0,0,0,-49,-2,0,1012,150,0,-82,-4,-2,1,119,77,2106,138,87,180,201,1,8,0,1,1,0.02759792864335659,-0.05099743033278135,4.394977988275158,0,0,0,-22,-1,0,0,18,-1,1,"",""
236,354644421,0,0,0,0,0,0,0,0,0,-49,-2,0,1012,150,0,-82,-4,-2,1,119,75,2106,138,87,164,181,1,8,0,1,1,0.027543117809597856,-0.051072824283460674,4.394955498797602,0,0,0,-22,-1,0,0,18,-1,1,"",""
237,354645775,0,0,0,0,0,0,0,0,0,-49,-2,0,1012,150,0,-82,-4,-1,2,118,72,2106,135,87,160,175,1,8,0,1,1,0.02748034025231238,-0.051122316581137084,4.394908796072121,0,0,0,-22,-1,0,0,18,0,2,"",""
238,354647174,0,0,0,0,0,0,0,0,0,-50,-2,0,1021,150,0,-82,-4,-1,2,118,70,2105,135,87,164,177,1,8,0,1,1,0.027409826333780925,-0.05117242530754026,4.394860547210653,0,0,0,-22,-1,0,0,18,0,2,"",""
239,354648514,0,0,0,0,0,0,0,0,0,-50,-2,0,1021,150,0,-82,-4,0,2,118,67,2106,133,87,151,160,1,8,0,1,1,0.027336499396229133,-0.05119774302511241,4.394813698784595,0,0,0,-22,-1,0,0,18,1,2,"",""
240,354649839,0,0,0,0,0,0,0,0,0,-50,-2,0,1021,150,0,-82,-4,0,2,118,64,2106,130,87,152,164,1,8,0,1,1,0.027257385567761593,-0.05122284520887483,4.394767382663363,0,0,0,-22,-1,0,0,18,1,2,"",""
241,354651167,0,0,0,0,0,0,0,0,0,-50,-2,0,1021,150,0,-82,-4,0,2,120,62,2106,131,87,152,164,1,8,0,1,1,0.027173651644135294,-0.051252485459845704,4.394720966478671,0,0,0,-22,-1,0,0,18,1,2,"",""
242,354652500,0,0,0,0,0,0,0,0,0,-50,-2,0,1021,150,0,-82,-4,1,1,121,60,2107,128,87,146,160,1,8,0,1,1,0.027086298704814733,-0.05126036315041688,4.394697036950661,0,0,0,-22,-1,0,0,18,2,1,"",""
243,354653860,0,0,0,0,0,0,0,0,0,-51,-2,0,1021,150,0,-82,-4,1,1,123,58,2108,124,87,146,168,1,8,0,1,1,0.026992676285427265,-0.05127223435423285,4.394672629908285,0,0,0,-23,-1,0,0,19,2,1,"",""
244,354655224,0,0,0,0,0,0,0,0,0,-51,-2,0,1021,150,0,-82,-4,2,1,125,57,2109,124,87,145,170,1,8,0,1,1,0.02689678192511976,-0.05126475536541883,4.394647514162697,0,0,0,-23,-1,0,0,19,3,1,"",""
245,354656566,0,0,0,0,0,0,0,0,0,-51,-2,0,1021,150,0,-82,-4,2,0,127,57,2110,119,87,143,175,1,8,0,1,1,0.026804040554215904,-0.05126186558112885,4.394646251454929,0,0,0,-23,-1,0,0,19,3,0,"",""
246,354657896,0,0,0,0,0,0,0,0,0,-51,-2,0,1021,150,0,-82,-4,2,0,129,56,2111,120,87,142,180,1,8,0,1,1,0.02671018994974735,-0.051263806314177526,4.394645006516652,0,0,0,-23,-1,0,0,19,3,0,"",""
247,354659222,0,0,0,0,0,0,0,0,0,-51,-2,0,1021,150,0,-82,-4,2,-1,130,55,2112,119,87,141,186,1,8,0,1,1,0.026615872664360114,-0.05126731207039125,4.394666937599956,0,0,0,-23,-1,0,0,19,3,-1,"",""
248,354660558,0,0,0,0,0,0,0,0,0,-51,-2,0,1021,150,0,-82,-3,2,-1,130,54,2113,116,87,141,194,1,8,0,1,1,0.026542162717273016,-0.05127017110528476,4.394689040726211,0,0,0,-23,-1,0,0,20,3,-1,"",""
249,354661906,0,0,0,0,0,0,0,0,0,-51,-2,0,1021,150,0,-82,-3,2,-2,130,54,2114,119,87,140,198,1,8,0,1,1,0.026469352722173316,-0.05127169548321708,4.394734895488922,0,0,0,-23,-1,0,0,20,3,-2,"",""
250,354663283,0,0,0,0,0,0,0,0,0,-51,-2,0,1021,150,0,-82,-3,2,-2,130,53,2114,122,87,139,199,1,8,0,1,1,0.02639314682004902,-0.05127202492146118,4.3947817438012455,0,0,0,-23,-1,0,0,20,3,-2,"",""
251,354664635,0,0,0,0,0,0,0,0,0,-51,-2,0,1021,150,0,-82,-3,2,-2,129,52,2114,118,87,141,203,1,8,0,1,1,0.026316293972247714,-0.05127079868994482,4.394827749102552,0,0,0,-23,-1,0,0,20,3,-2,"",""
252,354665971,0,0,0,0,0,0,0,0,0,-52,-2,0,1021,150,0,-82,-3,1,-2,127,52,2113,119,87,147,203,1,8,0,1,1,0.02624073886383779,-0.051288745004900535,4.3948738264678235,0,0,0,-23,-1,0,0,20,2,-2,"",""
253,354667307,0,0,0,0,0,0,0,0,0,-52,-2,0,1021,150,0,-82,-3,1,-2,125,51,2112,124,87,139,202,1,8,0,1,1,0.02616335122902562,-0.05130203746148283,4.394919909524222,0,0,0,-23,-1,0,0,20,2,-2,"",""
254,354668643,0,0,0,0,0,0,0,0,0,-52,-2,0,1021,150,0,-82,-3,1,-2,123,51,2112,121,87,148,204,1,8,0,1,1,0.026086367409618776,-0.051310608660313825,4.394965994530997,0,0,0,-23,-1,0,0,20,2,-2,"",""
255,354669974,0,0,0,0,0,0,0,0,0,-52,-2,0,1021,150,0,-82,-2,0,-2,121,51,2111,121,87,153,202,1,8,0,1,1,0.02603324439114725,-0.05133782871494548,4.395012514005331,0,0,0,-23,-1,0,0,21,1,-2,"",""
256,354671330,0,0,0,0,0,0,0,0,0,-52,-2,0,1021,150,0,-82,-2,0,-2,118,51,2110,128,93,149,205,1,8,0,1,1,0.02597963954613575,-0.05135815608440275,4.395059907138608,0,0,0,-23,-1,0,0,21,1,-2,"",""
257,354672694,0,0,0,0,0,0,0,0,0,-52,-2,0,1021,150,0,-82,-2,-1,-1,115,51,2109,129,93,157,205,1,8,0,1,1,0.02592492734896167,-0.051395981361882975,4.395084368079976,0,0,0,-23,-1,0,0,21,0,-1,"",""
258,354674246,0,0,0,0,0,0,0,0,0,-52,-2,0,1021,150,0,-82,-2,-1,-1,112,52,2108,130,93,165,205,1,8,0,1,1,0.025866448426688813,-0.05143014802672,4.395112193017149,0,0,0,-23,-1,0,0,21,0,-1,"",""
259,354675723,0,0,0,0,0,0,0,0,0,-52,-2,0,1021,150,0,-82,-2,-1,0,108,52,2107,130,93,163,202,1,8,0,1,1,0.025809538110053095,-0.0514546963744588,4.395112868260771,0,0,0,-23,-1,0,0,21,0,0,"",""
260,354677054,0,0,0,0,0,0,0,0,0,-52,-2,0,1021,150,0,-82,-2,-2,0,105,52,2106,135,93,162,205,1,8,0,1,1,0.025758069476098665,-0.0514931387545758,4.395114075387387,0,0,0,-23,-1,0,0,21,-1,0,"",""
261,354678380,0,0,0,0,0,0,0,0,0,-52,-2,0,1021,150,0,-82,-2,-2,0,102,53,2105,136,93,163,206,1,8,0,1,1,0.025709315838240862,-0.05152469645768409,4.39511527193987,0,0,0,-23,-1,0,0,21,-1,0,"",""
262,354679716,0,0,0,0,0,0,0,0,0,-52,-2,0,1021,150,0,-82,-2,-2,1,100,54,2104,137,93,163,208,1,8,0,1,1,0.025661530893501403,-0.05155277425229602,4.395093130659079,0,0,0,-23,-1,0,0,21,-1,1,"",""
263,354681075,0,0,0,0,0,0,0,0,0,-52,-2,0,1021,150,0,-82,-2,-2,1,98,55,2103,138,93,160,197,1,8,0,1,1,0.02561541999193486,-0.05157728006279952,4.39507060251478,0,0,0,-23,-1,0,0,21,-1,1,"",""
264,354682443,0,0,0,0,0,0,0,0,0,-52,-2,0,1027,150,0,-82,-2,-2,1,97,56,2103,137,93,155,190,1,8,0,1,1,0.025571402216804196,-0.05159985270361051,4.3950479198241545,0,0,0,-23,-1,0,0,21,-1,1,"",""
265,354683772,0,0,0,0,0,0,0,0,0,-52,-2,0,1027,150,0,-82,-2,-2,1,96,57,2102,136,93,155,184,1,8,0,1,1,0.02553121847472311,-0.05161893936968531,4.395025878712432,0,0,0,-23,-1,0,0,21,-1,1,"",""
266,354685096,0,0,0,0,0,0,0,0,0,-52,-2,0,1027,150,0,-82,-2,-2,2,95,58,2102,136,93,147,166,1,8,0,1,1,0.025492381262133428,-0.05163623761494416,4.3949807845544075,0,0,0,-23,-1,0,0,21,-1,2,"",""
267,354686423,0,0,0,0,0,0,0,0,0,-52,-2,0,1027,150,0,-82,-2,-2,2,96,59,2101,132,93,140,160,1,8,0,1,1,0.025455827468690496,-0.05165594260477163,4.39493558365588,0,0,0,-23,-1,0,0,21,-1,2,"",""
268,354687749,0,0,0,0,0,0,0,0,0,-52,-2,0,1027,150,0,-82,-2,-1,2,96,60,2101,130,93,138,164,1,8,0,1,1,0.02542159372543277,-0.051652568919384106,4.394889823778944,0,0,0,-23,-1,0,0,21,0,2,"",""
269,354689097,0,0,0,0,0,0,0,0,0,-52,-2,0,1027,150,0,-82,-2,-1,2,98,62,2101,129,93,135,158,1,8,0,1,1,0.025391021471579064,-0.05165402561396038,4.394843298676927,0,0,0,-23,-1,0,0,21,0,2,"",""
270,354690459,0,0,0,0,0,0,0,0,0,-52,-2,0,1027,150,0,-82,-2,0,2,100,63,2101,126,93,132,156,1,8,0,1,1,0.025362161384016223,-0.05163646643805571,4.394795683612938,0,0,0,-23,-1,0,0,21,1,2,"",""
271,354691803,0,0,0,0,0,0,0,0,0,-52,-2,0,1027,150,0,-82,-2,0,1,101,64,2101,126,93,129,152,1,8,0,1,1,0.02533739910197216,-0.05162058778390233,4.394772175641731,0,0,0,-23,-1,0,0,21,1,1,"",""
272,354693133,0,0,0,0,0,0,0,0,0,-52,-2,0,1027,150,0,-82,-2,1,1,104,65,2101,122,93,130,164,1,8,0,1,1,0.025315308012534087,-0.05158817261917499,4.394748320652073,0,0,0,-23,-1,0,0,21,2,1,"",""
273,354694465,0,0,0,0,0,0,0,0,0,-52,-2,0,1027,150,0,-82,-2,1,1,106,65,2102,127,93,128,160,1,8,0,1,1,0.025293118672074365,-0.051560077311524254,4.394724429442195,0,0,0,-23,-1,0,0,21,2,1,"",""
274,354695790,0,0,0,0,0,0,0,0,0,-52,-2,0,1027,150,0,-82,-2,1,0,109,66,2102,122,93,131,169,1,8,0,1,1,0.025274538111724816,-0.051538075434912366,4.394723809143686,0,0,0,-23,-1,0,0,21,2,0,"",""
275,354697196,0,0,0,0,0,0,0,0,0,-52,-2,0,1027,150,0,-82,-2,2,0,111,66,2103,120,93,126,174,1,8,0,1,1,0.02525306015158811,-0.05149449730598292,4.394722532147182,0,0,0,-23,-1,0,0,21,3,0,"",""
276,354698564,0,0,0,0,0,0,0,0,0,-52,-2,0,1027,150,0,-82,-2,2,-1,114,67,2103,119,93,126,178,1,8,0,1,1,0.02523627800149111,-0.05145819828450842,4.394745184866043,0,0,0,-23,-1,0,0,21,3,-1,"",""
277,354699938,0,0,0,0,0,0,0,0,0,-52,-2,0,1027,150,0,-82,-2,2,-1,117,67,2104,117,93,125,184,1,8,0,1,1,0.025219229147758922,-0.05142807086032726,4.394767935983153,0,0,0,-23,-1,0,0,21,3,-1,"",""
278,354701289,0,0,0,0,0,0,0,0,0,-52,-2,0,1036,150,0,-82,-2,2,-1,119,67,2105,113,93,118,180,1,8,0,1,1,0.02520289860338718,-0.051402956944865554,4.394790304580271,0,0,0,-23,-1,0,0,21,3,-1,"",""
279,354702623,0,0,0,0,0,0,0,0,0,-52,-2,0,1036,150,0,-82,-1,3,-2,121,67,2106,111,93,113,174,1,8,0,1,1,0.02521141920630251,-0.05135884404520079,4.39483510761127,0,0,0,-23,-1,0,0,22,4,-2,"",""
280,354703964,0,0,0,0,0,0,0,0,0,-52,-2,0,1036,150,0,-82,-1,2,-2,122,65,2106,117,93,119,181,1,8,0,1,1,0.025215523150610344,-0.05133988314165597,4.394880740981025,0,0,0,-23,-1,0,0,22,3,-2,"",""
281,354705440,0,0,0,0,0,0,0,0,0,-52,-2,0,1036,150,0,-82,-1,2,-2,123,64,2107,116,93,115,181,1,8,0,1,1,0.02521527167344284,-0.051318109953390666,4.394930974729893,0,0,0,-23,-1,0,0,22,3,-2,"",""
282,354706916,0,0,0,0,0,0,0,0,0,-52,-2,0,1036,150,0,-82,0,2,-3,123,62,2107,108,93,106,165,1,8,0,1,1,0.025237726628421837,-0.05129570471697546,4.395007000176195,0,0,0,-23,-1,0,0,23,3,-3,"",""
283,354708273,0,0,0,0,0,0,0,0,0,-52,-2,0,1036,150,0,-82,0,2,-3,124,59,2107,122,93,118,183,1,8,0,1,1,0.02525344539733683,-0.051279695917315994,4.395076902592681,0,0,0,-23,-1,0,0,23,3,-3,"",""
284,354709624,0,0,0,0,0,0,0,0,0,-52,-2,0,1045,150,0,-82,0,2,-3,124,57,2108,120,93,116,181,1,8,0,1,1,0.025264822368996576,-0.05126378072327471,4.395146502338269,0,0,0,-23,-1,0,0,23,3,-3,"",""
285,354710958,0,0,0,0,0,0,0,0,0,-52,-2,0,1045,150,0,-82,0,1,-3,123,55,2108,113,93,108,167,1,8,0,1,1,0.025271955561715655,-0.05126956157728903,4.395215822312735,0,0,0,-23,-1,0,0,23,2,-3,"",""
286,354712285,0,0,0,0,0,0,0,0,0,-52,-2,0,1045,150,0,-82,0,1,-3,123,52,2108,134,93,137,197,1,8,0,1,1,0.025272808895567694,-0.051275371800049534,4.3952847899729015,0,0,0,-23,-1,0,0,23,2,-3,"",""
287,354713626,0,0,0,0,0,0,0,0,0,-52,-2,0,1045,150,0,-82,0,0,-2,121,50,2108,131,93,133,188,1,8,0,1,1,0.02526840362711952,-0.0513005750537112,4.395331657343311,0,0,0,-23,-1,0,0,23,1,-2,"",""
288,354715017,0,0,0,0,0,0,0,0,0,-52,-2,0,1045,150,0,-82,0,0,-2,120,48,2108,128,98,128,184,1,8,0,1,1,0.02526000136273081,-0.051323501581595585,4.395380279644418,0,0,0,-23,-1,0,0,23,1,-2,"",""
289,354716394,0,0,0,0,0,0,0,0,0,-52,-2,0,1045,150,0,-82,0,-1,-2,119,45,2108,140,98,145,198,1,8,0,1,1,0.025245502350149208,-0.05136815368202284,4.395429031842744,0,0,0,-23,-1,0,0,23,0,-2,"",""
290,354717754,0,0,0,0,0,0,0,0,0,-52,-2,0,1045,150,0,-82,0,-1,-2,117,43,2108,139,98,147,200,1,8,0,1,1,0.025226979928161915,-0.0514081865411168,4.395477189452886,0,0,0,-23,-1,0,0,23,0,-2,"",""
291,354719110,0,0,0,0,0,0,0,0,0,-52,-2,0,1057,150,0,-82,0,-1,-1,116,41,2107,133,98,135,188,1,8,0,1,1,0.025203334808474094,-0.051446598604452304,4.395501521377239,0,0,0,-23,-1,0,0,23,0,-1,"",""
292,354720458,0,0,0,0,0,0,0,0,0,-52,-2,0,1057,150,0,-82,0,-1,-1,114,39,2107,149,111,156,204,1,8,0,1,1,0.025175769546270363,-0.051480603542706053,4.395525716086698,0,0,0,-23,-1,0,0,23,0,-1,"",""
293,354721793,0,0,0,0,0,0,0,0,0,-52,-2,0,1057,150,0,-82,0,-2,0,112,38,2106,150,111,162,207,1,8,0,1,1,0.025145237615511646,-0.051534037152727204,4.395526942932636,0,0,0,-23,-1,0,0,23,-1,0,"",""
294,354723137,0,0,0,0,0,0,0,0,0,-52,-2,0,1057,150,0,-82,0,-2,0,110,36,2105,150,111,158,202,1,8,0,1,1,0.025110907842678443,-0.051583596483280585,4.395528181392594,0,0,0,-23,-1,0,0,23,-1,0,"",""
295,354724475,0,0,0,0,0,0,0,0,0,-52,-2,0,1057,150,0,-82,0,-2,1,108,35,2104,149,111,158,201,1,8,0,1,1,0.025073638516438707,-0.0516293801277999,4.3955060380841315,0,0,0,-23,-1,0,0,23,-1,1,"",""
296,354725832,0,0,0,0,0,0,0,0,0,-52,-2,0,1057,150,0,-82,0,-2,1,107,34,2103,149,111,166,210,1,8,0,1,1,0.02503463494928319,-0.05167373276047523,4.395483578742789,0,0,0,-23,-1,0,0,23,-1,1,"",""
297,354727188,0,0,0,0,0,0,0,0,0,-52,-2,0,1057,150,0,-82,0,-2,2,105,33,2103,151,111,162,196,1,8,0,1,1,0.024992660080558834,-0.05171444417474766,4.395437444215893,0,0,0,-23,-1,0,0,23,-1,2,"",""
298,354728522,0,0,0,0,0,0,0,0,0,-52,-2,0,1057,150,0,-82,0,-2,2,105,33,2102,144,111,154,196,1,8,0,1,1,0.0249510509566466,-0.05175432174027723,4.395392054717538,0,0,0,-23,-1,0,0,23,-1,2,"",""
299,354729892,0,0,0,0,0,0,0,0,0,-52,-2,0,1057,150,0,-82,0,-2,2,104,32,2101,148,111,165,200,1,8,0,1,1,0.02490769814139343,-0.05179343852521566,4.395345437213779,0,0,0,-23,-1,0,0,23,-1,2,"",""
300,354731223,0,0,0,0,0,0,0,0,0,-52,-2,0,1057,150,0,-82,-1,-1,3,104,32,2100,152,111,157,159,1,8,0,1,1,0.024840386830147405,-0.05180857722893562,4.395276310501672,0,0,0,-23,-1,0,0,22,0,3,"",""
301,354732615,0,0,0,0,0,0,0,0,0,-52,-2,0,1057,150,0,-82,-1,-1,3,104,31,2100,142,111,155,186,1,8,0,1,1,0.024770241032162105,-0.05182481383996147,4.395204012409766,0,0,0,-23,-1,0,0,22,0,3,"",""
302,354733965,0,0,0,0,0,0,0,0,0,-52,-2,0,1057,150,0,-82,-1,-1,3,104,30,2099,148,111,159,164,1,8,0,1,1,0.02469939606913488,-0.051840323826417255,4.395133896741882,0,0,0,-23,-1,0,0,22,0,3,"",""
