"Product","Blackbox flight data recorder by Nicholas Sherlock"
"firmwareType",3
"firmware","3.3"
"firmwarePatch",3
"firmwareVersion","3.3.3"
"Firmware revision","Betaflight 3.3.3 (a2d5a6482) MATEKF722"
"Firmware date","Apr 16 2020 13:44:31"
"Log start datetime","0000-01-01T00:00:00.000+00:00"
"Craft name","neuroflight"
"frameIntervalI",32
"frameIntervalPNum",1
"frameIntervalPDenom",1
"minthrottle",1070
"maxthrottle",2000
"gyroScale",1.7453292519943295e-8
"motorOutput","138,2047"
"acc_1G",0
"vbatscale",110
"vbatmincellvoltage",33
"vbatwarningcellvoltage",35
"vbatmaxcellvoltage",43
"vbatref",152
"currentMeterOffset",0
"currentMeterScale",179
"looptime",250
"gyro_sync_denom",2
"pid_process_denom",4
"thrMid",50
"thrExpo",0
"dynThrPID",10
"tpa_breakpoint",1650
"rc_rates","100,100,100"
"rc_expo","0,0,0"
"rates","70,70,70"
"rollPID","40,40,30"
"pitchPID","58,50,35"
"yawPID","70,45,20"
"altPID","50,0,0"
"posPID","15,0,0"
"posrPID","34,14,53"
"navrPID","25,33,83"
"levelPID","50,50,75"
"magPID","40,,"
"velPID","55,55,75"
"dterm_filter_type",1
"dterm_lpf_hz",100
"yaw_lpf_hz",0
"dterm_notch_hz",260
"dterm_notch_cutoff",160
"itermWindupPointPercent",50
"vbat_pid_compensation",0
"pidAtMinThrottle",1
"anti_gravity_threshold",350
"anti_gravity_gain",1000
"setpointRelaxRatio",100
"dtermSetpointWeight",0
"yawRateAccelLimit",0.1
"rateAccelLimit",0
"pidSumLimit",500
"pidSumLimitYaw",400
"deadband",0
"yaw_deadband",0
"gyro_lpf",0
"gyro_soft_type",0
"gyro_lowpass_hz",100
"gyro_notch_hz","400,200"
"gyro_notch_cutoff","300,100"
"acc_lpf_hz",1000
"acc_hardware",1
"baro_hardware",1
"mag_hardware",1
"gyro_cal_on_first_arm",0
"rc_interpolation",2
"rc_interpolation_interval",19
"airmode_activate_throttle",32
"serialrx_provider",2
"unsynced_fast_pwm",0
"fast_pwm_protocol",7
"motor_pwm_rate",480
"digitalIdleOffset",450
"debug_mode",31
"features",4457480
"loopIteration","time","axisP[0]","axisP[1]","axisP[2]","axisI[0]","axisI[1]","axisI[2]","axisD[0]","axisD[1]","axisD[2]","rcCommand[0]","rcCommand[1]","rcCommand[2]","rcCommand[3]","vbatLatest","amperageLatest","rssi","gyroADC[0]","gyroADC[1]","gyroADC[2]","debug[0]","debug[1]","debug[2]","debug[3]","motor[0]","motor[1]","motor[2]","motor[3]","flightModeFlags","stateFlags","failsafePhase","rxSignalReceived","rxFlightChannelsValid","heading[0]","heading[1]","heading[2]","axisSum[0]","axisSum[1]","axisSum[2]","rcCommands[0]","rcCommands[1]","rcCommands[2]","rcCommands[3]","axisError[0]","axisError[1]","axisError[2]"
0,10991188,0,0,0,0,0,0,0,0,0,0,0,-8,1000,151,0,512,1,1,-1,0,0,-3236,0,138,183,157,119,"","","","","",0,0,4.396484403227008,0,0,0,0,0,-4,0,1,1,3,"",""
1,10992562,0,0,0,0,0,0,0,0,0,0,0,-8,1000,151,0,512,1,1,-1,0,0,-3236,0,145,174,159,119,1,8,0,1,1,0,0,4.39650838405135,0,0,0,0,0,-4,0,1,1,3,"",""
2,10994059,0,0,0,0,0,0,0,0,0,0,0,-8,1000,151,0,512,0,1,-2,0,0,-3236,0,148,166,156,119,1,8,0,1,1,0,0,4.396560639209177,0,0,0,0,0,-4,0,0,1,2,"",""
3,10995547,0,0,0,0,0,0,0,0,0,0,0,-8,1000,151,0,512,1,1,-2,0,0,-3236,0,146,164,144,119,1,8,0,1,1,0,0,4.3966125815096095,0,0,0,0,0,-4,0,1,1,2,"",""
4,10996893,0,0,0,0,0,0,0,0,0,0,0,-8,1000,151,0,512,1,1,-3,0,0,-3236,0,155,159,146,119,1,8,0,1,1,0,0,4.396683059692654,0,0,0,0,0,-4,0,1,1,1,"",""
5,10998239,0,0,0,0,0,0,0,0,0,0,0,-8,1000,151,0,512,1,0,-3,0,0,-3236,0,162,155,148,119,1,8,0,1,1,0,0,4.396753538427222,0,0,0,0,0,-4,0,1,0,1,"",""
6,10999583,0,0,0,0,0,0,0,0,0,0,0,-8,1000,151,0,512,1,0,-3,0,0,-3236,0,161,156,139,119,1,8,0,1,1,0,0,4.396823912438432,0,0,0,0,0,-4,0,1,0,1,"",""
7,11000940,0,0,0,0,0,0,0,0,0,0,0,-8,1000,151,0,512,1,0,-3,0,0,-3236,0,162,151,137,119,1,8,0,1,1,0,0,4.396894967150472,0,0,0,0,0,-4,0,1,0,1,"",""
8,11002305,0,0,0,0,0,0,0,0,0,0,0,-8,1000,151,0,512,1,0,-3,0,0,-3236,0,170,152,138,119,1,8,0,1,1,0,0,4.396966440755223,0,0,0,0,0,-4,0,1,0,1,"",""
9,11003662,0,0,0,0,0,0,0,0,0,0,0,-8,1000,151,0,512,1,0,-3,0,0,-3236,0,171,154,136,119,1,8,0,1,1,0,0,4.397037495466802,0,0,0,0,0,-4,0,1,0,1,"",""
10,11005006,0,0,0,0,0,0,0,0,0,0,0,-8,1000,151,0,512,1,0,-3,0,0,-3236,0,166,154,132,119,1,8,0,1,1,0,0,4.397107869477098,0,0,0,0,0,-4,0,1,0,1,"",""
11,11006366,0,0,0,0,0,0,0,0,0,0,0,-8,1000,151,0,512,1,0,-3,0,0,-3236,0,176,163,135,119,1,8,0,1,1,0,0,4.397179081272903,0,0,0,0,0,-4,0,1,0,1,"",""
12,11007711,0,0,0,0,0,0,0,0,0,0,0,-8,1000,151,0,512,1,0,-3,0,0,-3236,0,180,166,143,119,1,8,0,1,1,0,0,4.397249507644123,0,0,0,0,0,-4,0,1,0,1,"",""
13,11009067,0,0,0,0,0,0,0,0,0,0,0,-8,1000,151,0,512,1,0,-2,0,0,-3236,0,173,172,141,119,1,8,0,1,1,0,0,4.397296843328036,0,0,0,0,0,-4,0,1,0,2,"",""
14,11010427,0,0,0,0,0,0,0,0,0,0,0,-8,1000,152,0,512,1,0,-2,0,0,-3236,0,170,177,146,119,1,8,0,1,1,0,0,4.397344318644791,0,0,0,0,0,-4,0,1,0,2,"",""
15,11011788,0,0,0,0,0,0,0,0,0,0,0,-8,1000,152,0,512,1,0,-1,0,0,-3236,0,169,182,157,119,1,8,0,1,1,0,0,4.397368074938276,0,0,0,0,0,-4,0,1,0,3,"",""
16,11013144,0,0,0,0,0,0,0,0,0,0,0,-8,1000,152,0,512,1,0,0,0,0,-3236,0,166,197,162,119,1,8,0,1,1,0,0,4.397368077291473,0,0,0,0,0,-4,0,1,0,4,"",""
17,11014494,0,0,0,0,0,0,0,0,0,0,0,-8,1000,152,0,512,1,0,1,0,0,-3236,0,162,210,169,119,1,8,0,1,1,0,0,4.397344517688865,0,0,0,0,0,-4,0,1,0,5,"",""
18,11015846,0,0,0,0,0,0,0,0,0,0,0,-8,1000,152,0,512,2,0,2,0,0,-3236,0,161,218,183,119,1,8,0,1,1,0,0,4.397297328675968,0,0,0,0,0,-4,0,2,0,6,"",""
19,11017189,0,0,0,0,0,0,0,0,0,0,0,-8,1000,152,0,512,2,0,2,0,0,-3236,0,156,234,186,119,1,8,0,1,1,0,0,4.397250453789272,0,0,0,0,0,-4,0,2,0,6,"",""
20,11018552,0,0,0,0,0,0,0,0,0,0,0,-8,1000,152,0,512,2,0,3,0,0,-3236,0,154,246,196,119,1,8,0,1,1,0,0,4.397179092000748,0,0,0,0,0,-4,0,2,0,7,"",""
21,11019929,0,0,0,0,0,0,0,0,0,0,0,-8,1000,152,0,512,2,0,4,0,0,-3236,0,146,245,208,119,1,8,0,1,1,0,0,4.397082964036989,0,0,0,0,0,-4,0,2,0,8,"",""
22,11021285,0,0,0,0,0,0,0,0,0,0,0,-8,1000,152,0,512,2,0,4,0,0,-3236,0,141,255,211,119,1,8,0,1,1,0,0,4.396988302075574,0,0,0,0,0,-4,0,2,0,8,"",""
23,11022633,0,0,0,0,0,0,0,0,0,0,0,-8,1000,152,0,512,2,1,5,0,0,-3236,0,133,257,214,119,1,8,0,1,1,0,0,4.396870671553582,0,0,0,0,0,-4,0,2,1,9,"",""
24,11023988,0,0,0,0,0,0,0,0,0,0,0,-8,1000,152,0,512,2,1,5,0,0,-3236,0,141,258,226,119,1,8,0,1,1,0,0,4.396752431302306,0,0,0,0,0,-4,0,2,1,9,"",""
25,11025474,0,0,0,0,0,0,0,0,0,0,0,-8,1000,152,0,512,2,1,4,0,0,-3236,0,129,255,218,119,1,8,0,1,1,0,0,4.396648696524027,0,0,0,0,0,-4,0,2,1,8,"",""
26,11026968,0,0,0,0,0,0,0,0,0,0,0,-8,1000,152,0,512,1,1,4,0,0,-3236,0,130,250,217,119,1,8,0,1,1,0,0,4.396544400140871,0,0,0,0,0,-4,0,1,1,8,"",""
27,11028338,0,0,0,0,0,0,0,0,0,0,0,-8,1000,152,0,512,1,1,3,0,0,-3236,0,134,244,216,119,1,8,0,1,1,0,0,4.396472671851639,0,0,0,0,0,-4,0,1,1,7,"",""
28,11029694,0,0,0,0,0,0,0,0,0,0,0,-8,1000,152,0,512,1,1,3,0,0,-3236,0,127,230,209,119,1,8,0,1,1,0,0,4.3964016771177405,0,0,0,0,0,-4,0,1,1,7,"",""
29,11031046,0,0,0,0,0,0,0,0,0,0,0,-8,1000,152,22,512,1,1,2,0,0,-3236,0,133,219,208,119,1,8,0,1,1,0,0,4.39635448921737,0,0,0,0,0,-4,0,1,1,6,"",""
30,11032390,0,0,0,0,0,0,0,0,0,0,0,-8,1000,152,22,512,1,1,2,0,0,-3236,0,127,210,196,119,1,8,0,1,1,0,0,4.396307581088563,0,0,0,0,0,-4,0,1,1,6,"",""
31,11033739,0,0,0,0,0,0,0,0,0,0,0,-8,1000,152,22,512,1,1,1,0,0,-3236,0,124,195,191,119,1,8,0,1,1,0,0,4.396284043493923,0,0,0,0,0,-4,0,1,1,5,"",""
32,11035087,0,0,0,0,0,0,0,0,0,0,0,-8,1000,152,22,512,1,0,0,0,0,-3236,0,138,191,191,117,1,8,0,1,1,0,0,4.396284050941083,0,0,0,0,0,-4,0,1,0,4,"",""
33,11036449,0,0,0,0,0,0,0,0,0,0,0,-8,1000,152,22,512,0,0,0,0,0,-3236,0,129,179,178,117,1,8,0,1,1,0,0,4.396284050941083,0,0,0,0,0,-4,0,0,0,4,"",""
34,11037813,0,0,0,0,0,0,0,0,0,0,0,-8,1000,152,22,512,0,0,0,0,0,-3236,0,135,174,176,117,1,8,0,1,1,0,0,4.396284050941083,0,0,0,0,0,-4,0,0,0,4,"",""
35,11039162,0,0,0,0,0,0,0,0,0,0,0,-8,1000,152,22,512,0,0,-1,0,0,-3236,0,147,173,174,117,1,8,0,1,1,0,0,4.396307595432693,0,0,0,0,0,-4,0,0,0,3,"",""
36,11040507,0,0,0,0,0,0,0,0,0,0,0,-8,1000,152,22,512,0,0,-1,0,0,-3236,0,132,157,161,117,1,8,0,1,1,0,0,4.396331070111132,0,0,0,0,0,-4,0,0,0,3,"",""
37,11041868,0,0,0,0,0,0,0,0,0,0,0,-8,1000,152,22,512,0,0,-2,0,0,-3236,0,141,154,159,117,1,8,0,1,1,0,0,4.396378577973372,0,0,0,0,0,-4,0,0,0,2,"",""
38,11043216,0,0,0,0,0,0,0,0,0,0,0,-8,1000,152,22,512,0,0,-2,0,0,-3236,0,150,152,157,117,1,8,0,1,1,0,0,4.396425632050005,0,0,0,0,0,-4,0,0,0,2,"",""
39,11044555,0,0,0,0,0,0,0,0,0,0,0,-8,1000,152,22,512,0,0,-3,0,0,-3236,0,134,133,147,117,1,8,0,1,1,0,0,4.396495741926057,0,0,0,0,0,-4,0,0,0,1,"",""
40,11045916,0,0,0,0,0,0,0,0,0,0,0,-8,1000,152,22,512,0,0,-3,0,0,-3236,0,141,136,140,117,1,8,0,1,1,0,0,4.396567003719417,0,0,0,0,0,-4,0,0,0,1,"",""
41,11047279,0,0,0,0,0,0,0,0,0,0,0,-8,1000,152,22,512,0,0,-3,0,0,-3236,0,149,131,143,117,1,8,0,1,1,0,0,4.396638370232531,0,0,0,0,0,-4,0,0,0,1,"",""
42,11048631,0,0,0,0,0,0,0,0,0,0,0,-8,1000,152,22,512,-1,0,-4,0,0,-3236,0,143,121,139,117,1,8,0,1,1,0,0,4.396732750169121,0,0,0,0,0,-4,0,-1,0,0,"",""
43,11049978,0,0,0,0,0,0,0,0,0,0,0,-8,1000,152,22,512,-1,0,-4,0,0,-3236,0,140,123,130,117,1,8,0,1,1,0,0,4.396826781067373,0,0,0,0,0,-4,0,-1,0,0,"",""
44,11051322,0,0,0,0,0,0,0,0,0,0,0,-8,1000,152,22,512,-1,0,-4,0,0,-3236,0,148,121,137,117,1,8,0,1,1,0,0,4.396920602542527,0,0,0,0,0,-4,0,-1,0,0,"",""
45,11052673,0,0,0,0,0,0,0,0,0,0,0,-8,1000,152,22,512,-1,-1,-4,0,0,-3236,0,153,123,141,117,1,8,0,1,1,0,0,4.397014912667847,0,0,0,0,0,-4,0,-1,-1,0,"",""
46,11054037,0,0,0,0,0,0,0,0,0,0,0,-8,1000,152,22,512,-1,-1,-3,0,0,-3236,0,145,125,134,117,1,8,0,1,1,0,0,4.3970863245622045,0,0,0,0,0,-4,0,-1,-1,1,"",""
47,11055554,0,0,0,0,0,0,0,0,0,0,0,-8,1000,152,22,512,-1,-1,-3,0,0,-3236,0,149,130,139,117,1,8,0,1,1,0,0,4.397165747364837,0,0,0,0,0,-4,0,-1,-1,1,"",""
48,11057051,0,0,0,0,0,0,0,0,0,0,0,-8,1000,152,22,512,-1,-1,-3,0,0,-3236,0,150,134,143,117,1,8,0,1,1,0,0,4.397244123755208,0,0,0,0,0,-4,0,-1,-1,1,"",""
49,11058399,0,0,0,0,0,0,0,0,0,0,0,-8,1000,152,22,512,-1,-1,-2,0,0,-3236,0,134,131,140,117,1,8,0,1,1,0,0,4.397291172731476,0,0,0,0,0,-4,0,-1,-1,2,"",""
50,11059747,0,0,0,0,0,0,0,0,0,0,0,-8,1000,152,22,512,-1,-1,-2,0,0,-3236,0,139,143,145,117,1,8,0,1,1,0,0,4.397338222261052,0,0,0,0,0,-4,0,-1,-1,2,"",""
51,11061087,0,0,0,0,0,0,0,0,0,0,0,-8,1000,152,22,512,-1,-1,-2,0,0,-3236,0,145,151,155,117,1,8,0,1,1,0,0,4.397384993114982,0,0,0,0,0,-4,0,-1,-1,2,"",""
52,11062430,0,0,0,0,0,0,0,0,0,0,0,-8,1000,152,22,512,-1,-1,-1,0,0,-3236,0,130,149,156,117,1,8,0,1,1,0,0,4.397408429455959,0,0,0,0,0,-4,0,-1,-1,3,"",""
53,11063792,0,0,0,0,0,0,0,0,0,0,0,-8,1000,152,22,512,-1,-1,-1,0,0,-3236,0,137,163,164,117,1,8,0,1,1,0,0,4.397432197918083,0,0,0,0,0,-4,0,-1,-1,3,"",""
54,11065175,0,0,0,0,0,0,0,0,0,0,0,-8,1000,152,22,512,-1,-1,0,0,0,-3236,0,138,170,173,117,1,8,0,1,1,0,0,4.3974321955244715,0,0,0,0,0,-4,0,-1,-1,4,"",""
55,11066526,0,0,0,0,0,0,0,0,0,0,0,-8,1000,152,22,512,-1,0,1,0,0,-3236,0,119,167,172,117,1,8,0,1,1,0,0,4.397408614358617,0,0,0,0,0,-4,0,-1,0,5,"",""
56,11067875,0,0,0,0,0,0,0,0,0,0,0,-8,1000,152,22,512,-1,0,1,0,0,-3236,0,120,177,179,117,1,8,0,1,1,0,0,4.397385068101445,0,0,0,0,0,-4,0,-1,0,5,"",""
57,11069223,0,0,0,0,0,0,0,0,0,0,0,-8,1000,152,22,512,-1,0,2,0,0,-3236,0,122,188,190,117,1,8,0,1,1,0,0,4.397338012260052,0,0,0,0,0,-4,0,-1,0,6,"",""
58,11070569,0,0,0,0,0,0,0,0,0,0,0,-8,1000,152,22,512,-1,0,3,0,0,-3236,0,117,196,200,119,1,8,0,1,1,0,0,4.397267534102231,0,0,0,0,0,-4,0,-1,0,7,"",""
59,11071916,0,0,0,0,0,0,0,0,0,0,0,-8,1000,152,0,512,-1,0,3,0,0,-3236,0,117,207,206,117,1,8,0,1,1,0,0,4.397197003582772,0,0,0,0,0,-4,0,-1,0,7,"",""
60,11073275,0,0,0,0,0,0,0,0,0,0,0,-8,1000,152,0,512,-1,0,4,0,0,-3236,0,117,217,219,121,1,8,0,1,1,0,0,4.397102125704109,0,0,0,0,0,-4,0,-1,0,8,"",""
61,11074641,0,0,0,0,0,0,0,0,0,0,0,-8,1000,152,0,512,-1,0,4,0,0,-3236,0,124,225,230,117,1,8,0,1,1,0,0,4.397006759123707,0,0,0,0,0,-4,0,-1,0,8,"",""
62,11075994,0,0,0,0,0,0,0,0,0,0,0,-8,1000,152,0,512,-1,0,5,0,0,-3236,0,117,225,237,121,1,8,0,1,1,0,0,4.396888685826453,0,0,0,0,0,-4,0,-1,0,9,"",""
63,11077341,0,0,0,0,0,0,0,0,0,0,0,-8,1000,152,0,512,-1,0,5,0,0,-3236,0,117,234,246,134,1,8,0,1,1,0,0,4.396771136135582,0,0,0,0,0,-4,0,-1,0,9,"",""
64,11078686,0,0,0,0,0,0,0,0,0,0,0,-8,1000,152,0,512,-1,0,5,0,0,-3236,0,138,242,260,134,1,8,0,1,1,0,0,4.396653760980067,0,0,0,0,0,-4,0,-1,0,9,"",""
65,11080043,0,0,0,0,0,0,0,0,0,0,0,-8,1000,152,0,512,-2,0,4,0,0,-3236,0,134,237,261,137,1,8,0,1,1,0,0,4.3965590209498195,0,0,0,0,0,-4,0,-2,0,8,"",""
66,11081401,0,0,0,0,0,0,0,0,0,0,0,-8,1000,152,0,512,-2,0,4,0,0,-3236,0,134,244,253,144,1,8,0,1,1,0,0,4.396464211103504,0,0,0,0,0,-4,0,-2,0,8,"",""
67,11082759,0,0,0,0,0,0,0,0,0,0,0,-8,1000,152,0,512,-1,0,3,0,0,-3236,0,144,233,252,134,1,8,0,1,1,0,0,4.396393104609069,0,0,0,0,0,-4,0,-1,0,7,"",""
68,11084107,0,0,0,0,0,0,0,0,0,0,0,-8,1000,152,0,512,-2,-1,3,0,0,-3236,0,139,219,245,134,1,8,0,1,1,0,0,4.396322519959173,0,0,0,0,0,-4,0,-2,-1,7,"",""
69,11085469,0,0,0,0,0,0,0,0,0,0,0,-8,1000,152,0,512,-1,0,2,0,0,-3236,0,142,221,229,134,1,8,0,1,1,0,0,4.396274975963818,0,0,0,0,0,-4,0,-1,0,6,"",""
70,11086961,0,0,0,0,0,0,0,0,0,0,0,-8,1000,152,0,512,-1,-1,1,0,0,-3236,0,147,207,228,134,1,8,0,1,1,0,0,4.396248934308109,0,0,0,0,0,-4,0,-1,-1,5,"",""
71,11088451,0,0,0,0,0,0,0,0,0,0,0,-8,1000,152,0,512,-1,-1,1,0,0,-3236,0,148,200,216,134,1,8,0,1,1,0,0,4.396222928237992,0,0,0,0,0,-4,0,-1,-1,5,"",""
72,11089801,0,0,0,0,0,0,0,0,0,0,0,-8,1000,152,0,512,-1,-1,0,0,0,-3236,0,158,199,209,134,1,8,0,1,1,0,0,4.396222928248881,0,0,0,0,0,-4,0,-1,-1,4,"",""
73,11091158,0,0,0,0,0,0,0,0,0,0,0,-8,1000,152,0,512,-1,-1,-1,0,0,-3236,0,160,186,207,134,1,8,0,1,1,0,0,4.396246612935821,0,0,0,0,0,-4,0,-1,-1,3,"",""
74,11092509,0,0,0,0,0,0,0,0,0,0,0,-8,1000,151,0,512,-1,-1,-1,0,0,-3236,0,165,186,193,134,1,8,0,1,1,0,0,4.396270193458973,0,0,0,0,0,-4,0,-1,-1,3,"",""
75,11093861,0,0,0,0,0,0,0,0,0,0,0,-8,1000,151,0,512,-1,-1,-2,0,0,-3236,0,171,178,191,134,1,8,0,1,1,0,0,4.396317388844176,0,0,0,0,0,-4,0,-1,-1,2,"",""
76,11095205,0,0,0,0,0,0,0,0,0,0,0,-8,1000,151,0,512,-1,-1,-2,0,0,-3236,0,165,168,180,134,1,8,0,1,1,0,0,4.3963643055203665,0,0,0,0,0,-4,0,-1,-1,2,"",""
77,11096551,0,0,0,0,0,0,0,0,0,0,0,-8,1000,151,0,512,-1,-1,-3,0,0,-3236,0,165,166,169,134,1,8,0,1,1,0,0,4.396434784695962,0,0,0,0,0,-4,0,-1,-1,1,"",""
78,11097899,0,0,0,0,0,0,0,0,0,0,0,-8,1000,151,0,512,-1,-1,-3,0,0,-3236,0,171,159,169,134,1,8,0,1,1,0,0,4.39650536914838,0,0,0,0,0,-4,0,-1,-1,1,"",""
79,11099260,0,0,0,0,0,0,0,0,0,0,0,-8,1000,151,0,512,-1,-1,-3,0,0,-3236,0,168,159,156,134,1,8,0,1,1,0,0,4.396576634870529,0,0,0,0,0,-4,0,-1,-1,1,"",""
80,11100632,0,0,0,0,0,0,0,0,0,0,0,-8,1000,151,0,512,-1,-1,-4,0,0,-3236,0,171,155,152,134,1,8,0,1,1,0,0,4.396672423069555,0,0,0,0,0,-4,0,-1,-1,0,"",""
81,11101985,0,0,0,0,0,0,0,0,0,0,0,-8,1000,151,0,512,-1,-1,-4,0,0,-3236,0,174,149,155,134,1,8,0,1,1,0,0,4.3967668853215685,0,0,0,0,0,-4,0,-1,-1,0,"",""
82,11103334,0,0,0,0,0,0,0,0,0,0,0,-8,1000,151,0,512,-1,-1,-4,0,0,-3236,0,170,158,140,134,1,8,0,1,1,0,0,4.396861068862536,0,0,0,0,0,-4,0,-1,-1,0,"",""
83,11104695,0,0,0,0,0,0,0,0,0,0,0,-8,1000,151,0,512,-1,-1,-4,0,0,-3236,0,167,153,140,134,1,8,0,1,1,0,0,4.3969560907709875,0,0,0,0,0,-4,0,-1,-1,0,"",""
84,11106043,0,0,0,0,0,0,0,0,0,0,0,-8,1000,151,0,512,0,-1,-4,0,0,-3236,0,168,154,143,134,1,8,0,1,1,0,0,4.397050198927538,0,0,0,0,0,-4,0,0,-1,0,"",""
85,11107386,0,0,0,0,0,0,0,0,0,0,0,-8,1000,151,0,512,0,0,-3,0,0,-3236,0,161,164,134,135,1,8,0,1,1,0,0,4.3971205182431,0,0,0,0,0,-4,0,0,0,1,"",""
86,11108750,0,0,0,0,0,0,0,0,0,0,0,-8,1000,151,0,512,0,0,-3,0,0,-3236,0,158,161,138,134,1,8,0,1,1,0,0,4.397191937116092,0,0,0,0,0,-4,0,0,0,1,"",""
87,11110110,0,0,0,0,0,0,0,0,0,0,0,-8,1000,151,0,512,0,0,-3,0,0,-3236,0,164,170,144,134,1,8,0,1,1,0,0,4.397263146549573,0,0,0,0,0,-4,0,0,0,1,"",""
88,11111460,0,0,0,0,0,0,0,0,0,0,0,-8,1000,151,0,512,0,0,-2,0,0,-3236,0,152,171,142,134,1,8,0,1,1,0,0,4.397310270439378,0,0,0,0,0,-4,0,0,0,2,"",""
89,11112813,0,0,0,0,0,0,0,0,0,0,0,-8,1000,152,0,512,0,0,-2,0,0,-3236,0,148,172,149,134,1,8,0,1,1,0,0,4.397357499048936,0,0,0,0,0,-4,0,0,0,2,"",""
90,11114163,0,0,0,0,0,0,0,0,0,0,0,-8,1000,152,0,512,0,0,-1,0,0,-3236,0,152,182,157,134,1,8,0,1,1,0,0,4.397381060993838,0,0,0,0,0,-4,0,0,0,3,"",""
91,11115509,0,0,0,0,0,0,0,0,0,0,0,-8,1000,152,0,512,0,0,-1,0,0,-3236,0,137,179,159,134,1,8,0,1,1,0,0,4.39740455312557,0,0,0,0,0,-4,0,0,0,3,"",""
92,11116871,0,0,0,0,0,0,0,0,0,0,0,-8,1000,152,0,512,0,1,0,0,0,-3236,0,137,189,165,134,1,8,0,1,1,0,0,4.397404553119103,0,0,0,0,0,-4,0,0,1,4,"",""
93,11118374,0,0,0,0,0,0,0,0,0,0,0,-8,1000,152,0,512,0,1,1,0,0,-3236,0,141,198,177,134,1,8,0,1,1,0,0,4.397378320813914,0,0,0,0,0,-4,0,0,1,5,"",""
94,11119876,0,0,0,0,0,0,0,0,0,0,0,-8,1000,152,0,512,0,1,1,0,0,-3236,0,134,204,183,134,1,8,0,1,1,0,0,4.397352105962821,0,0,0,0,0,-4,0,0,1,5,"",""
95,11121229,0,0,0,0,0,0,0,0,0,0,0,-8,1000,152,0,512,0,1,2,0,0,-3236,0,134,218,194,139,1,8,0,1,1,0,0,4.397304877348765,0,0,0,0,0,-4,0,0,1,6,"",""
96,11122579,0,0,0,0,0,0,0,0,0,0,0,-8,1000,152,0,512,0,1,3,0,0,-3236,0,138,230,207,139,1,8,0,1,1,0,0,4.397234191510273,0,0,0,0,0,-4,0,0,1,7,"",""
97,11123924,0,0,0,0,0,0,0,0,0,0,0,-8,1000,152,0,512,0,1,4,0,0,-3236,0,139,242,217,138,1,8,0,1,1,0,0,4.397140292793481,0,0,0,0,0,-4,0,0,1,8,"",""
98,11125270,0,0,0,0,0,0,0,0,0,0,0,-8,1000,152,0,512,0,1,4,0,0,-3236,0,138,254,234,148,1,8,0,1,1,0,0,4.3970463242642595,0,0,0,0,0,-4,0,0,1,8,"",""
99,11126631,0,0,0,0,0,0,0,0,0,0,0,-8,1000,152,0,512,0,1,5,0,0,-3236,0,138,260,240,142,1,8,0,1,1,0,0,4.3969275546069895,0,0,0,0,0,-4,0,0,1,9,"",""
100,11127991,0,0,0,0,0,0,0,0,0,0,0,-8,1000,152,0,512,0,1,5,0,0,-3236,0,138,263,245,138,1,8,0,1,1,0,0,4.396808872216785,0,0,0,0,0,-4,0,0,1,9,"",""
101,11129347,0,0,0,0,0,0,0,0,0,0,0,-8,1000,152,0,512,0,1,5,0,0,-3236,0,138,264,250,138,1,8,0,1,1,0,0,4.396690538892902,0,0,0,0,0,-4,0,0,1,9,"",""
102,11130693,0,0,0,0,0,0,0,0,0,0,0,-8,1000,152,0,512,0,1,5,0,0,-3236,0,138,266,252,141,1,8,0,1,1,0,0,4.396573078233981,0,0,0,0,0,-4,0,0,1,9,"",""
103,11132038,0,0,0,0,0,0,0,0,0,0,0,-8,1000,152,0,512,0,1,5,0,0,-3236,0,147,265,254,138,1,8,0,1,1,0,0,4.39645570484172,0,0,0,0,0,-4,0,0,1,9,"",""
104,11133387,0,0,0,0,0,0,0,0,0,0,0,-8,1000,152,0,512,0,1,4,0,0,-3236,0,144,258,249,138,1,8,0,1,1,0,0,4.396361526875287,0,0,0,0,0,-4,0,0,1,8,"",""
105,11134734,0,0,0,0,0,0,0,0,0,0,0,-8,1000,152,0,512,0,1,3,0,0,-3236,0,142,249,242,138,1,8,0,1,1,0,0,4.396290998120167,0,0,0,0,0,-4,0,0,1,7,"",""
106,11136093,0,0,0,0,0,0,0,0,0,0,0,-8,1000,152,0,512,0,0,3,0,0,-3236,0,162,245,247,138,1,8,0,1,1,0,0,4.396219841046563,0,0,0,0,0,-4,0,0,0,7,"",""
107,11137451,0,0,0,0,0,0,0,0,0,0,0,-8,1000,152,0,512,0,0,2,0,0,-3236,0,157,239,231,138,1,8,0,1,1,0,0,4.396172437904079,0,0,0,0,0,-4,0,0,0,6,"",""
108,11138802,0,0,0,0,0,0,0,0,0,0,0,-8,1000,152,0,512,0,0,1,0,0,-3236,0,157,225,223,138,1,8,0,1,1,0,0,4.396148858505885,0,0,0,0,0,-4,0,0,0,5,"",""
109,11140147,0,0,0,0,0,0,0,0,0,0,0,-8,1000,152,0,512,0,0,0,0,0,-3236,0,179,222,224,138,1,8,0,1,1,0,0,4.396148858505885,0,0,0,0,0,-4,0,0,0,4,"",""
110,11141492,0,0,0,0,0,0,0,0,0,0,0,-8,1000,152,0,512,0,0,0,0,0,-3236,0,172,218,203,138,1,8,0,1,1,0,0,4.396148858505885,0,0,0,0,0,-4,0,0,0,4,"",""
111,11142833,0,0,0,0,0,0,0,0,0,0,0,-8,1000,152,0,512,0,0,-1,0,0,-3236,0,170,203,197,138,1,8,0,1,1,0,0,4.396172263371154,0,0,0,0,0,-4,0,0,0,3,"",""
112,11144194,0,0,0,0,0,0,0,0,0,0,0,-8,1000,152,0,512,0,0,-1,0,0,-3236,0,187,201,197,138,1,8,0,1,1,0,0,4.396196017302274,0,0,0,0,0,-4,0,0,0,3,"",""
113,11145561,0,0,0,0,0,0,0,0,0,0,0,-8,1000,152,0,512,0,0,-2,0,0,-3236,0,186,199,183,138,1,8,0,1,1,0,0,4.396243734604023,0,0,0,0,0,-4,0,0,0,2,"",""
114,11146922,0,0,0,0,0,0,0,0,0,0,0,-8,1000,152,0,512,0,0,-2,0,0,-3236,0,185,189,177,138,1,8,0,1,1,0,0,4.396291242466263,0,0,0,0,0,-4,0,0,0,2,"",""
115,11148411,0,0,0,0,0,0,0,0,0,0,0,-8,1000,152,0,512,1,0,-3,0,0,-3236,0,197,189,176,138,1,8,0,1,1,0,0,4.396369207052476,0,0,0,0,0,-4,0,1,0,1,"",""
116,11149895,0,0,0,0,0,0,0,0,0,0,0,-8,1000,152,0,512,1,0,-3,0,0,-3236,0,201,189,169,138,1,8,0,1,1,0,0,4.396446909836958,0,0,0,0,0,-4,0,1,0,1,"",""
117,11151245,0,0,0,0,0,0,0,0,0,0,0,-8,1000,152,0,512,1,0,-3,0,0,-3236,0,187,182,153,138,1,8,0,1,1,0,0,4.396517596332321,0,0,0,0,0,-4,0,1,0,1,"",""
118,11152587,0,0,0,0,0,0,0,0,0,0,0,-8,1000,152,0,512,1,0,-3,0,0,-3236,0,189,181,151,138,1,8,0,1,1,0,0,4.39658786394475,0,0,0,0,0,-4,0,1,0,1,"",""
119,11153953,0,0,0,0,0,0,0,0,0,0,0,-8,1000,152,0,512,1,0,-3,0,0,-3236,0,196,178,160,138,1,8,0,1,1,0,0,4.396659388205946,0,0,0,0,0,-4,0,1,0,1,"",""
120,11155319,0,0,0,0,0,0,0,0,0,0,0,-8,1000,152,0,512,1,0,-3,0,0,-3236,0,182,184,143,138,1,8,0,1,1,0,0,4.3967309124670635,0,0,0,0,0,-4,0,1,0,1,"",""
121,11156670,0,0,0,0,0,0,0,0,0,0,0,-8,1000,152,0,512,1,0,-3,0,0,-3236,0,180,184,148,138,1,8,0,1,1,0,0,4.39680165132256,0,0,0,0,0,-4,0,1,0,1,"",""
122,11158018,0,0,0,0,0,0,0,0,0,0,0,-8,1000,152,0,512,1,0,-2,0,0,-3236,0,189,188,164,138,1,8,0,1,1,0,0,4.396848706058484,0,0,0,0,0,-4,0,1,0,2,"",""
123,11159366,0,0,0,0,0,0,0,0,0,0,0,-8,1000,152,0,512,1,0,-2,0,0,-3236,0,172,196,152,138,1,8,0,1,1,0,0,4.3968957607942185,0,0,0,0,0,-4,0,1,0,2,"",""
124,11160713,0,0,0,0,0,0,0,0,0,0,0,-8,1000,152,0,512,1,0,-1,0,0,-3236,0,164,192,162,138,1,8,0,1,1,0,0,4.396919271037641,0,0,0,0,0,-4,0,1,0,3,"",""
125,11162063,0,0,0,0,0,0,0,0,0,0,0,-8,1000,152,0,512,1,0,-1,0,0,-3236,0,166,199,173,138,1,8,0,1,1,0,0,4.396942833642172,0,0,0,0,0,-4,0,1,0,3,"",""
126,11163419,0,0,0,0,0,0,0,0,0,0,0,-8,1000,152,0,512,1,0,0,0,0,-3236,0,155,208,170,138,1,8,0,1,1,0,0,4.396942834304484,0,0,0,0,0,-4,0,1,0,4,"",""
127,11164779,0,0,0,0,0,0,0,0,0,0,0,-8,1000,152,0,512,1,1,1,0,0,-3236,0,148,208,181,138,1,8,0,1,1,0,0,4.3969190984910975,0,0,0,0,0,-4,0,1,1,5,"",""
128,11166130,0,0,0,0,0,0,0,0,0,0,0,-8,1000,152,0,512,1,1,1,0,0,-3236,0,138,210,177,129,1,8,0,1,1,0,0,4.39689552031261,0,0,0,0,0,-4,0,1,1,5,"",""
129,11167476,0,0,0,0,0,0,0,0,0,0,0,-8,1000,152,0,512,1,1,2,0,0,-3236,0,138,218,186,129,1,8,0,1,1,0,0,4.396848537818227,0,0,0,0,0,-4,0,1,1,6,"",""
130,11168826,0,0,0,0,0,0,0,0,0,0,0,-8,1000,152,0,512,1,1,2,0,0,-3236,0,134,218,197,129,1,8,0,1,1,0,0,4.396801416256172,0,0,0,0,0,-4,0,1,1,6,"",""
131,11170169,0,0,0,0,0,0,0,0,0,0,0,-8,1000,152,0,512,1,1,3,0,0,-3236,0,129,228,198,129,1,8,0,1,1,0,0,4.39673109980844,0,0,0,0,0,-4,0,1,1,7,"",""
132,11171534,0,0,0,0,0,0,0,0,0,0,0,-8,1000,152,0,512,0,1,3,0,0,-3236,0,130,225,215,129,1,8,0,1,1,0,0,4.396659628576497,0,0,0,0,0,-4,0,0,1,7,"",""
133,11172937,0,0,0,0,0,0,0,0,0,0,0,-8,1000,152,0,512,0,1,4,0,0,-3236,0,129,233,219,131,1,8,0,1,1,0,0,4.396561680699656,0,0,0,0,0,-4,0,0,1,8,"",""
134,11174291,0,0,0,0,0,0,0,0,0,0,0,-8,1000,152,0,512,0,1,4,0,0,-3236,0,129,240,231,139,1,8,0,1,1,0,0,4.396467153667744,0,0,0,0,0,-4,0,0,1,8,"",""
135,11175637,0,0,0,0,0,0,0,0,0,0,0,-8,1000,152,0,512,0,1,4,0,0,-3236,0,142,237,242,129,1,8,0,1,1,0,0,4.396373185140724,0,0,0,0,0,-4,0,0,1,8,"",""
136,11176998,0,0,0,0,0,0,0,0,0,0,0,-8,1000,152,0,512,0,1,4,0,0,-3236,0,130,236,232,129,1,8,0,1,1,0,0,4.396278169415576,0,0,0,0,0,-4,0,0,1,8,"",""
137,11178496,0,0,0,0,0,0,0,0,0,0,0,-8,1000,152,0,512,0,0,4,0,0,-3236,0,130,226,236,129,1,8,0,1,1,0,0,4.396173589286797,0,0,0,0,0,-4,0,0,0,8,"",""
138,11179986,0,0,0,0,0,0,0,0,0,0,0,-8,1000,152,0,512,0,0,3,0,0,-3236,0,149,230,246,129,1,8,0,1,1,0,0,4.396095573069233,0,0,0,0,0,-4,0,0,0,7,"",""
139,11181349,0,0,0,0,0,0,0,0,0,0,0,-8,1000,152,0,512,0,0,3,0,0,-3236,0,139,222,234,129,1,8,0,1,1,0,0,4.396024206556119,0,0,0,0,0,-4,0,0,0,7,"",""
140,11182712,0,0,0,0,0,0,0,0,0,0,0,-8,1000,152,0,512,-1,0,2,0,0,-3236,0,137,208,231,129,1,8,0,1,1,0,0,4.395976622578439,0,0,0,0,0,-4,0,-1,0,6,"",""
141,11184061,0,0,0,0,0,0,0,0,0,0,0,-8,1000,152,0,512,0,0,2,0,0,-3236,0,160,211,235,129,1,8,0,1,1,0,0,4.39592953359522,0,0,0,0,0,-4,0,0,0,6,"",""
142,11185415,0,0,0,0,0,0,0,0,0,0,0,-8,1000,152,0,512,-1,-1,1,0,0,-3236,0,158,200,227,129,1,8,0,1,1,0,0,4.395905895580095,0,0,0,0,0,-4,0,-1,-1,5,"",""
143,11186762,0,0,0,0,0,0,0,0,0,0,0,-8,1000,152,0,512,-1,-1,0,0,0,-3236,0,159,193,220,129,1,8,0,1,1,0,0,4.395905889911098,0,0,0,0,0,-4,0,-1,-1,4,"",""
144,11188104,0,0,0,0,0,0,0,0,0,0,0,-8,1000,152,0,512,-1,-1,0,0,0,-3236,0,170,192,215,129,1,8,0,1,1,0,0,4.395905884813791,0,0,0,0,0,-4,0,-1,-1,4,"",""
145,11189463,0,0,0,0,0,0,0,0,0,0,0,-8,1000,152,0,512,-1,-1,-1,0,0,-3236,0,168,176,210,129,1,8,0,1,1,0,0,4.395929599232003,0,0,0,0,0,-4,0,-1,-1,3,"",""
146,11190826,0,0,0,0,0,0,0,0,0,0,0,-8,1000,152,0,512,-1,-1,-1,0,0,-3236,0,170,177,198,129,1,8,0,1,1,0,0,4.395953384013978,0,0,0,0,0,-4,0,-1,-1,3,"",""
147,11192177,0,0,0,0,0,0,0,0,0,0,0,-8,1000,152,0,512,-1,-1,-2,0,0,-3236,0,185,176,200,129,1,8,0,1,1,0,0,4.3960005393511885,0,0,0,0,0,-4,0,-1,-1,2,"",""
148,11193523,0,0,0,0,0,0,0,0,0,0,0,-8,1000,152,0,512,-1,-2,-2,0,0,-3236,0,185,168,194,129,1,8,0,1,1,0,0,4.3960475207230685,0,0,0,0,0,-4,0,-1,-2,2,"",""
149,11194872,0,0,0,0,0,0,0,0,0,0,0,-8,1000,151,0,512,0,-1,-3,0,0,-3236,0,184,174,176,129,1,8,0,1,1,0,0,4.39611815419856,0,0,0,0,0,-4,0,0,-1,1,"",""
150,11196223,0,0,0,0,0,0,0,0,0,0,0,-8,1000,151,0,512,0,-2,-3,0,0,-3236,0,200,168,186,129,1,8,0,1,1,0,0,4.396188892393645,0,0,0,0,0,-4,0,0,-2,1,"",""
151,11197571,0,0,0,0,0,0,0,0,0,0,0,-8,1000,151,0,512,0,-2,-3,0,0,-3236,0,198,168,176,129,1,8,0,1,1,0,0,4.396259473508345,0,0,0,0,0,-4,0,0,-2,1,"",""
152,11198939,0,0,0,0,0,0,0,0,0,0,0,-8,1000,151,0,512,0,-1,-3,0,0,-3236,0,174,165,149,129,1,8,0,1,1,0,0,4.39633110182056,0,0,0,0,0,-4,0,0,-1,1,"",""
153,11200304,0,0,0,0,0,0,0,0,0,0,0,-8,1000,151,0,512,0,-2,-4,0,0,-3236,0,196,163,166,129,1,8,0,1,1,0,0,4.396426396797066,0,0,0,0,0,-4,0,0,-2,0,"",""
154,11201654,0,0,0,0,0,0,0,0,0,0,0,-8,1000,151,0,512,0,-2,-4,0,0,-3236,0,195,164,161,129,1,8,0,1,1,0,0,4.3965206445763005,0,0,0,0,0,-4,0,0,-2,0,"",""
155,11203003,0,0,0,0,0,0,0,0,0,0,0,-8,1000,151,0,512,0,-1,-4,0,0,-3236,0,173,165,139,129,1,8,0,1,1,0,0,4.396614822542885,0,0,0,0,0,-4,0,0,-1,0,"",""
156,11204344,0,0,0,0,0,0,0,0,0,0,0,-8,1000,151,0,512,1,-1,-3,0,0,-3236,0,190,170,153,129,1,8,0,1,1,0,0,4.396685032838482,0,0,0,0,0,-4,0,1,-1,1,"",""
157,11205690,0,0,0,0,0,0,0,0,0,0,0,-8,1000,151,0,512,1,-1,-3,0,0,-3236,0,186,171,151,129,1,8,0,1,1,0,0,4.396755504367944,0,0,0,0,0,-4,0,1,-1,1,"",""
158,11207047,0,0,0,0,0,0,0,0,0,0,0,-8,1000,151,0,512,1,-1,-3,0,0,-3236,0,168,167,145,129,1,8,0,1,1,0,0,4.396826551260289,0,0,0,0,0,-4,0,1,-1,1,"",""
159,11208413,0,0,0,0,0,0,0,0,0,0,0,-8,1000,151,0,512,1,-1,-2,0,0,-3236,0,171,174,150,129,1,8,0,1,1,0,0,4.396874227593502,0,0,0,0,0,-4,0,1,-1,2,"",""
160,11209911,0,0,0,0,0,0,0,0,0,0,0,-8,1000,151,0,512,0,-1,-2,0,0,-3236,0,138,151,130,109,1,8,0,1,1,0,0,4.39692651766086,0,0,0,0,0,-4,0,0,-1,2,"",""
161,11211402,0,0,0,0,0,0,0,0,0,0,0,-8,1000,151,0,512,0,0,-1,0,0,-3236,0,129,156,129,109,1,8,0,1,1,0,0,4.396952540520007,0,0,0,0,0,-4,0,0,0,3,"",""
162,11212748,0,0,0,0,0,0,0,0,0,0,0,-8,1000,151,0,512,0,0,-1,0,0,-3236,0,128,164,135,109,1,8,0,1,1,0,0,4.396976032651739,0,0,0,0,0,-4,0,0,0,3,"",""
163,11214100,0,0,0,0,0,0,0,0,0,0,0,-8,1000,151,0,512,0,0,0,0,0,-3236,0,121,166,141,109,1,8,0,1,1,0,0,4.396976032651739,0,0,0,0,0,-4,0,0,0,4,"",""
164,11215440,0,0,0,0,0,0,0,0,0,0,0,-8,1000,152,0,512,0,0,0,0,0,-3236,0,116,174,145,109,1,8,0,1,1,0,0,4.396976032651739,0,0,0,0,0,-4,0,0,0,4,"",""
165,11216803,0,0,0,0,0,0,0,0,0,0,0,-8,1000,152,0,512,0,0,1,0,0,-3236,0,109,182,157,117,1,8,0,1,1,0,0,4.3969522438140345,0,0,0,0,0,-4,0,0,0,5,"",""
166,11218200,0,0,0,0,0,0,0,0,0,0,0,-8,1000,152,0,512,0,0,2,0,0,-3236,0,109,192,169,120,1,8,0,1,1,0,0,4.396903479314734,0,0,0,0,0,-4,0,0,0,6,"",""
167,11219550,0,0,0,0,0,0,0,0,0,0,0,-8,1000,152,0,512,0,1,2,0,0,-3236,0,109,201,180,121,1,8,0,1,1,0,0,4.396856355422041,0,0,0,0,0,-4,0,0,1,6,"",""
168,11220896,0,0,0,0,0,0,0,0,0,0,0,-8,1000,152,0,512,0,1,3,0,0,-3236,0,109,216,191,130,1,8,0,1,1,0,0,4.3967858790244945,0,0,0,0,0,-4,0,0,1,7,"",""
169,11222242,0,0,0,0,0,0,0,0,0,0,0,-8,1000,152,0,512,0,1,3,0,0,-3236,0,109,221,196,124,1,8,0,1,1,0,0,4.396715402627559,0,0,0,0,0,-4,0,0,1,7,"",""
170,11223596,0,0,0,0,0,0,0,0,0,0,0,-8,1000,152,0,512,-1,1,4,0,0,-3236,0,109,215,212,124,1,8,0,1,1,0,0,4.396620881119076,0,0,0,0,0,-4,0,-1,1,8,"",""
171,11224944,0,0,0,0,0,0,0,0,0,0,0,-8,1000,152,0,512,-1,1,4,0,0,-3236,0,109,224,215,128,1,8,0,1,1,0,0,4.396526777909617,0,0,0,0,0,-4,0,-1,1,8,"",""
172,11226303,0,0,0,0,0,0,0,0,0,0,0,-8,1000,152,0,512,-1,1,4,0,0,-3236,0,109,228,219,131,1,8,0,1,1,0,0,4.396431906238008,0,0,0,0,0,-4,0,-1,1,8,"",""
173,11227666,0,0,0,0,0,0,0,0,0,0,0,-8,1000,152,0,512,-1,1,4,0,0,-3236,0,109,216,229,130,1,8,0,1,1,0,0,4.396336754762867,0,0,0,0,0,-4,0,-1,1,8,"",""
174,11229016,0,0,0,0,0,0,0,0,0,0,0,-8,1000,152,0,512,-1,1,3,0,0,-3236,0,109,216,221,125,1,8,0,1,1,0,0,4.396266072206674,0,0,0,0,0,-4,0,-1,1,7,"",""
175,11230357,0,0,0,0,0,0,0,0,0,0,0,-8,1000,152,0,512,-1,1,3,0,0,-3236,0,109,211,214,120,1,8,0,1,1,0,0,4.39619586031625,0,0,0,0,0,-4,0,-1,1,7,"",""
176,11231705,0,0,0,0,0,0,0,0,0,0,0,-8,1000,152,0,512,-1,1,3,0,0,-3236,0,109,195,214,114,1,8,0,1,1,0,0,4.39612528137031,0,0,0,0,0,-4,0,-1,1,7,"",""
177,11233049,0,0,0,0,0,0,0,0,0,0,0,-8,1000,152,0,512,-1,1,2,0,0,-3236,0,112,193,202,109,1,8,0,1,1,0,0,4.396078368530826,0,0,0,0,0,-4,0,-1,1,6,"",""
178,11234411,0,0,0,0,0,0,0,0,0,0,0,-8,1000,152,0,512,-1,0,2,0,0,-3236,0,110,180,197,109,1,8,0,1,1,0,0,4.396030826836502,0,0,0,0,0,-4,0,-1,0,6,"",""
179,11235769,0,0,0,0,0,0,0,0,0,0,0,-8,1000,152,0,512,-1,0,1,0,0,-3236,0,115,176,191,109,1,8,0,1,1,0,0,4.396007126336847,0,0,0,0,0,-4,0,-1,0,5,"",""
180,11237124,0,0,0,0,0,0,0,0,0,0,0,-8,1000,152,0,512,-1,0,1,0,0,-3236,0,122,173,187,109,1,8,0,1,1,0,0,4.395983478194962,0,0,0,0,0,-4,0,-1,0,5,"",""
181,11238477,0,0,0,0,0,0,0,0,0,0,0,-8,1000,152,0,512,-1,0,0,0,0,-3236,0,127,164,184,109,1,8,0,1,1,0,0,4.395983479263136,0,0,0,0,0,-4,0,-1,0,4,"",""
182,11239833,0,0,0,0,0,0,0,0,0,0,0,-8,1000,152,0,512,-1,0,-1,0,0,-3236,0,132,167,173,109,1,8,0,1,1,0,0,4.396007146998616,0,0,0,0,0,-4,0,-1,0,3,"",""
183,11241320,0,0,0,0,0,0,0,0,0,0,0,-8,1000,152,0,512,-1,0,-1,0,0,-3236,0,139,159,174,109,1,8,0,1,1,0,0,4.396033101219181,0,0,0,0,0,-4,0,-1,0,3,"",""
184,11242808,0,0,0,0,0,0,0,0,0,0,0,-8,1000,152,0,512,-1,0,-1,0,0,-3236,0,151,163,169,109,1,8,0,1,1,0,0,4.396059072894141,0,0,0,0,0,-4,0,-1,0,3,"",""
185,11244168,0,0,0,0,0,0,0,0,0,0,0,-8,1000,152,0,512,-1,0,-2,0,0,-3236,0,148,164,155,109,1,8,0,1,1,0,0,4.396106546924609,0,0,0,0,0,-4,0,-1,0,2,"",""
186,11245531,0,0,0,0,0,0,0,0,0,0,0,-8,1000,152,0,512,-1,0,-2,0,0,-3236,0,147,152,154,109,1,8,0,1,1,0,0,4.396154125677431,0,0,0,0,0,-4,0,-1,0,2,"",""
187,11246882,0,0,0,0,0,0,0,0,0,0,0,-8,1000,152,0,512,0,-1,-2,0,0,-3236,0,159,161,150,109,1,8,0,1,1,0,0,4.396201284473376,0,0,0,0,0,-4,0,0,-1,2,"",""
188,11248236,0,0,0,0,0,0,0,0,0,0,0,-8,1000,152,0,512,0,0,-2,0,0,-3236,0,153,158,141,109,1,8,0,1,1,0,0,4.3962485479895195,0,0,0,0,0,-4,0,0,0,2,"",""
189,11249583,0,0,0,0,0,0,0,0,0,0,0,-8,1000,152,0,512,0,-1,-3,0,0,-3236,0,160,157,142,109,1,8,0,1,1,0,0,4.396319076744145,0,0,0,0,0,-4,0,0,-1,1,"",""
190,11250931,0,0,0,0,0,0,0,0,0,0,0,-8,1000,152,0,512,0,0,-3,0,0,-3236,0,161,163,134,109,1,8,0,1,1,0,0,4.396389657859096,0,0,0,0,0,-4,0,0,0,1,"",""
191,11252290,0,0,0,0,0,0,0,0,0,0,0,-8,1000,152,0,512,0,0,-3,0,0,-3236,0,156,157,132,109,1,8,0,1,1,0,0,4.3964608149327,0,0,0,0,0,-4,0,0,0,1,"",""
192,11253646,0,0,0,0,0,0,0,0,0,0,0,-8,1000,152,0,512,0,0,-3,0,0,-3236,0,138,141,113,94,1,8,0,1,1,0,0,4.3965318149266714,0,0,0,0,0,-4,0,0,0,1,"",""
193,11255005,0,0,0,0,0,0,0,0,0,0,0,-8,1000,152,0,512,1,0,-3,0,0,-3236,0,139,146,110,94,1,8,0,1,1,0,0,4.396602969809,0,0,0,0,0,-4,0,1,0,1,"",""
194,11256358,0,0,0,0,0,0,0,0,0,0,0,-8,1000,152,0,512,1,0,-3,0,0,-3236,0,135,144,111,94,1,8,0,1,1,0,0,4.396673810541691,0,0,0,0,0,-4,0,1,0,1,"",""
195,11257712,0,0,0,0,0,0,0,0,0,0,0,-8,1000,152,0,512,1,0,-2,0,0,-3236,0,129,151,104,94,1,8,0,1,1,0,0,4.39672107187449,0,0,0,0,0,-4,0,1,0,2,"",""
196,11259054,0,0,0,0,0,0,0,0,0,0,0,-8,1000,152,0,512,1,0,-2,0,0,-3236,0,134,153,114,94,1,8,0,1,1,0,0,4.3967679143475005,0,0,0,0,0,-4,0,1,0,2,"",""
197,11260399,0,0,0,0,0,0,0,0,0,0,0,-8,1000,152,0,512,1,0,-1,0,0,-3236,0,133,159,117,94,1,8,0,1,1,0,0,4.3967913868568465,0,0,0,0,0,-4,0,1,0,3,"",""
198,11261759,0,0,0,0,0,0,0,0,0,0,0,-8,1000,152,0,512,1,1,-1,0,0,-3236,0,109,159,105,94,1,8,0,1,1,0,0,4.396815121140636,0,0,0,0,0,-4,0,1,1,3,"",""
199,11263116,0,0,0,0,0,0,0,0,0,0,0,-8,1000,152,0,512,1,1,-1,0,0,-3236,0,112,159,121,94,1,8,0,1,1,0,0,4.396838803631528,0,0,0,0,0,-4,0,1,1,3,"",""
200,11264461,0,0,0,0,0,0,0,0,0,0,0,-8,1000,152,0,512,1,1,0,0,0,-3236,0,112,168,122,94,1,8,0,1,1,0,0,4.39683880257481,0,0,0,0,0,-4,0,1,1,4,"",""
201,11265800,0,0,0,0,0,0,0,0,0,0,0,-8,1000,152,0,512,1,1,0,0,0,-3236,0,94,171,118,102,1,8,0,1,1,0,0,4.396838802071408,0,0,0,0,0,-4,0,1,1,4,"",""
202,11267148,0,0,0,0,0,0,0,0,0,0,0,-8,1000,152,0,512,1,1,0,0,0,-3236,0,96,170,123,94,1,8,0,1,1,0,0,4.396838802114448,0,0,0,0,0,-4,0,1,1,4,"",""
203,11268496,0,0,0,0,0,0,0,0,0,0,0,-8,1000,152,0,512,1,2,1,0,0,-3236,0,94,176,126,96,1,8,0,1,1,0,0,4.396815275673199,0,0,0,0,0,-4,0,1,2,5,"",""
204,11269859,0,0,0,0,0,0,0,0,0,0,0,-8,1000,152,0,512,1,2,1,0,0,-3236,0,94,179,139,105,1,8,0,1,1,0,0,4.396791488559064,0,0,0,0,0,-4,0,1,2,5,"",""
205,11271364,0,0,0,0,0,0,0,0,0,0,0,-8,1000,152,0,512,0,2,1,0,0,-3236,0,94,182,147,109,1,8,0,1,1,0,0,4.396765221356181,0,0,0,0,0,-4,0,0,2,5,"",""
206,11272876,0,0,0,0,0,0,0,0,0,0,0,-8,1000,152,0,512,0,2,2,0,0,-3236,0,94,187,155,113,1,8,0,1,1,0,0,4.396712442602548,0,0,0,0,0,-4,0,0,2,6,"",""
207,11274232,0,0,0,0,0,0,0,0,0,0,0,-8,1000,152,0,512,0,2,2,0,0,-3236,0,94,184,163,112,1,8,0,1,1,0,0,4.396665109275921,0,0,0,0,0,-4,0,0,2,6,"",""
208,11275582,0,0,0,0,0,0,0,0,0,0,0,-8,1000,152,0,512,0,2,2,0,0,-3236,0,94,184,168,109,1,8,0,1,1,0,0,4.39661798538864,0,0,0,0,0,-4,0,0,2,6,"",""
209,11276933,0,0,0,0,0,0,0,0,0,0,0,-8,1000,152,0,512,0,2,2,0,0,-3236,0,94,185,182,115,1,8,0,1,1,0,0,4.396570826594414,0,0,0,0,0,-4,0,0,2,6,"",""
210,11278290,0,0,0,0,0,0,0,0,0,0,0,-8,1000,152,0,512,0,2,3,0,0,-3236,0,94,184,174,97,1,8,0,1,1,0,0,4.396499774242165,0,0,0,0,0,-4,0,0,2,7,"",""
211,11279648,0,0,0,0,0,0,0,0,0,0,0,-8,1000,152,0,512,-1,1,3,0,0,-3236,0,94,183,190,108,1,8,0,1,1,0,0,4.396428659709967,0,0,0,0,0,-4,0,-1,1,7,"",""
212,11281009,0,0,0,0,0,0,0,0,0,0,0,-8,1000,152,0,512,-1,1,3,0,0,-3236,0,94,178,194,101,1,8,0,1,1,0,0,4.3963573875127,0,0,0,0,0,-4,0,-1,1,7,"",""
213,11282360,0,0,0,0,0,0,0,0,0,0,0,-8,1000,152,0,512,-1,1,3,0,0,-3236,0,94,186,183,96,1,8,0,1,1,0,0,4.396286638429773,0,0,0,0,0,-4,0,-1,1,7,"",""
214,11283707,0,0,0,0,0,0,0,0,0,0,0,-8,1000,152,0,512,-1,1,3,0,0,-3236,0,94,177,198,105,1,8,0,1,1,0,0,4.396216098263444,0,0,0,0,0,-4,0,-1,1,7,"",""
215,11285049,0,0,0,0,0,0,0,0,0,0,0,-8,1000,152,0,512,-1,1,3,0,0,-3236,0,101,172,196,94,1,8,0,1,1,0,0,4.396145819387373,0,0,0,0,0,-4,0,-1,1,7,"",""
216,11286394,0,0,0,0,0,0,0,0,0,0,0,-8,1000,152,0,512,-1,1,2,0,0,-3236,0,104,179,189,94,1,8,0,1,1,0,0,4.396098857532751,0,0,0,0,0,-4,0,-1,1,6,"",""
217,11287737,0,0,0,0,0,0,0,0,0,0,0,-8,1000,152,0,512,-1,0,2,0,0,-3236,0,106,164,194,94,1,8,0,1,1,0,0,4.396051964964158,0,0,0,0,0,-4,0,-1,0,6,"",""
218,11289095,0,0,0,0,0,0,0,0,0,0,0,-8,1000,152,0,512,-1,0,2,0,0,-3236,0,116,168,193,94,1,8,0,1,1,0,0,4.396004548651542,0,0,0,0,0,-4,0,-1,0,6,"",""
219,11290471,0,0,0,0,0,0,0,0,0,0,0,-8,1000,152,0,512,-1,0,1,0,0,-3236,0,116,165,184,94,1,8,0,1,1,0,0,4.395980519576599,0,0,0,0,0,-4,0,-1,0,5,"",""
220,11291821,0,0,0,0,0,0,0,0,0,0,0,-8,1000,152,0,512,-1,0,1,0,0,-3236,0,124,158,186,94,1,8,0,1,1,0,0,4.395956944539684,0,0,0,0,0,-4,0,-1,0,5,"",""
221,11293164,0,0,0,0,0,0,0,0,0,0,0,-8,1000,152,0,512,-1,0,0,0,0,-3236,0,121,157,172,94,1,8,0,1,1,0,0,4.39595693151584,0,0,0,0,0,-4,0,-1,0,4,"",""
222,11294508,0,0,0,0,0,0,0,0,0,0,0,-8,1000,152,0,512,-1,-1,0,0,0,-3236,0,126,147,171,94,1,8,0,1,1,0,0,4.3959569184893175,0,0,0,0,0,-4,0,-1,-1,4,"",""
223,11295852,0,0,0,0,0,0,0,0,0,0,0,-8,1000,152,0,512,-1,-1,-1,0,0,-3236,0,148,155,173,94,1,8,0,1,1,0,0,4.395980363238184,0,0,0,0,0,-4,0,-1,-1,3,"",""
224,11297214,0,0,0,0,0,0,0,0,0,0,0,-8,1000,152,0,512,-1,-1,-1,0,0,-3236,0,138,147,161,95,1,8,0,1,1,0,0,4.396004122536549,0,0,0,0,0,-4,0,-1,-1,3,"",""
225,11298585,0,0,0,0,0,0,0,0,0,0,0,-8,1000,152,0,512,-1,-1,-2,0,0,-3236,0,147,143,161,95,1,8,0,1,1,0,0,4.3960519678672645,0,0,0,0,0,-4,0,-1,-1,2,"",""
226,11299953,0,0,0,0,0,0,0,0,0,0,0,-8,1000,152,0,512,0,-1,-2,0,0,-3236,0,158,148,157,95,1,8,0,1,1,0,0,4.396099720080235,0,0,0,0,0,-4,0,0,-1,2,"",""
227,11301443,0,0,0,0,0,0,0,0,0,-1,0,-8,1000,152,0,512,0,-1,-2,-280,0,-3236,0,151,138,151,95,1,8,0,1,1,0,0,4.396151730896187,0,0,0,-1,0,-4,0,1,-1,2,"",""
228,11302929,0,0,0,0,0,0,0,0,0,-2,0,-8,1000,152,0,512,0,-1,-2,-561,0,-3236,0,155,143,145,95,1,8,0,1,1,0,0,4.3962036020849915,0,0,0,-1,0,-4,0,1,-1,2,"",""
229,11304278,0,0,0,0,0,0,0,0,0,-2,0,-8,1000,152,0,512,0,-1,-2,-842,0,-3236,0,159,153,137,95,1,8,0,1,1,0,0,4.396250691070678,0,0,0,-1,0,-4,0,1,-1,2,"",""
230,11305624,0,0,0,0,0,0,0,0,0,-3,0,-8,1000,152,0,512,0,-1,-2,-1124,0,-3236,0,157,145,141,95,1,8,0,1,1,0,0,4.396297675336062,0,0,0,-1,0,-4,0,1,-1,2,"",""
231,11306982,0,0,0,0,0,0,0,0,0,-4,0,-8,1000,152,0,512,0,-1,-2,-1406,0,-3236,0,164,158,140,95,1,8,0,1,1,0,0,4.396345078479991,0,0,0,-2,0,-4,0,2,-1,2,"",""
232,11308339,0,0,0,0,0,0,0,0,0,-4,0,-8,1000,152,0,512,0,-1,-2,-1689,0,-3236,0,161,165,136,95,1,8,0,1,1,0,0,4.396392446716888,0,0,0,-2,0,-4,0,2,-1,2,"",""
233,11309688,0,0,0,0,0,0,0,0,0,-4,0,-8,1000,152,0,512,0,-1,-1,-1815,0,-3236,0,157,167,137,95,1,8,0,1,1,0,0,4.396415991209101,0,0,0,-2,0,-4,0,2,-1,3,"",""
234,11311200,0,0,0,0,0,0,0,0,0,-5,0,-8,1000,152,0,512,0,-1,-1,-1941,0,-3236,0,152,171,137,95,1,8,0,1,1,0,0,4.39644238058785,0,0,0,-2,0,-4,0,2,-1,3,"",""
235,11312549,0,0,0,0,0,0,0,0,0,-5,0,-8,1000,152,0,512,0,-1,-1,-2068,0,-3236,0,149,174,139,95,1,8,0,1,1,0,0,4.396465925079686,0,0,0,-2,0,-4,0,2,-1,3,"",""
236,11313896,0,0,0,0,0,0,0,0,0,-5,0,-8,1000,152,0,512,0,-1,-1,-2194,0,-3236,0,139,182,129,95,1,8,0,1,1,0,0,4.396489434664799,0,0,0,-2,0,-4,0,2,-1,3,"",""
237,11315251,0,0,0,0,0,0,0,0,0,-6,0,-8,1000,152,0,512,0,0,0,-2320,0,-3236,0,134,181,133,95,1,8,0,1,1,0,0,4.396489434664799,0,0,0,-3,0,-4,0,3,0,4,"",""
238,11316608,0,0,0,0,0,0,0,0,0,-6,0,-8,1000,152,0,512,0,0,0,-2447,0,-3236,0,141,182,146,95,1,8,0,1,1,0,0,4.396489434664799,0,0,0,-3,0,-4,0,3,0,4,"",""
239,11317965,0,0,0,0,0,0,0,0,0,-7,0,-8,1000,152,0,512,0,0,0,-2574,0,-3236,0,130,188,136,95,1,8,0,1,1,0,0,4.396489434664799,0,0,0,-3,0,-4,0,3,0,4,"",""
240,11319311,0,0,0,0,0,0,0,0,0,-8,0,-8,1000,152,0,512,0,0,0,-3089,0,-3236,0,121,181,141,95,1,8,0,1,1,0,0,4.396489434664799,0,0,0,-4,0,-4,0,4,0,4,"",""
241,11320654,0,0,0,0,0,0,0,0,0,-10,0,-8,1000,152,0,512,0,0,1,-3605,0,-3236,0,133,189,151,95,1,8,0,1,1,0,0,4.396465994892945,0,0,0,-4,0,-4,0,4,0,5,"",""
242,11322013,0,0,0,0,0,0,0,0,0,-11,0,-8,1000,152,0,512,0,0,1,-4124,0,-3236,0,127,189,151,95,1,8,0,1,1,0,0,4.39644227586841,0,0,0,-5,0,-4,0,5,0,5,"",""
243,11323361,0,0,0,0,0,0,0,0,0,-12,0,-8,1000,152,0,512,0,0,1,-4644,0,-3236,0,129,191,156,95,1,8,0,1,1,0,0,4.396418748830094,0,0,0,-5,0,-4,0,5,0,5,"",""
244,11324728,0,0,0,0,0,0,0,0,0,-13,0,-8,1000,152,0,512,-1,0,1,-5167,0,-3236,0,131,199,156,95,1,8,0,1,1,0,0,4.396394885557002,0,0,0,-6,0,-4,0,5,0,5,"",""
245,11326095,0,0,0,0,0,0,0,0,0,-15,0,-8,1000,152,0,512,-1,0,1,-5691,0,-3236,0,148,207,168,95,1,8,0,1,1,0,0,4.396371022283955,0,0,0,-7,0,-4,0,6,0,5,"",""
246,11327442,0,0,0,0,0,0,0,0,0,-16,0,-8,1000,152,0,512,-1,0,1,-6296,0,-3236,0,146,207,166,95,1,8,0,1,1,0,0,4.39634750814444,0,0,0,-7,0,-4,0,6,0,5,"",""
247,11328791,0,0,0,0,0,0,0,0,0,-18,0,-8,1000,152,0,512,-1,0,1,-6903,0,-3236,0,142,208,161,95,1,8,0,1,1,0,0,4.396323959091647,0,0,0,-8,0,-4,0,7,0,5,"",""
248,11330154,0,0,0,0,0,0,0,0,0,-19,0,-8,1000,152,0,512,-1,0,1,-7512,0,-3236,0,162,213,172,95,1,8,0,1,1,0,0,4.396300165645505,0,0,0,-8,0,-4,0,7,0,5,"",""
249,11331640,0,0,0,0,0,0,0,0,0,-21,0,-8,1000,152,0,512,-1,0,1,-8124,0,-3236,0,162,213,166,95,1,8,0,1,1,0,0,4.396274225028621,0,0,0,-9,0,-4,0,8,0,5,"",""
250,11333137,0,0,0,0,0,0,0,0,0,-22,0,-8,1000,152,0,512,-1,0,1,-8739,0,-3236,0,169,210,168,95,1,8,0,1,1,0,0,4.396248092388461,0,0,0,-10,0,-4,0,9,0,5,"",""
251,11334505,0,0,0,0,0,0,0,0,0,-24,0,-8,1000,152,0,512,-1,0,0,-9356,0,-3236,0,190,219,173,95,1,8,0,1,1,0,0,4.396248087763477,0,0,0,-10,0,-4,0,9,0,4,"",""
252,11335865,0,0,0,0,0,0,0,0,0,-25,0,-8,1000,152,0,512,-1,0,0,-9976,0,-3236,0,188,220,165,95,1,8,0,1,1,0,0,4.396248083165673,0,0,0,-11,0,-4,0,10,0,4,"",""
253,11337218,0,0,0,0,0,0,0,0,0,-26,0,-8,1000,151,0,512,-2,-1,0,-10444,0,-3236,0,192,215,168,95,1,8,0,1,1,0,0,4.396248074018808,0,0,0,-11,0,-4,0,9,-1,4,"",""
254,11338566,0,0,0,0,0,0,0,0,0,-27,0,-8,1000,151,0,512,-2,-1,0,-10913,0,-3236,0,212,226,171,95,1,8,0,1,1,0,0,4.396248066017287,0,0,0,-12,0,-4,0,10,-1,4,"",""
255,11339916,0,0,0,0,0,0,0,0,0,-28,0,-8,1000,151,0,512,-2,-1,0,-11384,0,-3236,0,209,223,168,95,1,8,0,1,1,0,0,4.396248059112972,0,0,0,-12,0,-4,0,10,-1,4,"",""
256,11341262,0,0,0,0,0,0,0,0,0,-29,0,-8,1000,151,0,512,-2,-1,0,-11856,0,-3236,0,138,153,87,18,1,8,0,1,1,0,0,4.396248053336548,0,0,0,-13,0,-4,0,11,-1,4,"",""
257,11342629,0,0,0,0,0,0,0,0,0,-30,0,-8,1000,151,0,512,-2,-1,0,-12330,0,-3236,0,152,159,90,18,1,8,0,1,1,0,0,4.396248048591382,0,0,0,-13,0,-4,0,11,-1,4,"",""
258,11343995,0,0,0,0,0,0,0,0,0,-31,0,-8,1000,151,0,512,-2,-1,0,-12805,0,-3236,0,161,159,95,18,1,8,0,1,1,0,0,4.396248044987729,0,0,0,-14,0,-4,0,12,-1,4,"",""
259,11345347,0,0,0,0,0,0,0,0,0,-31,0,-8,1000,151,0,512,-1,-1,0,-13017,0,-3236,0,166,170,88,18,1,8,0,1,1,0,0,4.39624804376719,0,0,0,-14,0,-4,0,13,-1,4,"",""
260,11346708,0,0,0,0,0,0,0,0,0,-32,0,-8,1000,151,0,512,-1,-2,0,-13229,0,-3236,0,167,170,89,18,1,8,0,1,1,0,0,4.396248043099002,0,0,0,-14,0,-4,0,13,-2,4,"",""
261,11348051,0,0,0,0,0,0,0,0,0,-32,0,-8,1000,151,0,512,-2,-2,0,-13441,0,-3236,0,169,167,95,18,1,8,0,1,1,0,0,4.396248044007266,0,0,0,-14,0,-4,0,12,-2,4,"",""
262,11349398,0,0,0,0,0,0,0,0,0,-33,0,-8,1000,151,0,512,-1,-2,0,-13653,0,-3236,0,173,181,89,18,1,8,0,1,1,0,0,4.396248045564306,0,0,0,-14,0,-4,0,13,-2,4,"",""
263,11350749,0,0,0,0,0,0,0,0,0,-33,0,-8,1000,151,0,512,-1,-2,0,-13866,0,-3236,0,172,180,91,18,1,8,0,1,1,0,0,4.396248048234259,0,0,0,-14,0,-4,0,13,-2,4,"",""
264,11352108,0,0,0,0,0,0,0,0,0,-34,0,-8,1000,151,0,512,-1,-2,0,-14079,0,-3236,0,174,188,88,18,1,8,0,1,1,0,0,4.396248052038185,0,0,0,-15,0,-4,0,14,-2,4,"",""
265,11353482,0,0,0,0,0,0,0,0,0,-35,0,-8,1000,151,0,512,-1,-2,0,-14293,0,-3236,0,175,200,81,18,1,8,0,1,1,0,0,4.396248057021295,0,0,0,-15,0,-4,0,14,-2,4,"",""
266,11354838,0,0,0,0,0,0,0,0,0,-36,0,-8,1000,151,0,512,-1,-2,0,-14777,0,-3236,0,173,197,86,18,1,8,0,1,1,0,0,4.396248063073817,0,0,0,-16,0,-4,0,15,-2,4,"",""
267,11356187,0,0,0,0,0,0,0,0,0,-37,0,-8,1000,151,0,512,-1,-1,0,-15264,0,-3236,0,174,207,80,18,1,8,0,1,1,0,0,4.396248070211023,0,0,0,-16,0,-4,0,15,-1,4,"",""
268,11357550,0,0,0,0,0,0,0,0,0,-38,0,-8,1000,153,0,512,-1,-1,1,-15751,0,-3236,0,169,212,72,18,1,8,0,1,1,0,0,4.3962242891446905,0,0,0,-17,0,-4,0,16,-1,5,"",""
269,11359035,0,0,0,0,0,0,0,0,0,-39,0,-8,1000,153,0,512,-1,-1,1,-16241,0,-3236,0,174,217,74,18,1,8,0,1,1,0,0,4.39619838008862,0,0,0,-17,0,-4,0,16,-1,5,"",""
270,11360543,0,0,0,0,0,0,0,0,0,-40,0,-8,1000,153,0,512,-1,-1,1,-16731,0,-3236,0,170,217,73,18,1,8,0,1,1,0,0,4.396172070429404,0,0,0,-18,0,-4,0,17,-1,5,"",""
271,11361907,0,0,0,0,0,0,0,0,0,-41,0,-8,1000,153,0,512,-1,-1,1,-17224,0,-3236,0,162,216,67,18,1,8,0,1,1,0,0,4.396148273724708,0,0,0,-18,0,-4,0,17,-1,5,"",""
272,11363253,0,0,0,0,0,0,0,0,0,-42,0,-8,1000,153,0,512,-1,0,1,-17718,0,-3236,0,163,217,66,18,1,8,0,1,1,0,0,4.396124791615255,0,0,0,-19,0,-4,0,18,0,5,"",""
273,11364604,0,0,0,0,0,0,0,0,0,-42,0,-8,1000,153,0,512,-1,0,1,-17866,0,-3236,0,144,205,62,18,1,8,0,1,1,0,0,4.396101222276761,0,0,0,-19,0,-4,0,18,0,5,"",""
274,11365957,0,0,0,0,0,0,0,0,0,-42,0,-8,1000,153,0,512,-2,0,0,-18015,0,-3236,0,146,199,66,18,1,8,0,1,1,0,0,4.396101242426576,0,0,0,-19,0,-4,0,17,0,4,"",""
275,11367300,0,0,0,0,0,0,0,0,0,-43,0,-8,1000,153,0,512,-2,0,0,-18164,0,-3236,0,140,196,58,18,1,8,0,1,1,0,0,4.396101262428309,0,0,0,-19,0,-4,0,17,0,4,"",""
276,11368643,0,0,0,0,0,0,0,0,0,-43,0,-8,1000,153,0,512,-2,0,0,-18313,0,-3236,0,130,184,55,18,1,8,0,1,1,0,0,4.396101282430884,0,0,0,-19,0,-4,0,17,0,4,"",""
277,11370005,0,0,0,0,0,0,0,0,0,-43,0,-8,1000,153,0,512,-2,0,0,-18462,0,-3236,0,145,185,62,18,1,8,0,1,1,0,0,4.396101302717304,0,0,0,-19,0,-4,0,17,0,4,"",""
278,11371375,0,0,0,0,0,0,0,0,0,-43,0,-8,1000,153,0,512,-3,0,-1,-18611,0,-3236,0,141,176,58,18,1,8,0,1,1,0,0,4.3961252443380605,0,0,0,-19,0,-4,0,16,0,3,"",""
279,11372727,0,0,0,0,0,0,0,0,0,-44,0,-8,1000,153,0,512,-3,0,-1,-18728,0,-3236,0,131,166,51,18,1,8,0,1,1,0,0,4.396148871399248,0,0,0,-19,0,-4,0,16,0,3,"",""
280,11374076,0,0,0,0,0,0,0,0,0,-44,0,-8,1000,153,0,512,-3,0,-1,-18845,0,-3236,0,155,176,57,18,1,8,0,1,1,0,0,4.39617244603526,0,0,0,-19,0,-4,0,16,0,3,"",""
281,11375420,0,0,0,0,0,0,0,0,0,-44,0,-8,1000,153,0,512,-4,0,-2,-18962,0,-3236,0,151,160,60,18,1,8,0,1,1,0,0,4.396219400531605,0,0,0,-19,0,-4,0,15,0,2,"",""
282,11376768,0,0,0,0,0,0,0,0,0,-44,0,-8,1000,153,0,512,-4,0,-2,-19079,0,-3236,0,150,158,52,18,1,8,0,1,1,0,0,4.396266494776024,0,0,0,-19,0,-4,0,15,0,2,"",""
283,11378119,0,0,0,0,0,0,0,0,0,-45,0,-8,1000,152,22,512,-4,0,-2,-19196,0,-3236,0,164,163,52,18,1,8,0,1,1,0,0,4.39631369383174,0,0,0,-20,0,-4,0,16,0,2,"",""
284,11379481,0,0,0,0,0,0,0,0,0,-45,0,-8,1000,152,22,512,-4,0,-2,-19314,0,-3236,0,173,155,61,18,1,8,0,1,1,0,0,4.396361277189435,0,0,0,-20,0,-4,0,16,0,2,"",""
285,11380841,0,0,0,0,0,0,0,0,0,-45,0,-8,1000,152,22,512,-4,0,-2,-19431,0,-3236,0,175,161,51,18,1,8,0,1,1,0,0,4.396408790675683,0,0,0,-20,0,-4,0,16,0,2,"",""
286,11382195,0,0,0,0,0,0,0,0,0,-45,0,-8,1000,152,22,512,-4,0,-3,-19454,0,-3236,0,168,156,45,18,1,8,0,1,1,0,0,4.396479726302573,0,0,0,-20,0,-4,0,16,0,1,"",""
287,11383544,0,0,0,0,0,0,0,0,0,-45,0,-8,1000,152,22,512,-4,-1,-3,-19478,0,-3236,0,184,160,53,18,1,8,0,1,1,0,0,4.396550399981371,0,0,0,-20,0,-4,0,16,-1,1,"",""
288,11384892,0,0,0,0,0,0,0,0,0,-45,0,-8,1000,152,22,512,-4,-1,-2,-19501,0,-3236,0,168,153,30,0,1,8,0,1,1,0,0,4.396597496448395,0,0,0,-20,0,-4,0,16,-1,2,"",""
289,11386255,0,0,0,0,0,0,0,0,0,-45,0,-8,1000,152,22,512,-4,-1,-2,-19525,0,-3236,0,153,150,25,0,1,8,0,1,1,0,0,4.396645119224395,0,0,0,-20,0,-4,0,16,-1,2,"",""
290,11387763,0,0,0,0,0,0,0,0,0,-45,0,-8,1000,152,22,512,-4,-1,-2,-19548,0,-3236,0,157,158,30,0,1,8,0,1,1,0,0,4.396697810756867,0,0,0,-20,0,-4,0,16,-1,2,"",""
291,11389265,0,0,0,0,0,0,0,0,0,-45,0,-8,1000,152,22,512,-4,0,-1,-19572,0,-3236,0,156,166,35,0,1,8,0,1,1,0,0,4.396724080551605,0,0,0,-20,0,-4,0,16,0,3,"",""
292,11390619,0,0,0,0,0,0,0,0,0,-45,0,-8,1000,152,22,512,-4,0,0,-19582,0,-3236,0,149,172,41,0,1,8,0,1,1,0,0,4.396724130084396,0,0,0,-20,0,-4,0,16,0,4,"",""
293,11391978,0,0,0,0,0,0,0,0,0,-45,0,-8,1000,152,22,512,-4,0,0,-19593,0,-3236,0,133,173,44,0,1,8,0,1,1,0,0,4.396724179797948,0,0,0,-20,0,-4,0,16,0,4,"",""
294,11393318,0,0,0,0,0,0,0,0,0,-45,0,-8,1000,152,22,512,-5,0,1,-19603,0,-3236,0,110,167,49,0,1,8,0,1,1,0,0,4.396700853656141,0,0,0,-20,0,-4,0,15,0,5,"",""
295,11394666,0,0,0,0,0,0,0,0,0,-45,0,-8,1000,152,22,512,-5,0,2,-19614,0,-3236,0,106,172,59,0,1,8,0,1,1,0,0,4.396653861212323,0,0,0,-20,0,-4,0,15,0,6,"",""
296,11396012,0,0,0,0,0,0,0,0,0,-45,0,-8,1000,152,22,512,-5,0,3,-19624,0,-3236,0,90,169,67,0,1,8,0,1,1,0,0,4.396583446355835,0,0,0,-20,0,-4,0,15,0,7,"",""
297,11397374,0,0,0,0,0,0,0,0,0,-45,0,-8,1000,152,22,512,-6,0,3,-19635,0,-3236,0,76,166,72,0,1,8,0,1,1,0,0,4.396512206924438,0,0,0,-20,0,-4,0,14,0,7,"",""
298,11398737,0,0,0,0,0,0,0,0,0,-45,0,-8,1000,152,0,512,-6,0,3,-19645,0,-3236,0,83,175,82,0,1,8,0,1,1,0,0,4.3964409151867345,0,0,0,-20,0,-4,0,14,0,7,"",""
299,11400089,0,0,0,0,0,0,0,0,0,-45,0,-8,1000,152,0,512,-7,0,3,-19647,0,-3236,0,74,167,89,0,1,8,0,1,1,0,0,4.396370211166467,0,0,0,-20,0,-4,0,13,0,7,"",""
300,11401433,0,0,0,0,0,0,0,0,0,-45,0,-8,1000,152,0,512,-7,0,3,-19649,0,-3236,0,79,169,95,0,1,8,0,1,1,0,0,4.396299925515311,0,0,0,-20,0,-4,0,13,0,7,"",""
301,11402786,0,0,0,0,0,0,0,0,0,-45,0,-8,1000,152,0,512,-7,0,3,-19651,0,-3236,0,80,165,96,0,1,8,0,1,1,0,0,4.396229169205379,0,0,0,-20,0,-4,0,13,0,7,"",""
302,11404132,0,0,0,0,0,0,0,0,0,-45,0,-8,1000,152,0,512,-8,0,3,-19653,0,-3236,0,77,152,96,0,1,8,0,1,1,0,0,4.3961587912819455,0,0,0,-20,0,-4,0,12,0,7,"",""
303,11405496,0,0,0,0,0,0,0,0,0,-45,0,-8,1000,152,0,512,-8,0,2,-19656,0,-3236,0,100,157,100,0,1,8,0,1,1,0,0,4.396111278499039,0,0,0,-20,0,-4,0,12,0,6,"",""
304,11406854,0,0,0,0,0,0,0,0,0,-45,0,-8,1000,152,0,512,-8,-1,1,-19658,0,-3236,0,116,148,105,0,1,8,0,1,1,0,0,4.396087676295731,0,0,0,-20,0,-4,0,12,-1,5,"",""
305,11408203,0,0,0,0,0,0,0,0,0,-45,0,-8,1000,152,0,512,-8,-1,1,-19660,0,-3236,0,125,144,98,0,1,8,0,1,1,0,0,4.396064234991015,0,0,0,-20,0,-4,0,12,-1,5,"",""
306,11409557,0,0,0,0,0,0,0,0,0,-45,0,-8,1000,152,0,512,-8,-1,0,-19660,0,-3236,0,133,141,88,0,1,8,0,1,1,0,0,4.396064343025572,0,0,0,-20,0,-4,0,12,-1,4,"",""
307,11410902,0,0,0,0,0,0,0,0,0,-45,0,-8,1000,152,0,512,-8,-2,-1,-19661,0,-3236,0,147,134,88,0,1,8,0,1,1,0,0,4.3960879294668675,0,0,0,-20,0,-4,0,12,-2,3,"",""
308,11412248,0,0,0,0,0,0,0,0,0,-45,0,-8,1000,152,0,512,-8,-2,-1,-19662,0,-3236,0,158,139,77,0,1,8,0,1,1,0,0,4.396111542282299,0,0,0,-20,0,-4,0,12,-2,3,"",""
309,11413591,0,0,0,0,0,0,0,0,0,-45,0,-8,1000,152,0,512,-7,-2,-2,-19662,0,-3236,0,157,143,60,0,1,8,0,1,1,0,0,4.3961585349074905,0,0,0,-20,0,-4,0,13,-2,2,"",""
310,11414961,0,0,0,0,0,0,0,0,0,-45,0,-8,1000,152,0,512,-7,-2,-2,-19663,0,-3236,0,169,145,61,0,1,8,0,1,1,0,0,4.396206480141007,0,0,0,-20,0,-4,0,13,-2,2,"",""
311,11416335,0,0,0,0,0,0,0,0,0,-45,0,-8,1000,152,0,512,-7,-2,-2,-19664,0,-3236,0,169,149,56,0,1,8,0,1,1,0,0,4.3962545733978935,0,0,0,-20,0,-4,0,13,-2,2,"",""
312,11417700,0,0,0,0,0,0,0,0,0,-45,0,-8,1000,152,0,512,-7,-2,-1,-19664,0,-3236,0,160,154,47,0,1,8,0,1,1,0,0,4.396278535895958,0,0,0,-20,0,-4,0,13,-2,3,"",""
313,11419191,0,0,0,0,0,0,0,0,0,-45,0,-8,1000,152,0,512,-6,-2,-1,-19664,0,-3236,0,159,155,53,0,1,8,0,1,1,0,0,4.396304696109354,0,0,0,-20,0,-4,0,14,-2,3,"",""
314,11420680,0,0,0,0,0,0,0,0,0,-45,0,-8,1000,152,0,512,-6,-2,-1,-19664,0,-3236,0,145,156,51,0,1,8,0,1,1,0,0,4.396330829352731,0,0,0,-20,0,-4,0,14,-2,3,"",""
315,11422031,0,0,0,0,0,0,0,0,0,-45,0,-8,1000,152,0,512,-7,-2,0,-19665,0,-3236,0,119,152,47,0,1,8,0,1,1,0,0,4.396330991734439,0,0,0,-20,0,-4,0,13,-2,4,"",""
316,11423390,0,0,0,0,0,0,0,0,0,-45,0,-8,1000,152,0,512,-7,-2,1,-19665,0,-3236,0,122,160,58,0,1,8,0,1,1,0,0,4.3963074438869745,0,0,0,-20,0,-4,0,13,-2,5,"",""
317,11424752,0,0,0,0,0,0,0,0,0,-45,0,-8,1000,152,0,512,-7,-1,1,-19665,0,-3236,0,107,156,61,0,1,8,0,1,1,0,0,4.3962838519588585,0,0,0,-20,0,-4,0,13,-1,5,"",""
318,11426102,0,0,0,0,0,0,0,0,0,-45,0,-8,1000,152,0,512,-7,-1,1,-19665,0,-3236,0,94,160,57,0,1,8,0,1,1,0,0,4.39626047181428,0,0,0,-20,0,-4,0,13,-1,5,"",""
319,11427455,0,0,0,0,0,0,0,0,0,-45,0,-8,1000,152,0,512,-7,-1,2,-19666,0,-3236,0,83,148,68,0,1,8,0,1,1,0,0,4.396213429308892,0,0,0,-20,0,-4,0,13,-1,6,"",""
320,11428800,0,0,0,0,0,0,0,0,0,-45,0,-8,1000,152,0,512,-8,-1,2,-19666,0,-3236,0,138,199,139,62,1,8,0,1,1,0,0,4.396166695827309,0,0,0,-20,0,-4,0,12,-1,6,"",""
321,11430145,0,0,0,0,0,0,0,0,0,-45,0,-8,1000,152,0,512,-8,-1,2,-19666,0,-3236,0,137,204,134,62,1,8,0,1,1,0,0,4.3961199667631385,0,0,0,-20,0,-4,0,12,-1,6,"",""
322,11431487,0,0,0,0,0,0,0,0,0,-45,0,-8,1000,152,0,512,-9,-1,1,-19666,0,-3236,0,131,184,142,62,1,8,0,1,1,0,0,4.3960967966835645,0,0,0,-20,0,-4,0,11,-1,5,"",""
323,11432851,0,0,0,0,0,0,0,0,0,-45,0,-8,1000,152,0,512,-9,-1,1,-19666,0,-3236,0,147,180,149,62,1,8,0,1,1,0,0,4.396073251801248,0,0,0,-20,0,-4,0,11,-1,5,"",""
324,11434254,0,0,0,0,0,0,0,0,0,-45,0,-8,1000,152,0,512,-9,-1,0,-19666,0,-3236,0,157,180,143,62,1,8,0,1,1,0,0,4.396073525948897,0,0,0,-20,0,-4,0,11,-1,4,"",""
325,11435603,0,0,0,0,0,0,0,0,0,-44,0,-8,1000,152,0,512,-10,-2,-1,-19260,0,-3236,0,154,161,138,62,1,8,0,1,1,0,0,4.396097369100853,0,0,0,-19,0,-4,0,9,-2,3,"",""
326,11436953,0,0,0,0,0,0,0,0,0,-43,0,-8,1000,152,0,512,-9,-2,-2,-18856,0,-3236,0,178,163,139,62,1,8,0,1,1,0,0,4.396144771986855,0,0,0,-19,0,-4,0,10,-2,2,"",""
327,11438296,0,0,0,0,0,0,0,0,0,-42,0,-8,1000,152,0,512,-9,-2,-2,-18452,0,-3236,0,170,160,118,62,1,8,0,1,1,0,0,4.396191939039731,0,0,0,-19,0,-4,0,10,-2,2,"",""
328,11439642,0,0,0,0,0,0,0,0,0,-41,0,-8,1000,152,0,512,-9,-2,-3,-18050,0,-3236,0,180,155,117,62,1,8,0,1,1,0,0,4.3962627135145915,0,0,0,-18,0,-4,0,9,-2,1,"",""
329,11440995,0,0,0,0,0,0,0,0,0,-40,0,-8,1000,152,0,512,-9,-2,-3,-17648,0,-3236,0,198,167,113,62,1,8,0,1,1,0,0,4.396333866060187,0,0,0,-18,0,-4,0,9,-2,1,"",""
330,11442358,0,0,0,0,0,0,0,0,0,-39,0,-8,1000,152,0,512,-9,-2,-3,-17248,0,-3236,0,183,158,103,62,1,8,0,1,1,0,0,4.396405554617847,0,0,0,-17,0,-4,0,8,-2,1,"",""
331,11443718,0,0,0,0,0,0,0,0,0,-38,0,-8,1000,152,0,512,-8,-2,-3,-16849,0,-3236,0,193,171,100,62,1,8,0,1,1,0,0,4.396477058725998,0,0,0,-17,0,-4,0,9,-2,1,"",""
332,11445069,0,0,0,0,0,0,0,0,0,-36,0,-8,1000,152,0,512,-8,-2,-2,-16143,0,-3236,0,178,163,99,62,1,8,0,1,1,0,0,4.39652451920893,0,0,0,-16,0,-4,0,8,-2,2,"",""
333,11446423,0,0,0,0,0,0,0,0,0,-35,0,-8,1000,152,0,512,-8,-2,-2,-15440,0,-3236,0,167,159,105,62,1,8,0,1,1,0,0,4.396572094000261,0,0,0,-15,0,-4,0,7,-2,2,"",""
334,11447779,0,0,0,0,0,0,0,0,0,-33,0,-8,1000,152,0,512,-8,-2,-1,-14740,0,-3236,0,167,174,107,62,1,8,0,1,1,0,0,4.396596081350136,0,0,0,-14,0,-4,0,6,-2,3,"",""
335,11449268,0,0,0,0,0,0,0,0,0,-31,0,-8,1000,152,0,512,-8,-2,0,-14044,0,-3236,0,130,159,104,62,1,8,0,1,1,0,0,4.396596443328077,0,0,0,-14,0,-4,0,6,-2,4,"",""
336,11450772,0,0,0,0,0,0,0,0,0,-30,0,-8,1000,152,0,512,-8,-2,0,-13351,0,-3236,0,126,162,117,62,1,8,0,1,1,0,0,4.396596819862837,0,0,0,-13,0,-4,0,5,-2,4,"",""
337,11452131,0,0,0,0,0,0,0,0,0,-28,0,-8,1000,152,0,512,-8,-1,1,-12661,0,-3236,0,112,166,121,62,1,8,0,1,1,0,0,4.396573451024436,0,0,0,-12,0,-4,0,4,-1,5,"",""
338,11453485,0,0,0,0,0,0,0,0,0,-26,0,-8,1000,152,0,512,-8,-1,2,-11776,0,-3236,0,92,159,127,62,1,8,0,1,1,0,0,4.396526540885634,0,0,0,-11,0,-4,0,3,-1,6,"",""
339,11454835,0,0,0,0,0,0,0,0,0,-24,0,-8,1000,152,0,512,-8,-1,2,-10897,0,-3236,0,91,163,138,62,1,8,0,1,1,0,0,4.396479773779321,0,0,0,-10,0,-4,0,2,-1,6,"",""
340,11456188,0,0,0,0,0,0,0,0,0,-22,0,-8,1000,152,0,512,-8,-1,3,-10022,0,-3236,0,75,155,145,62,1,8,0,1,1,0,0,4.3964092928897545,0,0,0,-10,0,-4,0,2,-1,7,"",""
341,11457536,0,0,0,0,0,0,0,0,0,-20,0,-8,1000,152,0,512,-9,-1,3,-9153,0,-3236,0,66,144,155,62,1,8,0,1,1,0,0,4.396339122546324,0,0,0,-9,0,-4,0,0,-1,7,"",""
342,11458881,0,0,0,0,0,0,0,0,0,-18,0,-8,1000,152,0,512,-9,-1,3,-8289,0,-3236,0,62,140,161,64,1,8,0,1,1,0,0,4.396269113340588,0,0,0,-8,0,-4,0,-1,-1,7,"",""
343,11460243,0,0,0,0,0,0,0,0,0,-16,0,-8,1000,152,0,512,-9,-1,2,-7429,0,-3236,0,62,128,171,64,1,8,0,1,1,0,0,4.396221995671581,0,0,0,-7,0,-4,0,-2,-1,6,"",""
344,11461606,0,0,0,0,0,0,0,0,0,-14,0,-8,1000,152,0,512,-9,-1,2,-6575,0,-3236,0,77,131,174,62,1,8,0,1,1,0,0,4.3961748485061065,0,0,0,-6,0,-4,0,-3,-1,6,"",""
345,11462959,0,0,0,0,0,0,0,0,0,-12,0,-8,1000,152,0,512,-9,-2,2,-5922,0,-3236,0,63,113,167,62,1,8,0,1,1,0,0,4.396128052299177,0,0,0,-5,0,-4,0,-4,-2,6,"",""
346,11464305,0,0,0,0,0,0,0,0,0,-11,0,-8,1000,152,0,512,-9,-2,1,-5272,0,-3236,0,62,102,164,62,1,8,0,1,1,0,0,4.396105000328094,0,0,0,-5,0,-4,0,-4,-2,5,"",""
347,11465665,0,0,0,0,0,0,0,0,0,-9,0,-8,1000,152,0,512,-8,-2,1,-4625,0,-3236,0,81,108,165,62,1,8,0,1,1,0,0,4.396081668102519,0,0,0,-4,0,-4,0,-4,-2,5,"",""
348,11467010,0,0,0,0,0,0,0,0,0,-8,0,-8,1000,152,0,512,-8,-2,0,-3981,0,-3236,0,74,97,157,62,1,8,0,1,1,0,0,4.39608207682205,0,0,0,-4,0,-4,0,-4,-2,4,"",""
349,11468366,0,0,0,0,0,0,0,0,0,-6,0,-8,1000,152,0,512,-8,-2,0,-3339,0,-3236,0,82,104,150,62,1,8,0,1,1,0,0,4.396082497786896,0,0,0,-3,0,-4,0,-5,-2,4,"",""
350,11469730,0,0,0,0,0,0,0,0,0,-5,0,-8,1000,152,0,512,-7,-2,0,-2701,0,-3236,0,88,104,147,62,1,8,0,1,1,0,0,4.3960828761977915,0,0,0,-2,0,-4,0,-5,-2,4,"",""
351,11471081,0,0,0,0,0,0,0,0,0,-4,-1,-8,1000,152,0,512,-7,-2,-1,-2065,0,-3236,0,93,103,148,62,1,8,0,1,1,0,0,4.396106838269234,0,0,0,-2,-1,-4,0,-5,-1,3,"",""
352,11472430,0,0,0,0,0,0,0,0,0,-4,-2,-8,1000,152,0,512,-6,-2,0,-1938,-400,-3236,0,138,154,181,103,1,8,0,1,1,0,0,4.396107172455241,0,0,0,-2,-1,-4,0,-4,-1,4,"",""
353,11473780,0,0,0,0,0,0,0,0,0,-4,-3,-8,1000,152,0,512,-6,-2,0,-1811,-802,-3236,0,120,146,171,103,1,8,0,1,1,0,0,4.3961075135528,0,0,0,-2,-1,-4,0,-4,-1,4,"",""
354,11475147,0,0,0,0,0,0,0,0,0,-3,-4,-8,1000,152,0,512,-6,-2,0,-1685,-1205,-3236,0,135,162,172,103,1,8,0,1,1,0,0,4.396107865698437,0,0,0,-1,-2,-4,0,-5,0,4,"",""
355,11476632,0,0,0,0,0,0,0,0,0,-3,-5,-8,1000,152,0,512,-5,-2,0,-1558,-1609,-3236,0,129,165,166,103,1,8,0,1,1,0,0,4.3961081906656645,0,0,0,-1,-2,-4,0,-4,0,4,"",""
356,11478135,0,0,0,0,0,0,0,0,0,-3,-6,-8,1000,152,0,512,-5,-2,0,-1432,-2014,-3236,0,108,162,152,103,1,8,0,1,1,0,0,4.396108526376304,0,0,0,-1,-3,-4,0,-4,1,4,"",""
357,11479514,0,0,0,0,0,0,0,0,0,-3,-7,-8,1000,152,0,512,-4,-2,0,-1306,-2420,-3236,0,118,182,146,103,1,8,0,1,1,0,0,4.396108777832268,0,0,0,-1,-3,-4,0,-3,1,4,"",""
358,11480862,0,0,0,0,0,0,0,0,0,-2,-8,-8,1000,152,0,512,-4,-2,0,-1250,-3009,-3236,0,109,181,142,103,1,8,0,1,1,0,0,4.39610902816808,0,0,0,-1,-4,-4,0,-3,2,4,"",""
359,11482206,0,0,0,0,0,0,0,0,0,-2,-10,-8,1000,152,0,512,-4,-1,1,-1194,-3600,-3236,0,103,193,142,118,1,8,0,1,1,0,0,4.396085824977622,0,0,0,-1,-4,-4,0,-3,3,5,"",""
360,11483554,0,0,0,0,0,0,0,0,0,-2,-11,-8,1000,152,0,512,-3,-1,1,-1138,-4194,-3236,0,103,208,133,122,1,8,0,1,1,0,0,4.396062490682536,0,0,0,-1,-5,-4,0,-2,4,5,"",""
361,11484905,0,0,0,0,0,0,0,0,0,-2,-13,-8,1000,152,0,512,-3,-1,1,-1081,-4790,-3236,0,103,211,147,138,1,8,0,1,1,0,0,4.396039106121104,0,0,0,-1,-6,-4,0,-2,5,5,"",""
362,11486267,0,0,0,0,0,0,0,0,0,-2,-14,-8,1000,152,0,512,-3,0,1,-1025,-5388,-3236,0,103,227,146,154,1,8,0,1,1,0,0,4.3960155328713215,0,0,0,-1,-6,-4,0,-2,6,5,"",""
363,11487634,0,0,0,0,0,0,0,0,0,-2,-16,-8,1000,152,0,512,-3,0,1,-970,-5989,-3236,0,103,234,141,157,1,8,0,1,1,0,0,4.395991873084778,0,0,0,-1,-7,-4,0,-2,7,5,"",""
364,11488985,0,0,0,0,0,0,0,0,0,-2,-16,-8,1000,152,0,512,-3,0,0,-914,-6593,-3236,0,103,233,143,161,1,8,0,1,1,0,0,4.395992069623926,0,0,0,-1,-7,-4,0,-2,7,4,"",""
365,11490348,0,0,0,0,0,0,0,0,0,-2,-16,-8,1000,152,0,512,-2,1,0,-902,-6714,-3236,0,103,240,138,170,1,8,0,1,1,0,0,4.3959922018476165,0,0,0,-1,-7,-4,0,-1,8,4,"",""
366,11491690,0,0,0,0,0,0,0,0,0,-2,-16,-8,1000,152,0,512,-2,1,0,-891,-6835,-3236,0,103,239,138,177,1,8,0,1,1,0,0,4.395992330920532,0,0,0,-1,-7,-4,0,-1,8,4,"",""
367,11493035,0,0,0,0,0,0,0,0,0,-2,-17,-8,1000,152,0,512,-2,1,-1,-880,-6956,-3236,0,103,229,129,164,1,8,0,1,1,0,0,4.39601593386156,0,0,0,-1,-7,-4,0,-1,8,3,"",""
368,11494376,0,0,0,0,0,0,0,0,0,-2,-17,-8,1000,152,0,512,-2,1,-1,-869,-7077,-3236,0,103,231,128,175,1,8,0,1,1,0,0,4.396039465508412,0,0,0,-1,-7,-4,0,-1,8,3,"",""
369,11495732,0,0,0,0,0,0,0,0,0,-2,-17,-8,1000,152,0,512,-2,1,-1,-858,-7199,-3236,0,103,220,127,175,1,8,0,1,1,0,0,4.396063259264222,0,0,0,-1,-7,-4,0,-1,8,3,"",""
370,11497092,0,0,0,0,0,0,0,0,0,-2,-18,-8,1000,152,0,512,-2,1,-2,-846,-7320,-3236,0,103,214,113,165,1,8,0,1,1,0,0,4.3961108585616255,0,0,0,-1,-8,-4,0,-1,9,2,"",""
371,11498447,0,0,0,0,0,0,0,0,0,-2,-18,-8,1000,152,0,512,-2,1,-2,-841,-7421,-3236,0,103,210,113,172,1,8,0,1,1,0,0,4.396158281736607,0,0,0,-1,-8,-4,0,-1,9,2,"",""
372,11499798,0,0,0,0,0,0,0,0,0,-2,-18,-8,1000,152,0,512,-2,1,-2,-837,-7522,-3236,0,103,192,103,156,1,8,0,1,1,0,0,4.396205563799366,0,0,0,-1,-8,-4,0,-1,9,2,"",""
373,11501143,0,0,0,0,0,0,0,0,0,-2,-18,-8,1000,152,0,512,-1,1,-3,-832,-7623,-3236,0,121,206,103,160,1,8,0,1,1,0,0,4.396276048647798,0,0,0,-1,-8,-4,0,0,9,1,"",""
374,11502490,0,0,0,0,0,0,0,0,0,-2,-19,-8,1000,152,0,512,-1,1,-3,-827,-7724,-3236,0,117,199,103,164,1,8,0,1,1,0,0,4.396346637750279,0,0,0,-1,-8,-4,0,0,9,1,"",""
375,11503854,0,0,0,0,0,0,0,0,0,-2,-19,-8,1000,152,0,512,-1,1,-3,-822,-7825,-3236,0,128,202,103,161,1,8,0,1,1,0,0,4.3964181171683485,0,0,0,-1,-8,-4,0,0,9,1,"",""
376,11505355,0,0,0,0,0,0,0,0,0,-2,-19,-8,1000,152,0,512,-1,1,-3,-817,-7926,-3236,0,141,210,103,161,1,8,0,1,1,0,0,4.396496775342401,0,0,0,-1,-8,-4,0,0,9,1,"",""
377,11506854,0,0,0,0,0,0,0,0,0,-2,-19,-8,1000,152,0,512,-1,1,-3,-812,-8027,-3236,0,145,215,103,163,1,8,0,1,1,0,0,4.396575328018237,0,0,0,-1,-8,-4,0,0,9,1,"",""
378,11508207,0,0,0,0,0,0,0,0,0,-2,-19,-8,1000,152,0,512,0,1,-3,-811,-8048,-3236,0,149,218,103,162,1,8,0,1,1,0,0,4.396646170927303,0,0,0,-1,-8,-4,0,1,9,1,"",""
379,11509551,0,0,0,0,0,0,0,0,0,-2,-19,-8,1000,152,0,512,0,0,-3,-810,-8068,-3236,0,156,224,103,160,1,8,0,1,1,0,0,4.396716542602744,0,0,0,-1,-8,-4,0,1,8,1,"",""
380,11510892,0,0,0,0,0,0,0,0,0,-2,-19,-8,1000,152,0,512,1,0,-3,-809,-8088,-3236,0,167,234,103,157,1,8,0,1,1,0,0,4.396786700017779,0,0,0,-1,-8,-4,0,2,8,1,"",""
