"Product","Blackbox flight data recorder by Nicholas Sherlock"
"firmwareType",3
"firmware","3.3"
"firmwarePatch",3
"firmwareVersion","3.3.3"
"Firmware revision","Betaflight 3.3.3 (a2d5a6482) MATEKF722"
"Firmware date","Apr 16 2020 13:32:09"
"Log start datetime","0000-01-01T00:00:00.000+00:00"
"Craft name","NEUROFLIGHT"
"frameIntervalI",32
"frameIntervalPNum",1
"frameIntervalPDenom",1
"minthrottle",1070
"maxthrottle",2000
"gyroScale",1.7453292519943295e-8
"motorOutput","128,2047"
"acc_1G",2048
"vbatscale",110
"vbatmincellvoltage",33
"vbatwarningcellvoltage",35
"vbatmaxcellvoltage",43
"vbatref",149
"currentMeterOffset",0
"currentMeterScale",179
"looptime",125
"gyro_sync_denom",1
"pid_process_denom",8
"thrMid",50
"thrExpo",0
"dynThrPID",10
"tpa_breakpoint",1650
"rc_rates","100,100,100"
"rc_expo","0,0,0"
"rates","70,70,70"
"rollPID","40,40,30"
"pitchPID","58,50,35"
"yawPID","70,45,20"
"altPID","50,0,0"
"posPID","15,0,0"
"posrPID","34,14,53"
"navrPID","25,33,83"
"levelPID","50,50,75"
"magPID","40,,"
"velPID","55,55,75"
"dterm_filter_type",1
"dterm_lpf_hz",100
"yaw_lpf_hz",0
"dterm_notch_hz",260
"dterm_notch_cutoff",160
"itermWindupPointPercent",50
"vbat_pid_compensation",0
"pidAtMinThrottle",1
"anti_gravity_threshold",350
"anti_gravity_gain",1000
"setpointRelaxRatio",100
"dtermSetpointWeight",0
"yawRateAccelLimit",0.1
"rateAccelLimit",0
"pidSumLimit",500
"pidSumLimitYaw",400
"deadband",0
"yaw_deadband",0
"gyro_lpf",0
"gyro_soft_type",0
"gyro_lowpass_hz",90
"gyro_notch_hz","400,200"
"gyro_notch_cutoff","300,100"
"acc_lpf_hz",1000
"acc_hardware",0
"baro_hardware",0
"mag_hardware",0
"gyro_cal_on_first_arm",0
"rc_interpolation",2
"rc_interpolation_interval",19
"airmode_activate_throttle",32
"serialrx_provider",2
"unsynced_fast_pwm",0
"fast_pwm_protocol",7
"motor_pwm_rate",480
"digitalIdleOffset",400
"debug_mode",0
"features",263176
"loopIteration","time","axisP[0]","axisP[1]","axisP[2]","axisI[0]","axisI[1]","axisI[2]","axisD[0]","axisD[1]","axisD[2]","rcCommand[0]","rcCommand[1]","rcCommand[2]","rcCommand[3]","vbatLatest","amperageLatest","BaroAlt","gyroADC[0]","gyroADC[1]","gyroADC[2]","accSmooth[0]","accSmooth[1]","accSmooth[2]","motor[0]","motor[1]","motor[2]","motor[3]","flightModeFlags","stateFlags","failsafePhase","rxSignalReceived","rxFlightChannelsValid","heading[0]","heading[1]","heading[2]","axisSum[0]","axisSum[1]","axisSum[2]","rcCommands[0]","rcCommands[1]","rcCommands[2]","rcCommands[3]","axisError[0]","axisError[1]","axisError[2]"
0,243232391,0,0,0,0,0,0,0,0,0,0,0,-1,1000,149,0,82,0,0,0,-131,51,2073,128,116,121,93,"","","","","",0.02459706431277795,0.06309048178488438,4.396484385773716,0,0,0,0,0,-1,0,0,0,1,"",""
1,243233889,0,0,0,0,0,0,0,0,0,0,0,-1,1000,149,0,82,0,0,0,-131,51,2073,128,116,120,93,1,8,0,1,1,0.02459706431277795,0.0630904817848844,4.396484385773716,0,0,0,0,0,-1,0,0,0,1,"",""
2,243235514,0,0,0,0,0,0,0,0,0,0,0,-1,1000,149,0,82,0,0,0,-131,51,2072,129,116,121,93,1,8,0,1,1,0.024601025088662118,0.06310061202830418,4.396484385773716,0,0,0,0,0,-1,0,0,0,1,"",""
3,243237133,0,0,0,0,0,0,0,0,0,0,0,-1,1000,149,0,82,0,0,0,-131,51,2072,129,116,121,93,1,8,0,1,1,0.02460300595214136,0.06310567836103263,4.396484385773716,0,0,0,0,0,-1,0,0,0,1,"",""
4,243238626,0,0,0,0,0,0,0,0,0,0,0,-1,1000,149,0,82,0,0,0,-131,51,2072,130,116,122,93,1,8,0,1,1,0.024604194621126032,0.06310871854493413,4.396484385773716,0,0,0,0,0,-1,0,0,0,1,"",""
5,243240166,0,0,0,0,0,0,0,0,0,0,0,-1,1000,149,0,82,0,0,0,-131,51,2071,129,115,122,93,1,8,0,1,1,0.024606973583328726,0.06311582611687394,4.396484385773716,0,0,0,0,0,-1,0,0,0,1,"",""
6,243241655,0,0,0,0,0,0,0,0,0,0,0,-1,1000,149,0,82,0,0,0,-131,51,2071,129,114,122,93,1,8,0,1,1,0.024608958935114136,0.06312090391855571,4.396484385773716,0,0,0,0,0,-1,0,0,0,1,"",""
7,243243142,0,0,0,0,0,0,0,0,0,0,0,-1,1000,149,0,82,0,0,0,-131,51,2070,128,114,122,93,1,8,0,1,1,0.024611941105686132,0.06312853121049006,4.396484385773716,0,0,0,0,0,-1,0,0,0,1,"",""
8,243244626,0,0,0,0,0,0,0,0,0,0,0,-1,1000,149,0,82,0,0,0,-131,51,2069,129,115,122,93,1,8,0,1,1,0.024615589636041813,0.06313786279410626,4.396484385773716,0,0,0,0,0,-1,0,0,0,1,"",""
9,243246115,0,0,0,0,0,0,0,0,0,0,0,-1,1000,149,0,82,0,0,0,-131,51,2069,127,114,122,93,1,8,0,1,1,0.024618509226962945,0.06314533001323622,4.396484385773716,0,0,0,0,0,-1,0,0,0,1,"",""
10,243247597,0,0,0,0,0,0,0,0,0,0,0,-1,1000,149,0,82,0,0,0,-131,51,2068,128,115,121,93,1,8,0,1,1,0.024621987884961418,0.06315422710646966,4.396484385773716,0,0,0,0,0,-1,0,0,0,1,"",""
11,243249083,0,0,0,0,0,0,0,0,0,0,0,-1,1000,149,0,82,0,0,0,-131,51,2068,128,115,120,93,1,8,0,1,1,0.024624887502788562,0.06316164322542159,4.396484385773716,0,0,0,0,0,-1,0,0,0,1,"",""
12,243250576,0,0,0,0,0,0,0,0,0,0,0,-1,1000,149,0,82,0,0,0,-131,51,2067,128,116,119,93,1,8,0,1,1,0.024628265351632556,0.0631702824678832,4.396484385773716,0,0,0,0,0,-1,0,0,0,1,"",""
13,243252063,0,0,0,0,0,0,0,0,0,0,0,-1,1000,149,0,82,0,0,0,-131,51,2067,128,116,119,93,1,8,0,1,1,0.024631161370749007,0.06317768936651852,4.396484385773716,0,0,0,0,0,-1,0,0,0,1,"",""
14,243253550,0,0,0,0,0,0,0,0,0,0,0,-1,1000,149,0,82,0,0,0,-131,51,2066,130,117,120,93,1,8,0,1,1,0.024634474158212856,0.06318616218849647,4.396484385773716,0,0,0,0,0,-1,0,0,0,1,"",""
15,243255031,0,0,0,0,0,0,0,0,0,0,0,-1,1000,149,0,82,0,0,0,-131,51,2065,129,116,120,93,1,8,0,1,1,0.024638126628198264,0.06319550377493009,4.396484385773716,0,0,0,0,0,-1,0,0,0,1,"",""
16,243256512,0,0,0,0,0,0,0,0,0,0,0,-1,1000,149,0,82,0,0,0,-130,51,2065,129,115,121,93,1,8,0,1,1,0.024641350271368538,0.0631750647252351,4.396484385773716,0,0,0,0,0,-1,0,0,0,1,"",""
17,243258047,0,0,0,0,0,0,0,0,0,0,0,0,1000,149,0,82,0,0,0,-130,51,2064,128,115,122,93,1,8,0,1,1,0.02464488729380742,0.0631586066597304,4.396484385773716,0,0,0,0,0,0,0,0,0,0,"",""
18,243259537,0,0,0,0,0,0,0,0,0,0,0,0,1000,149,0,82,0,0,0,-130,51,2063,128,112,118,93,1,8,0,1,1,0.024648689123198467,0.06314550251408661,4.396484385773716,0,0,0,0,0,0,0,0,0,0,"",""
19,243261023,0,0,0,0,0,0,0,0,0,0,0,0,1000,149,0,82,0,0,0,-130,51,2063,127,110,116,93,1,8,0,1,1,0.024652111742419214,0.06313370541071445,4.396484385773716,0,0,0,0,0,0,0,0,0,0,"",""
20,243262508,0,0,0,0,0,0,0,0,0,0,0,0,1000,149,0,82,0,0,0,-130,52,2062,127,110,115,93,1,8,0,1,1,0.024679183333060965,0.06312446573882499,4.396484385773716,0,0,0,0,0,0,0,0,0,0,"",""
21,243263995,0,0,0,0,0,0,0,0,0,0,0,0,1000,149,0,82,0,0,0,-130,52,2062,128,111,114,93,1,8,0,1,1,0.02470380060640444,0.06311606368851705,4.396484385773716,0,0,0,0,0,0,0,0,0,0,"",""
22,243265478,0,0,0,0,0,0,0,0,0,0,0,0,1000,149,0,82,0,0,0,-130,52,2061,129,111,115,93,1,8,0,1,1,0.024726812171003674,0.06310973749314013,4.396484385773716,0,0,0,0,0,0,0,0,0,0,"",""
23,243266963,0,0,0,0,0,0,0,0,0,0,0,0,1000,149,0,82,0,0,0,-130,52,2060,129,111,115,93,1,8,0,1,1,0.024748419963612583,0.0631052291287557,4.396484385773716,0,0,0,0,0,0,0,0,0,0,"",""
24,243268453,0,0,0,0,0,0,0,0,0,0,0,0,1000,149,0,82,0,0,0,-130,52,2060,130,111,116,93,1,8,0,1,1,0.024768304758284794,0.06310108023155993,4.396484385773716,0,0,0,0,0,0,0,0,0,0,"",""
25,243269952,0,0,0,0,0,0,0,0,0,0,0,0,1000,149,0,82,0,0,0,-130,52,2059,131,112,117,93,1,8,0,1,1,0.024787135503344694,0.06309844448213418,4.396484385773716,0,0,0,0,0,0,0,0,0,0,"",""
26,243271580,0,0,0,0,0,0,0,0,0,0,0,0,1000,149,0,82,0,0,0,-130,52,2059,130,111,117,93,1,8,0,1,1,0.024804576175600366,0.06309600328125185,4.396484385773716,0,0,0,0,0,0,0,0,0,0,"",""
27,243273200,0,0,0,0,0,0,0,0,0,0,0,0,1000,149,0,82,0,0,0,-130,52,2058,128,111,116,93,1,8,0,1,1,0.024821213805744355,0.06309484760837264,4.396484385773716,0,0,0,0,0,0,0,0,0,0,"",""
28,243274696,0,0,0,0,0,0,0,0,0,0,0,0,1000,149,0,82,0,0,0,-130,52,2058,128,111,115,93,1,8,0,1,1,0.024836708176660782,0.06309377133204949,4.396484385773716,0,0,0,0,0,0,0,0,0,0,"",""
29,243276192,0,0,0,0,0,0,0,0,0,0,0,0,1000,149,0,82,0,0,0,-130,52,2057,127,111,114,93,1,8,0,1,1,0.02485158385660135,0.06309380616529697,4.396484385773716,0,0,0,0,0,0,0,0,0,0,"",""
30,243277680,0,0,0,0,0,0,0,0,0,0,0,0,1000,149,0,82,0,0,0,-130,53,2057,124,110,112,93,1,8,0,1,1,0.02488150735418031,0.06309381369273986,4.396484385773716,0,0,0,0,0,0,0,0,0,0,"",""
31,243279167,0,0,0,0,0,0,0,0,0,0,0,0,1000,149,0,82,0,0,0,-130,53,2056,125,109,113,93,1,8,0,1,1,0.02490995414286522,0.06309479723911474,4.396484385773716,0,0,0,0,0,0,0,0,0,0,"",""
32,243280649,0,0,0,0,0,0,0,0,0,0,0,0,1000,149,0,82,0,0,0,-130,53,2056,128,111,116,95,1,8,0,1,1,0.024936683789788944,0.06309572136887877,4.396484385773716,0,0,0,0,0,0,0,0,0,0,"",""
33,243282130,0,0,0,0,0,0,0,0,0,0,0,0,1000,149,0,82,0,0,0,-130,53,2055,128,112,117,95,1,8,0,1,1,0.024962212550199,0.06309751220930278,4.396484385773716,0,0,0,0,0,0,0,0,0,0,"",""
34,243283616,0,0,0,0,0,0,0,0,0,0,0,0,1000,149,0,82,0,0,0,-130,53,2055,127,111,117,95,1,8,0,1,1,0.024986288656687672,0.063099201108225,4.396484385773716,0,0,0,0,0,0,0,0,0,0,"",""
35,243285105,0,0,0,0,0,0,0,0,0,0,0,-1,1000,149,0,82,0,0,0,-130,53,2054,128,111,117,95,1,8,0,1,1,0.02500937902186976,0.06310166799461087,4.396484385773716,0,0,0,0,0,-1,0,0,0,1,"",""
36,243286607,0,0,0,0,0,0,0,0,0,0,0,-1,1000,149,0,82,0,0,0,-130,53,2054,130,116,121,95,1,8,0,1,1,0.025031226754954325,0.06310400209132928,4.396484385773716,0,0,0,0,0,-1,0,0,0,1,"",""
37,243288097,0,0,0,0,0,0,0,0,0,0,0,-1,1000,149,0,82,0,0,0,-130,53,2053,129,116,122,95,1,8,0,1,1,0.02505225885568291,0.06310704108969391,4.396484385773716,0,0,0,0,0,-1,0,0,0,1,"",""
38,243289580,0,0,0,0,0,0,0,0,0,0,0,-1,1000,149,0,82,0,0,0,-130,54,2053,129,117,122,95,1,8,0,1,1,0.02508503631315264,0.06310990469350751,4.396484385773716,0,0,0,0,0,-1,0,0,0,1,"",""
39,243291060,0,0,0,0,0,0,0,0,0,0,0,-1,1000,149,0,82,0,0,0,-130,54,2053,131,117,123,95,1,8,0,1,1,0.025116182193038444,0.06311262569086586,4.396484385773716,0,0,0,0,0,-1,0,0,0,1,"",""
40,243292544,0,0,0,0,0,0,0,0,0,0,0,-1,1000,149,0,82,0,0,0,-130,54,2052,130,117,123,95,1,8,0,1,1,0.025146122586531927,0.06311598349183996,4.396484385773716,0,0,0,0,0,-1,0,0,0,1,"",""
41,243294064,0,0,0,0,0,0,0,0,0,0,0,-1,1000,149,0,82,0,0,0,-130,54,2052,130,116,123,95,1,8,0,1,1,0.025174643897490034,0.06311918208957305,4.396484385773716,0,0,0,0,0,-1,0,0,0,1,"",""
42,243295550,0,0,0,0,0,0,0,0,0,0,0,-1,1000,149,0,82,0,0,0,-130,54,2052,130,116,123,95,1,8,0,1,1,0.025201844643652833,0.06312223254016783,4.396484385773716,0,0,0,0,0,-1,0,0,0,1,"",""
43,243297040,0,0,0,0,0,0,0,0,0,0,0,-1,1000,149,0,82,0,0,0,-130,54,2051,130,116,124,95,1,8,0,1,1,0.025228102494076123,0.06312586362908369,4.396484385773716,0,0,0,0,0,-1,0,0,0,1,"",""
44,243298525,0,0,0,0,0,0,0,0,0,0,0,-1,1000,149,0,82,0,0,0,-131,54,2051,131,117,125,95,1,8,0,1,1,0.02525319887398326,0.0631404660347065,4.396484385773716,0,0,0,0,0,-1,0,0,0,1,"",""
45,243300014,0,0,0,0,0,0,0,0,0,0,0,-1,1000,149,0,82,0,0,0,-131,54,2051,132,118,125,95,1,8,0,1,1,0.025277209146721984,0.06315443642318029,4.396484385773716,0,0,0,0,0,-1,0,0,0,1,"",""
46,243301495,0,0,0,0,0,0,0,0,0,0,0,-1,1000,149,0,82,0,0,0,-131,54,2051,133,118,125,95,1,8,0,1,1,0.025300202293628764,0.0631678149393362,4.396484385773716,0,0,0,0,0,-1,0,0,0,1,"",""
47,243302986,0,0,0,0,0,0,0,0,0,0,0,-1,1000,149,0,82,0,0,0,-131,54,2050,134,119,126,95,1,8,0,1,1,0.025322507616044456,0.06318130028021923,4.396484385773716,0,0,0,0,0,-1,0,0,0,1,"",""
48,243304486,0,0,0,0,0,0,0,0,0,0,0,-1,1000,149,0,82,0,0,0,-131,54,2050,132,118,124,95,1,8,0,1,1,0.02534390682258672,0.06319423775091887,4.396484385773716,0,0,0,0,0,-1,0,0,0,1,"",""
49,243306123,0,0,0,0,0,0,0,0,0,0,0,-1,1000,149,0,82,0,0,0,-131,54,2050,130,118,124,95,1,8,0,1,1,0.02536445400027936,0.0632066600573741,4.396484385773716,0,0,0,0,0,-1,0,0,0,1,"",""
50,243307747,0,0,0,0,0,0,0,0,0,0,0,-1,1000,149,0,82,0,0,0,-131,54,2050,130,117,123,95,1,8,0,1,1,0.025384199015445284,0.06321859735307644,4.396484385773716,0,0,0,0,0,-1,0,0,0,1,"",""
51,243309228,0,0,0,0,0,0,0,0,0,0,0,-1,1000,149,0,82,0,0,0,-131,54,2050,129,116,123,95,1,8,0,1,1,0.02540318791753316,0.06323007748330314,4.396484385773716,0,0,0,0,0,-1,0,0,0,1,"",""
52,243310719,0,0,0,0,0,0,0,0,0,0,0,-1,1000,149,0,82,0,0,0,-131,54,2049,128,115,123,95,1,8,0,1,1,0.025421706303773092,0.06324172898964615,4.396484385773716,0,0,0,0,0,-1,0,0,0,1,"",""
53,243312208,0,0,0,0,0,0,0,0,0,0,0,0,1000,149,0,82,0,0,0,-131,54,2049,129,115,123,95,1,8,0,1,1,0.02543954199046592,0.06325295091440022,4.396484385773716,0,0,0,0,0,0,0,0,0,0,"",""
54,243313696,0,0,0,0,0,0,0,0,0,0,0,0,1000,149,0,82,0,0,0,-131,54,2049,130,112,120,95,1,8,0,1,1,0.025456732023539142,0.06326376657028218,4.396484385773716,0,0,0,0,0,0,0,0,0,0,"",""
55,243315181,0,0,0,0,0,0,0,0,0,0,0,0,1000,149,0,82,0,0,0,-131,54,2049,131,111,118,95,1,8,0,1,1,0.025473310816201574,0.06327419761312338,4.396484385773716,0,0,0,0,0,0,0,0,0,0,"",""
56,243316667,0,0,0,0,0,0,0,0,0,0,0,0,1000,149,0,82,0,0,0,-131,54,2049,130,112,116,95,1,8,0,1,1,0.025489310378732838,0.06328426418649795,4.396484385773716,0,0,0,0,0,0,0,0,0,0,"",""
57,243318145,0,0,0,0,0,0,0,0,0,0,0,0,1000,149,0,82,0,0,0,-131,54,2049,131,113,116,95,1,8,0,1,1,0.025504760524617972,0.06329398505146165,4.396484385773716,0,0,0,0,0,0,0,0,0,0,"",""
58,243319628,0,0,0,0,0,0,0,0,0,0,0,0,1000,149,0,82,0,0,0,-131,54,2049,131,114,116,95,1,8,0,1,1,0.02551968905582011,0.06330337770315929,4.396484385773716,0,0,0,0,0,0,0,0,0,0,"",""
59,243321116,0,0,0,0,0,0,0,0,0,0,0,0,1000,149,0,82,0,0,0,-131,54,2049,130,113,115,95,1,8,0,1,1,0.025534121929613646,0.06331245847582595,4.396484385773716,0,0,0,0,0,0,0,0,0,0,"",""
60,243322603,0,0,0,0,0,0,0,0,0,0,0,0,1000,149,0,82,0,0,0,-131,54,2049,130,112,116,95,1,8,0,1,1,0.025548083409083985,0.06332124263750741,4.396484385773716,0,0,0,0,0,0,0,0,0,0,"",""
61,243324094,0,0,0,0,0,0,0,0,0,0,0,0,1000,149,0,82,0,0,0,-131,54,2049,129,112,116,95,1,8,0,1,1,0.02556159619912956,0.06332974447565543,4.396484385773716,0,0,0,0,0,0,0,0,0,0,"",""
62,243325580,0,0,0,0,0,0,0,0,0,0,0,0,1000,149,0,82,0,0,0,-131,54,2048,128,111,115,95,1,8,0,1,1,0.025574889105134595,0.06333848986962062,4.396484385773716,0,0,0,0,0,0,0,0,0,0,"",""
63,243327065,0,0,0,0,0,0,0,0,0,0,0,0,1000,149,0,82,0,0,0,-131,54,2048,129,112,116,95,1,8,0,1,1,0.02558776828104194,0.0633469630509318,4.396484385773716,0,0,0,0,0,0,0,0,0,0,"",""
64,243328547,0,0,0,0,0,0,0,0,0,0,0,0,1000,149,0,82,0,0,0,-131,53,2048,128,110,115,93,1,8,0,1,1,0.025592375166025375,0.06335518926645049,4.396484385773716,0,0,0,0,0,0,0,0,0,0,"",""
65,243330075,0,0,0,0,0,0,0,0,0,0,0,-1,1000,149,0,82,0,0,0,-131,53,2048,126,110,115,93,1,8,0,1,1,0.025596842983526442,0.06336316714870958,4.396484385773716,0,0,0,0,0,-1,0,0,0,1,"",""
66,243331563,0,0,0,0,0,0,0,0,0,0,0,-1,1000,149,0,82,0,0,0,-131,53,2048,127,113,120,93,1,8,0,1,1,0.025601177931013148,0.06337090776496408,4.396484385773716,0,0,0,0,0,-1,0,0,0,1,"",""
67,243333086,0,0,0,0,0,0,0,0,0,0,0,-1,1000,149,0,82,0,0,0,-131,53,2048,129,114,122,93,1,8,0,1,1,0.025605385843094925,0.06337842153446284,4.396484385773716,0,0,0,0,0,-1,0,0,0,1,"",""
68,243334573,0,0,0,0,0,0,0,0,0,0,0,-1,1000,149,0,82,0,0,0,-131,53,2048,128,115,122,93,1,8,0,1,1,0.025609472217696,0.06338571827519186,4.396484385773716,0,0,0,0,0,-1,0,0,0,1,"",""
69,243336058,0,0,0,0,0,0,0,0,0,0,0,-1,1000,149,0,82,0,0,0,-131,53,2048,126,114,121,93,1,8,0,1,1,0.025613442239995537,0.06339280724662863,4.396484385773716,0,0,0,0,0,-1,0,0,0,1,"",""
70,243337540,0,0,0,0,0,0,0,0,0,0,0,-1,1000,149,0,82,0,0,0,-131,53,2048,128,115,122,93,1,8,0,1,1,0.02561730080435359,0.0633996971888996,4.396484385773716,0,0,0,0,0,-1,0,0,0,1,"",""
71,243339076,0,0,0,0,0,0,0,0,0,0,0,-1,1000,149,0,82,0,0,0,-131,53,2048,129,116,122,93,1,8,0,1,1,0.025621052534418032,0.06340639635868883,4.396484385773716,0,0,0,0,0,-1,0,0,0,1,"",""
72,243340576,0,0,0,0,0,0,0,0,0,0,0,-1,1000,149,0,82,0,0,0,-131,53,2048,128,116,120,93,1,8,0,1,1,0.025624701801586016,0.0634129125622078,4.396484385773716,0,0,0,0,0,-1,0,0,0,1,"",""
73,243342219,0,0,0,0,0,0,0,0,0,0,0,-1,1000,149,0,82,0,0,0,-131,52,2048,127,115,121,93,1,8,0,1,1,0.025621278095702478,0.06341926449213402,4.396484385773716,0,0,0,0,0,-1,0,0,0,1,"",""
74,243343843,0,0,0,0,0,0,0,0,0,0,0,-1,1000,149,0,82,0,0,0,-131,52,2048,128,115,121,93,1,8,0,1,1,0.025617945416129252,0.06342544753721638,4.396484385773716,0,0,0,0,0,-1,0,0,0,1,"",""
75,243345326,0,0,0,0,0,0,0,0,0,0,0,-1,1000,149,0,82,0,0,0,-131,52,2048,127,116,120,93,1,8,0,1,1,0.025614700184747603,0.06343146833630384,4.396484385773716,0,0,0,0,0,-1,0,0,0,1,"",""
76,243346811,0,0,0,0,0,0,0,0,0,0,0,-1,1000,149,0,82,0,0,0,-131,52,2048,127,115,120,93,1,8,0,1,1,0.02561153900854759,0.06343733318478294,4.396484385773716,0,0,0,0,0,-1,0,0,0,1,"",""
77,243348337,0,0,0,0,0,0,0,0,0,0,0,-1,1000,149,0,82,0,0,0,-131,52,2048,128,115,121,93,1,8,0,1,1,0.025608458667810464,0.06344304805650562,4.396484385773716,0,0,0,0,0,-1,0,0,0,1,"",""
78,243349827,0,0,0,0,0,0,0,0,0,0,0,-1,1000,149,0,82,0,0,0,-131,52,2048,129,115,121,93,1,8,0,1,1,0.025605456105185036,0.06344861862405837,4.396484385773716,0,0,0,0,0,-1,0,0,0,1,"",""
79,243351311,0,0,0,0,0,0,0,0,0,0,0,-1,1000,149,0,82,0,0,0,-131,52,2048,130,116,122,93,1,8,0,1,1,0.02560252841558002,0.06345405027751681,4.396484385773716,0,0,0,0,0,-1,0,0,0,1,"",""
80,243352799,0,0,0,0,0,0,0,0,0,0,0,-1,1000,149,0,82,0,0,0,-131,52,2048,132,117,123,93,1,8,0,1,1,0.025599672836802194,0.063459348141817,4.396484385773716,0,0,0,0,0,-1,0,0,0,1,"",""
81,243354281,0,0,0,0,0,0,0,0,0,0,0,-1,1000,149,0,82,0,0,0,-131,52,2048,131,117,122,93,1,8,0,1,1,0.02559688674087686,0.06346451709286004,4.396484385773716,0,0,0,0,0,-1,0,0,0,1,"",""
82,243355772,0,0,0,0,0,0,0,0,0,0,0,-1,1000,149,0,82,0,0,0,-131,52,2048,131,117,122,93,1,8,0,1,1,0.0255941676259934,0.06346956177245723,4.396484385773716,0,0,0,0,0,-1,0,0,0,1,"",""
83,243357263,0,0,0,0,0,0,0,0,0,0,0,-1,1000,149,0,82,0,0,0,-131,52,2048,130,116,123,93,1,8,0,1,1,0.025591513109023946,0.06347448660221174,4.396484385773716,0,0,0,0,0,-1,0,0,0,1,"",""
84,243358764,0,0,0,0,0,0,0,0,0,0,0,-1,1000,149,0,82,0,0,0,-131,52,2048,130,116,123,93,1,8,0,1,1,0.02558892091856812,0.0634792957964237,4.396484385773716,0,0,0,0,0,-1,0,0,0,1,"",""
85,243360253,0,0,0,0,0,0,0,0,0,0,0,-1,1000,149,0,82,0,0,0,-131,52,2048,129,116,123,93,1,8,0,1,1,0.025586388888481307,0.0634839933740988,4.396484385773716,0,0,0,0,0,-1,0,0,0,1,"",""
86,243361739,0,0,0,0,0,0,0,0,0,0,0,-1,1000,149,0,82,0,0,0,-131,52,2048,129,116,122,93,1,8,0,1,1,0.025583914951847624,0.06348858317013108,4.396484385773716,0,0,0,0,0,-1,0,0,0,1,"",""
87,243363224,0,0,0,0,0,0,0,0,0,0,0,-1,1000,149,0,82,0,0,0,-131,52,2048,128,116,122,93,1,8,0,1,1,0.02558149713536221,0.06349306884572653,4.396484385773716,0,0,0,0,0,-1,0,0,0,1,"",""
88,243364710,0,0,0,0,0,0,0,0,0,0,0,-1,1000,149,0,82,0,0,0,-131,52,2048,128,116,121,93,1,8,0,1,1,0.02557913355409106,0.06349745389812617,4.396484385773716,0,0,0,0,0,-1,0,0,0,1,"",""
89,243366200,0,0,0,0,0,0,0,0,0,0,0,0,1000,149,0,82,0,0,0,-131,52,2047,126,115,120,93,1,8,0,1,1,0.02557697115117323,0.0635021098981549,4.396484385773716,0,0,0,0,0,0,0,0,0,0,"",""
90,243367691,0,0,0,0,0,0,0,0,0,0,0,0,1000,149,0,82,0,0,0,-131,52,2047,126,110,117,93,1,8,0,1,1,0.025574856171387862,0.06350666378562604,4.396484385773716,0,0,0,0,0,0,0,0,0,0,"",""
91,243369178,0,0,0,0,0,0,0,0,0,0,0,0,1000,149,0,82,0,0,0,-131,52,2047,128,110,116,93,1,8,0,1,1,0.025572787074455892,0.06351111887719821,4.396484385773716,0,0,0,0,0,0,0,0,0,0,"",""
92,243370660,0,0,0,0,0,0,0,0,0,0,0,0,1000,149,0,82,0,0,0,-131,52,2047,128,109,116,93,1,8,0,1,1,0.025570762386086913,0.06351547834743371,4.396484385773716,0,0,0,0,0,0,0,0,0,0,"",""
93,243372146,0,0,0,0,0,0,0,0,0,0,0,0,1000,149,0,82,0,0,0,-131,52,2047,128,109,116,93,1,8,0,1,1,0.02556878069448274,0.06351974523632771,4.396484385773716,0,0,0,0,0,0,0,0,0,0,"",""
94,243373630,0,0,0,0,0,0,0,0,0,0,0,0,1000,149,0,82,0,0,0,-131,52,2047,130,110,117,93,1,8,0,1,1,0.025566840647060975,0.06352392245636371,4.396484385773716,0,0,0,0,0,0,0,0,0,0,"",""
95,243375122,0,0,0,0,0,0,0,0,0,0,0,0,1000,149,0,82,0,0,0,-131,52,2047,129,110,116,93,1,8,0,1,1,0.025564940947382576,0.06352801279912983,4.396484385773716,0,0,0,0,0,0,0,0,0,0,"",""
96,243376618,0,0,0,0,0,0,0,0,0,0,0,0,1000,150,0,82,0,0,0,-131,52,2047,128,110,115,93,1,8,0,1,1,0.025563080352268768,0.06353201894152706,4.396484385773716,0,0,0,0,0,0,0,0,0,0,"",""
97,243378328,0,0,0,0,0,0,0,0,0,0,0,0,1000,150,0,82,0,0,0,-131,52,2047,128,111,115,93,1,8,0,1,1,0.025561257669093788,0.06353594345159919,4.396484385773716,0,0,0,0,0,0,0,0,0,0,"",""
98,243379955,0,0,0,0,0,0,0,0,0,0,0,0,1000,150,0,82,0,0,0,-131,52,2047,128,111,115,93,1,8,0,1,1,0.02555947175324111,0.06353978879401037,4.396484385773716,0,0,0,0,0,0,0,0,0,0,"",""
99,243381432,0,0,0,0,0,0,0,0,0,0,0,0,1000,150,0,82,0,0,0,-131,52,2046,128,111,114,93,1,8,0,1,1,0.025557856420047147,0.06354389179444936,4.396484385773716,0,0,0,0,0,0,0,0,0,0,"",""
100,243382918,0,0,0,0,0,0,0,0,0,0,0,0,1000,150,0,82,0,0,0,-131,52,2046,129,111,115,93,1,8,0,1,1,0.02555627301494671,0.06354791369422116,4.396484385773716,0,0,0,0,0,0,0,0,0,0,"",""
101,243384413,0,0,0,0,0,0,0,0,0,0,0,0,1000,150,0,82,0,0,0,-131,52,2046,128,111,115,93,1,8,0,1,1,0.025554720602716224,0.0635518568689558,4.396484385773716,0,0,0,0,0,0,0,0,0,0,"",""
102,243385903,0,0,0,0,0,0,0,0,0,0,0,0,1000,150,0,82,0,0,0,-131,52,2046,127,111,114,93,1,8,0,1,1,0.025553198284304256,0.0635557236023972,4.396484385773716,0,0,0,0,0,0,0,0,0,0,"",""
103,243387389,0,0,0,0,0,0,0,0,0,0,0,0,1000,150,0,82,0,0,0,-131,52,2046,127,110,114,93,1,8,0,1,1,0.0255517051950995,0.06355951609080324,4.396484385773716,0,0,0,0,0,0,0,0,0,0,"",""
104,243388873,0,0,0,0,0,0,0,0,0,0,0,0,1000,150,0,82,0,0,0,-131,52,2046,127,111,114,93,1,8,0,1,1,0.02555024050329722,0.0635632364470952,4.396484385773716,0,0,0,0,0,0,0,0,0,0,"",""
105,243390351,0,0,0,0,0,0,0,0,0,0,0,0,1000,150,0,82,0,0,0,-131,52,2046,128,112,114,93,1,8,0,1,1,0.025548803408357936,0.06356688670477362,4.396484385773716,0,0,0,0,0,0,0,0,0,0,"",""
106,243391845,0,0,0,0,0,0,0,0,0,0,0,0,1000,150,0,82,0,0,0,-131,52,2046,129,111,115,93,1,8,0,1,1,0.025547393139552073,0.0635704688216148,4.396484385773716,0,0,0,0,0,0,0,0,0,0,"",""
107,243393346,0,0,0,0,0,0,0,0,0,0,0,0,1000,150,0,82,0,0,0,-131,52,2046,128,111,114,93,1,8,0,1,1,0.025546008954585246,0.06357398468316343,4.396484385773716,0,0,0,0,0,0,0,0,0,0,"",""
108,243394834,0,0,0,0,0,0,0,0,0,0,0,0,1000,150,0,82,0,0,0,-131,52,2046,128,110,114,93,1,8,0,1,1,0.02554465013829887,0.06357743610603314,4.396484385773716,0,0,0,0,0,0,0,0,0,0,"",""
109,243396318,0,0,0,0,0,0,0,0,0,0,0,0,1000,149,0,82,0,0,0,-131,52,2046,127,110,114,93,1,8,0,1,1,0.0255433160014414,0.06358082484102803,4.396484385773716,0,0,0,0,0,0,0,0,0,0,"",""
110,243397799,0,0,0,0,0,0,0,0,0,0,0,0,1000,149,0,82,0,0,0,-131,52,2046,127,109,114,93,1,8,0,1,1,0.025542005879505714,0.06358415257609594,4.396484385773716,0,0,0,0,0,0,0,0,0,0,"",""
111,243399283,0,0,0,0,0,0,0,0,0,0,0,0,1000,149,0,82,0,0,0,-131,52,2046,127,109,115,93,1,8,0,1,1,0.025540719131628628,0.06358742093912413,4.396484385773716,0,0,0,0,0,0,0,0,0,0,"",""
112,243400764,0,0,0,0,0,0,0,0,0,0,0,0,1000,149,0,82,0,0,0,-131,52,2046,128,110,116,93,1,8,0,1,1,0.0255394551395485,0.0635906315005872,4.396484385773716,0,0,0,0,0,0,0,0,0,0,"",""
113,243402256,0,0,0,0,0,0,0,0,0,0,0,0,1000,149,0,82,0,0,0,-131,52,2046,129,111,116,93,1,8,0,1,1,0.025538213306617617,0.0635937857760558,4.396484385773716,0,0,0,0,0,0,0,0,0,0,"",""
114,243403742,0,0,0,0,0,0,0,0,0,0,0,0,1000,149,0,82,0,0,0,-131,52,2046,129,111,116,93,1,8,0,1,1,0.025536993056865825,0.06359688522857537,4.396484385773716,0,0,0,0,0,0,0,0,0,0,"",""
115,243405230,0,0,0,0,0,0,0,0,0,0,0,0,1000,149,0,82,0,0,0,-131,52,2046,130,112,116,93,1,8,0,1,1,0.02553579383411251,0.06359993127092192,4.396484385773716,0,0,0,0,0,0,0,0,0,0,"",""
116,243406717,0,0,0,0,0,0,0,0,0,0,0,0,1000,149,0,82,0,0,0,-131,52,2045,129,112,115,93,1,8,0,1,1,0.025534731972064652,0.06360321552830128,4.396484385773716,0,0,0,0,0,0,0,0,0,0,"",""
117,243408200,0,0,0,0,0,0,0,0,0,0,0,0,1000,149,0,82,0,0,0,-131,52,2046,128,112,114,93,1,8,0,1,1,0.025533572117965985,0.06360615611287476,4.396484385773716,0,0,0,0,0,0,0,0,0,0,"",""
118,243409683,0,0,0,0,0,0,0,0,0,0,0,0,1000,149,0,82,0,0,0,-131,52,2046,127,111,114,93,1,8,0,1,1,0.02553243175128504,0.06360904728973216,4.396484385773716,0,0,0,0,0,0,0,0,0,0,"",""
119,243411218,0,0,0,0,0,0,0,0,0,0,0,0,1000,149,0,82,0,0,0,-131,52,2046,127,110,114,93,1,8,0,1,1,0.025531310386525227,0.06361189028981329,4.396484385773716,0,0,0,0,0,0,0,0,0,0,"",""
120,243412845,0,0,0,0,0,0,0,0,0,0,0,0,1000,149,0,82,0,0,0,-131,52,2046,128,110,115,93,1,8,0,1,1,0.025530207554184066,0.06361468630350509,4.396484385773716,0,0,0,0,0,0,0,0,0,0,"",""
121,243414470,0,0,0,0,0,0,0,0,0,0,0,0,1000,149,0,82,0,0,0,-131,52,2046,129,110,116,93,1,8,0,1,1,0.025529122800099956,0.06361743648229805,4.396484385773716,0,0,0,0,0,0,0,0,0,0,"",""
122,243415957,0,0,0,0,0,0,0,0,0,0,0,0,1000,149,0,82,0,0,0,-131,52,2046,128,110,116,93,1,8,0,1,1,0.025528055684830672,0.063620141940362,4.396484385773716,0,0,0,0,0,0,0,0,0,0,"",""
123,243417433,0,0,0,0,0,0,0,0,0,0,0,0,1000,149,0,82,0,0,0,-131,52,2046,129,111,117,93,1,8,0,1,1,0.025527005783061846,0.06362280375604591,4.396484385773716,0,0,0,0,0,0,0,0,0,0,"",""
124,243418921,0,0,0,0,0,0,0,0,0,0,0,0,1000,149,0,82,0,0,0,-131,52,2046,129,111,117,93,1,8,0,1,1,0.025525972683043716,0.06362542297330612,4.396484385773716,0,0,0,0,0,0,0,0,0,0,"",""
125,243420411,0,0,0,0,0,0,0,0,0,0,0,0,1000,149,0,82,0,0,0,-131,52,2046,128,110,115,93,1,8,0,1,1,0.025524955986054653,0.06362800060306649,4.396484385773716,0,0,0,0,0,0,0,0,0,0,"",""
126,243421900,0,0,0,0,0,0,0,0,0,0,0,0,1000,149,0,82,0,0,0,-131,52,2046,128,110,115,93,1,8,0,1,1,0.0255239553058899,0.06363053762451469,4.396484385773716,0,0,0,0,0,0,0,0,0,0,"",""
127,243423385,0,0,0,0,0,0,0,0,0,0,0,0,1000,149,0,82,0,0,0,-131,52,2046,128,110,114,93,1,8,0,1,1,0.025522970268374263,0.06363303498633792,4.396484385773716,0,0,0,0,0,0,0,0,0,0,"",""
128,243424899,0,0,0,0,0,0,0,0,0,0,0,0,1000,149,0,82,0,0,0,-131,52,2046,128,110,114,93,1,8,0,1,1,0.02552200051089732,0.0636354936079013,4.396484385773716,0,0,0,0,0,0,0,0,0,0,"",""
129,243426384,0,0,0,0,0,0,0,0,0,0,0,0,1000,149,0,82,0,0,0,-131,52,2047,129,110,115,93,1,8,0,1,1,0.025520939411986895,0.06363765016345341,4.396484385773716,0,0,0,0,0,0,0,0,0,0,"",""
130,243427866,0,0,0,0,0,0,0,0,0,0,0,0,1000,149,0,82,0,0,0,-131,52,2047,129,110,115,93,1,8,0,1,1,0.025519894533048648,0.06363977375321934,4.396484385773716,0,0,0,0,0,0,0,0,0,0,"",""
131,243429359,0,0,0,0,0,0,0,0,0,0,0,-1,1000,149,0,82,0,0,0,-131,52,2047,129,110,116,93,1,8,0,1,1,0.02551886550641145,0.06364186512447577,4.396484385773716,0,0,0,0,0,-1,0,0,0,1,"",""
132,243430851,0,0,0,0,0,0,0,0,0,0,0,-1,1000,149,0,82,0,0,0,-131,52,2047,131,114,120,93,1,8,0,1,1,0.02551785197543308,0.06364392500208312,4.396484385773716,0,0,0,0,0,-1,0,0,0,1,"",""
133,243432335,0,0,0,0,0,0,0,0,0,0,0,-1,1000,149,0,82,0,0,0,-131,52,2047,132,115,122,93,1,8,0,1,1,0.025516853594089724,0.06364595408931986,4.396484385773716,0,0,0,0,0,-1,0,0,0,1,"",""
134,243433822,0,0,0,0,0,0,0,0,0,0,0,-1,1000,149,0,82,0,0,0,-131,52,2047,131,115,121,93,1,8,0,1,1,0.025515870026583745,0.06364795306867982,4.396484385773716,0,0,0,0,0,-1,0,0,0,1,"",""
135,243435304,0,0,0,0,0,0,0,0,0,0,0,-1,1000,149,0,82,0,0,0,-131,53,2048,131,116,121,93,1,8,0,1,1,0.025518797978206158,0.06364966226883606,4.396484385773716,0,0,0,0,0,-1,0,0,0,1,"",""
136,243436785,0,0,0,0,0,0,0,0,0,0,0,-1,1000,149,0,82,0,0,0,-131,53,2048,131,115,122,93,1,8,0,1,1,0.025521683089130512,0.06365134645971542,4.396484385773716,0,0,0,0,0,-1,0,0,0,1,"",""
137,243438275,0,0,0,0,0,0,0,0,0,0,0,-1,1000,149,0,82,0,0,0,-130,53,2048,129,115,121,93,1,8,0,1,1,0.025524526288858092,0.06364907331121038,4.396484385773716,0,0,0,0,0,-1,0,0,0,1,"",""
138,243439763,0,0,0,0,0,0,0,0,0,0,0,-1,1000,149,0,82,0,0,0,-130,53,2048,129,115,121,93,1,8,0,1,1,0.025527328480194292,0.06364683294791655,4.396484385773716,0,0,0,0,0,-1,0,0,0,1,"",""
139,243441250,0,0,0,0,0,0,0,0,0,0,0,-1,1000,149,0,82,0,0,0,-130,53,2048,128,114,121,93,1,8,0,1,1,0.02553009054020017,0.06364462466866957,4.396484385773716,0,0,0,0,0,-1,0,0,0,1,"",""
140,243442734,0,0,0,0,0,0,0,0,0,0,0,-1,1000,149,0,82,0,0,0,-130,53,2048,129,115,122,93,1,8,0,1,1,0.025532813321103635,0.06364244779215718,4.396484385773716,0,0,0,0,0,-1,0,0,0,1,"",""
141,243444216,0,0,0,0,0,0,0,0,0,0,0,-1,1000,149,0,82,0,0,0,-130,53,2049,130,116,122,93,1,8,0,1,1,0.02553539934720358,0.06364005737431713,4.396484385773716,0,0,0,0,0,-1,0,0,0,1,"",""
142,243445711,0,0,0,0,0,0,0,0,0,0,0,-1,1000,149,0,82,0,0,0,-130,53,2049,129,116,121,93,1,8,0,1,1,0.0255379490867607,0.06363770049715978,4.396484385773716,0,0,0,0,0,-1,0,0,0,1,"",""
143,243447362,0,0,0,0,0,0,0,0,0,0,0,-1,1000,149,0,82,0,0,0,-130,53,2049,131,117,122,93,1,8,0,1,1,0.02554046329473911,0.06363537646287387,4.396484385773716,0,0,0,0,0,-1,0,0,0,1,"",""
144,243448987,0,0,0,0,0,0,0,0,0,0,0,-1,1000,149,0,82,0,0,0,-130,53,2049,131,117,122,93,1,8,0,1,1,0.025542942705304307,0.06363308459287169,4.396484385773716,0,0,0,0,0,-1,0,0,0,1,"",""
145,243450475,0,0,0,0,0,0,0,0,0,0,0,-1,1000,149,0,82,0,0,0,-130,53,2049,130,116,122,93,1,8,0,1,1,0.025545388032534463,0.06363082422713152,4.396484385773716,0,0,0,0,0,-1,0,0,0,1,"",""
146,243451960,0,0,0,0,0,0,0,0,0,0,0,-1,1000,149,0,82,0,0,0,-130,53,2049,130,116,121,93,1,8,0,1,1,0.025547799971102812,0.06362859472356704,4.396484385773716,0,0,0,0,0,-1,0,0,0,1,"",""
147,243453434,0,0,0,0,0,0,0,0,0,0,0,-1,1000,149,0,82,0,0,0,-130,53,2050,130,116,121,93,1,8,0,1,1,0.025550084365564902,0.0636261599914636,4.396484385773716,0,0,0,0,0,-1,0,0,0,1,"",""
148,243454917,0,0,0,0,0,0,0,0,0,0,0,-1,1000,149,0,82,0,0,0,-130,53,2050,130,117,121,93,1,8,0,1,1,0.02555233796612491,0.06362375807876645,4.396484385773716,0,0,0,0,0,-1,0,0,0,1,"",""
149,243456494,0,0,0,0,0,0,0,0,0,0,0,0,1000,149,0,82,0,0,0,-130,53,2050,129,117,120,93,1,8,0,1,1,0.0255545613882099,0.06362138832958948,4.396484385773716,0,0,0,0,0,0,0,0,0,0,"",""
150,243457986,0,0,0,0,0,0,0,0,0,0,0,0,1000,149,0,82,0,0,0,-130,53,2050,129,114,116,93,1,8,0,1,1,0.02555675523095651,0.0636190501054074,4.396484385773716,0,0,0,0,0,0,0,0,0,0,"",""
151,243459473,0,0,0,0,0,0,0,0,0,0,0,0,1000,149,0,82,0,0,0,-130,53,2050,131,113,115,93,1,8,0,1,1,0.025558920077746426,0.06361674278448515,4.396484385773716,0,0,0,0,0,0,0,0,0,0,"",""
152,243460958,0,0,0,0,0,0,0,0,0,0,0,0,1000,149,0,82,0,0,0,-130,53,2051,131,113,115,93,1,8,0,1,1,0.02556096435656947,0.06361423711769675,4.396484385773716,0,0,0,0,0,0,0,0,0,0,"",""
153,243462435,0,0,0,0,0,0,0,0,0,0,0,0,1000,149,0,82,0,0,0,-130,53,2051,129,111,114,93,1,8,0,1,1,0.02556298194870134,0.06361176415966625,4.396484385773716,0,0,0,0,0,0,0,0,0,0,"",""
154,243463919,0,0,0,0,0,0,0,0,0,0,0,0,1000,149,0,82,0,0,0,-130,52,2051,129,111,115,93,1,8,0,1,1,0.025561410265438157,0.06360932905690014,4.396484385773716,0,0,0,0,0,0,0,0,0,0,"",""
155,243465421,0,0,0,0,0,0,0,0,0,0,0,0,1000,149,0,82,0,0,0,-130,52,2051,130,111,116,93,1,8,0,1,1,0.025559858839025788,0.06360692533838858,4.396484385773716,0,0,0,0,0,0,0,0,0,0,"",""
156,243466911,0,0,0,0,0,0,0,0,0,0,0,0,1000,149,0,82,0,0,0,-130,52,2052,128,110,116,93,1,8,0,1,1,0.025558237212642297,0.06360432890918004,4.396484385773716,0,0,0,0,0,0,0,0,0,0,"",""
157,243468395,0,0,0,0,0,0,0,0,0,0,0,0,1000,149,0,82,0,0,0,-130,52,2052,128,110,116,93,1,8,0,1,1,0.025556636236449517,0.06360176554253603,4.396484385773716,0,0,0,0,0,0,0,0,0,0,"",""
158,243469884,0,0,0,0,0,0,0,0,0,0,0,0,1000,149,0,82,0,0,0,-130,52,2052,130,111,116,93,1,8,0,1,1,0.025555055520674032,0.06359923461441806,4.396484385773716,0,0,0,0,0,0,0,0,0,0,"",""
159,243471368,0,0,0,0,0,0,0,0,0,0,0,0,1000,149,0,82,0,0,0,-130,52,2052,130,111,117,93,1,8,0,1,1,0.02555349468529012,0.06359673551639347,4.396484385773716,0,0,0,0,0,0,0,0,0,0,"",""
160,243472863,0,0,0,0,0,0,0,0,0,0,0,0,1000,149,0,82,0,0,0,-130,52,2053,128,109,114,91,1,8,0,1,1,0.025551865270628655,0.06359404905528174,4.396484385773716,0,0,0,0,0,0,0,0,0,0,"",""
161,243474366,0,0,0,0,0,0,0,0,0,0,0,0,1000,149,0,82,0,0,0,-130,52,2053,128,110,114,91,1,8,0,1,1,0.025550256109733025,0.06359139598604768,4.396484385773716,0,0,0,0,0,0,0,0,0,0,"",""
162,243475852,0,0,0,0,0,0,0,0,0,0,0,0,1000,149,0,82,0,0,0,-130,52,2053,127,110,112,91,1,8,0,1,1,0.025548666829491716,0.06358877569357152,4.396484385773716,0,0,0,0,0,0,0,0,0,0,"",""
163,243477335,0,0,0,0,0,0,0,0,0,0,0,0,1000,149,0,82,0,0,0,-130,52,2053,126,108,112,91,1,8,0,1,1,0.025547097065901456,0.06358618757774902,4.396484385773716,0,0,0,0,0,0,0,0,0,0,"",""
164,243478821,0,0,0,0,0,0,0,0,0,0,0,0,1000,149,0,82,0,0,0,-130,52,2054,125,108,111,91,1,8,0,1,1,0.025545460260203358,0.06358341711410277,4.396484385773716,0,0,0,0,0,0,0,0,0,0,"",""
165,243480304,0,0,0,0,0,0,0,0,0,0,0,0,1000,149,0,82,0,0,0,-130,52,2054,126,109,111,91,1,8,0,1,1,0.025543843326210822,0.06358068028425568,4.396484385773716,0,0,0,0,0,0,0,0,0,0,"",""
166,243481796,0,0,0,0,0,0,0,0,0,0,0,0,1000,149,0,82,0,0,0,-130,52,2054,126,108,112,91,1,8,0,1,1,0.025542245906429034,0.06357797648315128,4.396484385773716,0,0,0,0,0,0,0,0,0,0,"",""
167,243483431,0,0,0,0,0,0,0,0,0,0,0,0,1000,149,0,82,0,0,0,-130,52,2055,126,107,113,91,1,8,0,1,1,0.025540582804334716,0.06357509453380518,4.396484385773716,0,0,0,0,0,0,0,0,0,0,"",""
168,243485054,0,0,0,0,0,0,0,0,0,0,0,0,1000,149,0,82,0,0,0,-130,52,2055,127,108,114,91,1,8,0,1,1,0.02553893954964497,0.06357224697633497,4.396484385773716,0,0,0,0,0,0,0,0,0,0,"",""
169,243486543,0,0,0,0,0,0,0,0,0,0,0,0,1000,149,0,82,0,0,0,-130,52,2055,127,108,114,91,1,8,0,1,1,0.025537315791417943,0.06356943320264503,4.396484385773716,0,0,0,0,0,0,0,0,0,0,"",""
170,243488031,0,0,0,0,0,0,0,0,0,0,0,0,1000,149,0,82,0,0,0,-130,52,2055,126,108,113,91,1,8,0,1,1,0.025535711186936764,0.06356665261889113,4.396484385773716,0,0,0,0,0,0,0,0,0,0,"",""
171,243489510,0,0,0,0,0,0,0,0,0,0,0,0,1000,149,0,82,0,0,0,-130,53,2056,127,108,113,91,1,8,0,1,1,0.025537296536738443,0.06356369308004516,4.396484385773716,0,0,0,0,0,0,0,0,0,0,"",""
172,243490994,0,0,0,0,0,0,0,0,0,0,0,0,1000,149,0,82,0,0,0,-130,53,2056,128,109,114,91,1,8,0,1,1,0.02553886338918593,0.06356076807089929,4.396484385773716,0,0,0,0,0,0,0,0,0,0,"",""
173,243492506,0,0,0,0,0,0,0,0,0,0,0,0,1000,149,0,82,0,0,0,-130,53,2056,127,108,113,91,1,8,0,1,1,0.02554041206399849,0.06355787699464359,4.396484385773716,0,0,0,0,0,0,0,0,0,0,"",""
174,243493992,0,0,0,0,0,0,0,0,0,0,0,0,1000,149,0,82,0,0,0,-130,53,2057,126,108,112,91,1,8,0,1,1,0.02554186097013647,0.06355481606357265,4.396484385773716,0,0,0,0,0,0,0,0,0,0,"",""
175,243495476,0,0,0,0,0,0,0,0,0,0,0,0,1000,149,0,82,0,0,0,-130,53,2057,128,109,114,91,1,8,0,1,1,0.02554329324669539,0.06355179026252582,4.396484385773716,0,0,0,0,0,0,0,0,0,0,"",""
176,243496960,0,0,0,0,0,0,0,0,0,0,0,0,1000,149,0,82,0,0,0,-130,53,2057,127,109,113,91,1,8,0,1,1,0.025544709176384413,0.0635487989943017,4.396484385773716,0,0,0,0,0,0,0,0,0,0,"",""
177,243498438,0,0,0,0,0,0,0,0,0,0,0,0,1000,149,0,82,0,0,0,-130,53,2057,125,108,112,91,1,8,0,1,1,0.025546109035540897,0.06354584167515834,4.396484385773716,0,0,0,0,0,0,0,0,0,0,"",""
178,243499918,0,0,0,0,0,0,0,0,0,0,0,0,1000,149,0,82,0,0,0,-130,53,2058,126,108,112,91,1,8,0,1,1,0.0255474127552912,0.06354271849228488,4.396484385773716,0,0,0,0,0,0,0,0,0,0,"",""
179,243501409,0,0,0,0,0,0,0,0,0,0,0,0,1000,149,0,82,0,0,0,-130,53,2058,126,109,112,91,1,8,0,1,1,0.0255487018325335,0.06353963038558556,4.396484385773716,0,0,0,0,0,0,0,0,0,0,"",""
180,243502897,0,0,0,0,0,0,0,0,0,0,0,0,1000,149,0,82,0,0,0,-130,53,2058,125,109,112,91,1,8,0,1,1,0.025549976510814962,0.06353657677166476,4.396484385773716,0,0,0,0,0,0,0,0,0,0,"",""
181,243504384,0,0,0,0,0,0,0,0,0,0,0,0,1000,149,0,82,0,0,0,-130,53,2059,126,108,112,91,1,8,0,1,1,0.02555115781903524,0.06353336069719329,4.396484385773716,0,0,0,0,0,0,0,0,0,0,"",""
182,243505867,0,0,0,0,0,0,0,0,0,0,0,0,1000,149,0,82,0,0,0,-130,53,2059,127,109,113,91,1,8,0,1,1,0.025552326067428105,0.06353018017630989,4.396484385773716,0,0,0,0,0,0,0,0,0,0,"",""
183,243507349,0,0,0,0,0,0,0,0,0,0,0,0,1000,149,0,82,0,0,0,-130,53,2059,129,109,114,91,1,8,0,1,1,0.02555348146978204,0.06352703462702768,4.396484385773716,0,0,0,0,0,0,0,0,0,0,"",""
184,243508831,0,0,0,0,0,0,0,0,0,0,0,0,1000,149,0,82,0,0,0,-130,53,2059,129,109,114,91,1,8,0,1,1,0.025554624235244846,0.06352392347999233,4.396484385773716,0,0,0,0,0,0,0,0,0,0,"",""
185,243510319,0,0,0,0,0,0,0,0,0,0,0,0,1000,149,0,82,0,0,0,-130,53,2060,128,108,114,91,1,8,0,1,1,0.025555676810398376,0.06352065346580163,4.396484385773716,0,0,0,0,0,0,0,0,0,0,"",""
186,243511808,0,0,0,0,0,0,0,0,0,0,0,0,1000,149,0,82,0,0,0,-130,53,2060,128,108,115,91,1,8,0,1,1,0.025556717988697932,0.06351741885658206,4.396484385773716,0,0,0,0,0,0,0,0,0,0,"",""
187,243513295,0,0,0,0,0,0,0,0,0,0,0,0,1000,149,22,82,0,0,0,-130,53,2060,128,108,115,91,1,8,0,1,1,0.025557747952827097,0.06351421908483959,4.396484385773716,0,0,0,0,0,0,0,0,0,0,"",""
188,243514781,0,0,0,0,0,0,0,0,0,0,0,0,1000,149,22,82,0,0,0,-130,53,2060,127,108,114,91,1,8,0,1,1,0.02555876688158605,0.06351105359514327,4.396484385773716,0,0,0,0,0,0,0,0,0,0,"",""
189,243516260,0,0,0,0,0,0,0,0,0,0,0,0,1000,149,22,82,0,0,0,-130,53,2061,125,108,113,91,1,8,0,1,1,0.025559698583652278,0.06350773264869758,4.396484385773716,0,0,0,0,0,0,0,0,0,0,"",""
190,243517854,0,0,0,0,0,0,0,0,0,0,0,0,1000,149,22,82,0,0,0,-131,53,2061,126,108,113,91,1,8,0,1,1,0.025560620400975294,0.06350740965721834,4.396484385773716,0,0,0,0,0,0,0,0,0,0,"",""
191,243519506,0,0,0,0,0,0,0,0,0,0,0,0,1000,149,22,82,0,0,0,-131,53,2061,126,108,112,91,1,8,0,1,1,0.02556153248877294,0.06350709007475824,4.396484385773716,0,0,0,0,0,0,0,0,0,0,"",""
192,243521132,0,0,0,0,0,0,0,0,0,0,0,0,1000,149,22,82,0,0,0,-131,53,2061,128,111,115,94,1,8,0,1,1,0.025562434999030374,0.06350677384806602,4.396484385773716,0,0,0,0,0,0,0,0,0,0,"",""
193,243522621,0,0,0,0,0,0,0,0,0,0,0,0,1000,149,22,82,0,0,0,-131,53,2061,128,111,116,94,1,8,0,1,1,0.025563328080583834,0.06350646092499355,4.396484385773716,0,0,0,0,0,0,0,0,0,0,"",""
194,243524105,0,0,0,0,0,0,0,0,0,0,0,0,1000,149,22,82,0,0,0,-131,53,2062,129,111,116,94,1,8,0,1,1,0.025564137173840866,0.06350596621165318,4.396484385773716,0,0,0,0,0,0,0,0,0,0,"",""
195,243525582,0,0,0,0,0,0,0,0,0,0,0,0,1000,149,22,82,0,0,0,-131,53,2062,130,111,117,94,1,8,0,1,1,0.02556493789488228,0.0635054766173629,4.396484385773716,0,0,0,0,0,0,0,0,0,0,"",""
196,243527067,0,0,0,0,0,0,0,0,0,0,0,0,1000,149,22,82,0,0,0,-131,53,2062,130,111,116,94,1,8,0,1,1,0.02556573037189518,0.063504992063746,4.396484385773716,0,0,0,0,0,0,0,0,0,0,"",""
197,243528561,0,0,0,0,0,0,0,0,0,0,0,0,1000,149,22,82,0,0,0,-131,53,2062,129,110,117,94,1,8,0,1,1,0.02556651473046328,0.0635045124740175,4.396484385773716,0,0,0,0,0,0,0,0,0,0,"",""
198,243530052,0,0,0,0,0,0,0,0,0,0,0,0,1000,149,22,82,0,0,0,-131,53,2062,129,110,117,94,1,8,0,1,1,0.0255672910936326,0.06350403777294401,4.396484385773716,0,0,0,0,0,0,0,0,0,0,"",""
199,243531535,0,0,0,0,0,0,0,0,0,0,0,0,1000,149,22,82,0,0,0,-131,53,2063,129,110,116,94,1,8,0,1,1,0.025567986456060707,0.0635033867908261,4.396484385773716,0,0,0,0,0,0,0,0,0,0,"",""
200,243533018,0,0,0,0,0,0,0,0,0,0,0,0,1000,149,22,82,0,0,0,-131,53,2063,129,110,116,94,1,8,0,1,1,0.025568674795995377,0.06350274238291982,4.396484385773716,0,0,0,0,0,0,0,0,0,0,"",""
201,243534494,0,0,0,0,0,0,0,0,0,0,0,0,1000,149,0,82,0,0,0,-131,53,2063,128,110,116,94,1,8,0,1,1,0.025569356218342696,0.06350210445101703,4.396484385773716,0,0,0,0,0,0,0,0,0,0,"",""
202,243535983,0,0,0,0,0,0,0,0,0,0,0,0,1000,149,0,82,0,0,0,-131,53,2063,128,110,115,94,1,8,0,1,1,0.025570030825929763,0.06350147289885584,4.396484385773716,0,0,0,0,0,0,0,0,0,0,"",""
203,243537523,0,0,0,0,0,0,0,0,0,0,0,0,1000,149,0,82,0,0,0,-131,53,2063,128,111,115,94,1,8,0,1,1,0.02557069871955591,0.06350084763207264,4.396484385773716,0,0,0,0,0,0,0,0,0,0,"",""
204,243539014,0,0,0,0,0,0,0,0,0,0,0,0,1000,149,0,82,0,0,0,-131,53,2063,129,111,115,94,1,8,0,1,1,0.025571359998042456,0.06350022855815547,4.396484385773716,0,0,0,0,0,0,0,0,0,0,"",""
205,243540562,0,0,0,0,0,0,0,0,0,0,0,0,1000,149,0,82,0,0,0,-131,53,2064,128,111,115,94,1,8,0,1,1,0.02557194342793761,0.06349943897541126,4.396484385773716,0,0,0,0,0,0,0,0,0,0,"",""
206,243542050,0,0,0,0,0,0,0,0,0,0,0,0,1000,149,0,82,0,0,0,-131,53,2064,128,112,115,94,1,8,0,1,1,0.025572521131142244,0.06349865714276362,4.396484385773716,0,0,0,0,0,0,0,0,0,0,"",""
207,243543526,0,0,0,0,0,0,0,0,0,0,0,0,1000,149,0,82,0,0,0,-131,53,2064,130,112,116,94,1,8,0,1,1,0.02557309319077125,0.06349788294773226,4.396484385773716,0,0,0,0,0,0,0,0,0,0,"",""
208,243545013,0,0,0,0,0,0,0,0,0,0,0,0,1000,149,0,82,0,0,0,-131,53,2064,129,111,116,94,1,8,0,1,1,0.025573659688339016,0.06349711628000278,4.396484385773716,0,0,0,0,0,0,0,0,0,0,"",""
209,243546525,0,0,0,0,0,0,0,0,0,0,0,0,1000,149,0,82,0,0,0,-131,53,2064,129,112,115,94,1,8,0,1,1,0.025574220703797747,0.06349635703137489,4.396484385773716,0,0,0,0,0,0,0,0,0,0,"",""
210,243548017,0,0,0,0,0,0,0,0,0,0,0,0,1000,149,0,82,0,0,0,-130,53,2065,130,113,115,94,1,8,0,1,1,0.025574706404719812,0.06349270915154351,4.396484385773716,0,0,0,0,0,0,0,0,0,0,"",""
211,243549503,0,0,0,0,0,0,0,0,0,0,0,0,1000,149,0,82,0,0,0,-130,53,2065,129,112,115,94,1,8,0,1,1,0.025575187446529028,0.0634890962625178,4.396484385773716,0,0,0,0,0,0,0,0,0,0,"",""
212,243550989,0,0,0,0,0,0,0,0,0,0,0,0,1000,149,0,82,0,0,0,-130,53,2065,130,112,116,94,1,8,0,1,1,0.0255756638952871,0.06348551786818632,4.396484385773716,0,0,0,0,0,0,0,0,0,0,"",""
213,243552476,0,0,0,0,0,0,0,0,0,0,0,0,1000,149,0,82,0,0,0,-130,53,2065,131,112,117,94,1,8,0,1,1,0.02557613581581283,0.0634819734817713,4.396484385773716,0,0,0,0,0,0,0,0,0,0,"",""
214,243554104,0,0,0,0,0,0,0,0,0,0,0,0,1000,149,0,82,0,0,0,-130,53,2065,130,111,117,94,1,8,0,1,1,0.025576603271711178,0.06347846262561012,4.396484385773716,0,0,0,0,0,0,0,0,0,0,"",""
215,243555783,0,0,0,0,0,0,0,0,0,0,0,0,1000,149,0,82,0,0,0,-130,53,2066,130,111,118,94,1,8,0,1,1,0.025576997769381788,0.0634748151880792,4.396484385773716,0,0,0,0,0,0,0,0,0,0,"",""
216,243557277,0,0,0,0,0,0,0,0,0,0,0,0,1000,149,0,82,0,0,0,-130,53,2066,130,111,118,94,1,8,0,1,1,0.025577388566706896,0.06347120196144089,4.396484385773716,0,0,0,0,0,0,0,0,0,0,"",""
217,243558766,0,0,0,0,0,0,0,0,0,0,0,0,1000,149,0,82,0,0,0,-130,53,2066,128,111,116,94,1,8,0,1,1,0.02557777571497241,0.06346762247156401,4.396484385773716,0,0,0,0,0,0,0,0,0,0,"",""
218,243560252,0,0,0,0,0,0,0,0,0,0,0,0,1000,149,0,82,0,0,0,-130,53,2066,129,111,115,94,1,8,0,1,1,0.025578159264520967,0.06346407625303738,4.396484385773716,0,0,0,0,0,0,0,0,0,0,"",""
219,243561731,0,0,0,0,0,0,0,0,0,0,0,0,1000,149,0,82,0,0,0,-130,53,2066,130,112,116,94,1,8,0,1,1,0.025578539264773513,0.0634605628489704,4.396484385773716,0,0,0,0,0,0,0,0,0,0,"",""
220,243563215,0,0,0,0,0,0,0,0,0,0,0,0,1000,149,0,82,0,0,0,-130,53,2067,131,112,116,94,1,8,0,1,1,0.02557884850271237,0.06345691542987701,4.396484385773716,0,0,0,0,0,0,0,0,0,0,"",""
221,243564804,0,0,0,0,0,0,0,0,0,0,0,0,1000,149,0,82,0,0,0,-130,53,2067,130,111,116,94,1,8,0,1,1,0.025579154902813615,0.06345330148101579,4.396484385773716,0,0,0,0,0,0,0,0,0,0,"",""
222,243566293,0,0,0,0,0,0,0,0,0,0,0,0,1000,149,0,82,0,0,0,-130,53,2067,130,111,117,94,1,8,0,1,1,0.025579458503543488,0.06344972054872842,4.396484385773716,0,0,0,0,0,0,0,0,0,0,"",""
223,243567784,0,0,0,0,0,0,0,0,0,0,0,0,1000,149,0,82,0,0,0,-130,52,2067,131,111,118,94,1,8,0,1,1,0.025577159728901268,0.0634461763959199,4.396484385773716,0,0,0,0,0,0,0,0,0,0,"",""
224,243569270,0,0,0,0,0,0,0,0,0,0,0,0,1000,149,0,82,0,0,0,-130,52,2067,128,110,116,93,1,8,0,1,1,0.025574881772425912,0.06344266433776988,4.396484385773716,0,0,0,0,0,0,0,0,0,0,"",""
225,243570738,0,0,0,0,0,0,0,0,0,0,0,0,1000,149,0,82,0,0,0,-130,52,2068,129,110,116,93,1,8,0,1,1,0.02557255835215576,0.06343902068160182,4.396484385773716,0,0,0,0,0,0,0,0,0,0,"",""
226,243572220,0,0,0,0,0,0,0,0,0,0,0,0,1000,149,0,82,0,0,0,-130,52,2068,129,110,116,93,1,8,0,1,1,0.025570255802561715,0.0634354097534423,4.396484385773716,0,0,0,0,0,0,0,0,0,0,"",""
227,243573714,0,0,0,0,0,0,0,0,0,0,0,0,1000,149,0,82,0,0,0,-130,52,2068,129,111,115,93,1,8,0,1,1,0.02556797384683741,0.06343183111924917,4.396484385773716,0,0,0,0,0,0,0,0,0,0,"",""
228,243575203,0,0,0,0,0,0,0,0,0,0,0,0,1000,149,0,82,0,0,0,-130,52,2068,132,112,117,93,1,8,0,1,1,0.02556571221304933,0.06342828435262048,4.396484385773716,0,0,0,0,0,0,0,0,0,0,"",""
229,243576688,0,0,0,0,0,0,0,0,0,0,0,0,1000,149,0,82,0,0,0,-130,52,2068,132,112,117,93,1,8,0,1,1,0.025563470634030007,0.06342476903462722,4.396484385773716,0,0,0,0,0,0,0,0,0,0,"",""
230,243578172,0,0,0,0,0,0,0,0,0,0,0,0,1000,150,0,82,0,0,0,-130,52,2068,131,112,116,93,1,8,0,1,1,0.025561248847274103,0.06342128475365029,4.396484385773716,0,0,0,0,0,0,0,0,0,0,"",""
231,243579645,0,0,0,0,0,0,0,0,0,0,0,0,1000,150,0,82,0,0,0,-130,52,2068,132,112,116,93,1,8,0,1,1,0.025559046594837126,0.06341783110522177,4.396484385773716,0,0,0,0,0,0,0,0,0,0,"",""
232,243581132,0,0,0,0,0,0,0,0,0,0,0,0,1000,150,0,82,0,0,0,-130,52,2068,130,111,116,93,1,8,0,1,1,0.02555686362323681,0.06341440769187028,4.396484385773716,0,0,0,0,0,0,0,0,0,0,"",""
233,243582666,0,0,0,0,0,0,0,0,0,0,0,0,1000,150,0,82,0,0,0,-130,52,2068,127,110,115,93,1,8,0,1,1,0.025554699683357045,0.06341101412297032,4.396484385773716,0,0,0,0,0,0,0,0,0,0,"",""
234,243584156,0,0,0,0,0,0,0,0,0,0,0,0,1000,150,0,82,0,0,0,-130,52,2068,128,110,115,93,1,8,0,1,1,0.025552554530354248,0.06340765001459553,4.396484385773716,0,0,0,0,0,0,0,0,0,0,"",""
235,243585643,0,0,0,0,0,0,0,0,0,0,0,0,1000,150,0,82,0,0,0,-130,52,2068,128,110,115,93,1,8,0,1,1,0.02555042792356619,0.0634043149893757,4.396484385773716,0,0,0,0,0,0,0,0,0,0,"",""
236,243587143,0,0,0,0,0,0,0,0,0,0,0,0,1000,150,0,82,0,0,0,-130,52,2068,128,110,114,93,1,8,0,1,1,0.025548319626423094,0.06340100867635737,4.396484385773716,0,0,0,0,0,0,0,0,0,0,"",""
237,243588751,0,0,0,0,0,0,0,0,0,0,0,0,1000,150,0,82,0,0,0,-130,52,2068,129,110,114,93,1,8,0,1,1,0.025546229406361004,0.06339773071086809,4.396484385773716,0,0,0,0,0,0,0,0,0,0,"",""
238,243590380,0,0,0,0,0,0,0,0,0,0,0,0,1000,150,0,82,0,0,0,-130,52,2068,130,111,115,93,1,8,0,1,1,0.025544157034737364,0.06339448073438395,4.396484385773716,0,0,0,0,0,0,0,0,0,0,"",""
239,243591883,0,0,0,0,0,0,0,0,0,0,0,0,1000,150,0,82,0,0,0,-130,52,2068,131,111,116,93,1,8,0,1,1,0.0255421022867487,0.06339125839440057,4.396484385773716,0,0,0,0,0,0,0,0,0,0,"",""
240,243593373,0,0,0,0,0,0,0,0,0,0,0,0,1000,150,0,82,0,0,0,-130,52,2068,130,111,115,93,1,8,0,1,1,0.02554006494135039,0.06338806334430737,4.396484385773716,0,0,0,0,0,0,0,0,0,0,"",""
241,243594857,0,0,0,0,0,0,0,0,0,0,0,0,1000,150,0,82,0,0,0,-130,52,2068,130,112,115,93,1,8,0,1,1,0.025538044781178427,0.06338489524326481,4.396484385773716,0,0,0,0,0,0,0,0,0,0,"",""
242,243596340,0,0,0,0,0,0,0,0,0,0,0,0,1000,150,0,82,0,0,0,-130,52,2068,130,112,115,93,1,8,0,1,1,0.025536041592473104,0.06338175375608474,4.396484385773716,0,0,0,0,0,0,0,0,0,0,"",""
243,243597820,0,0,0,0,0,0,0,0,0,0,0,0,1000,149,0,82,0,0,0,-130,52,2068,130,112,115,93,1,8,0,1,1,0.025534055165004645,0.06337863855311386,4.396484385773716,0,0,0,0,0,0,0,0,0,0,"",""
244,243599302,0,0,0,0,0,0,0,0,0,0,0,0,1000,149,0,82,0,0,0,-130,52,2068,130,112,115,93,1,8,0,1,1,0.025532085292000625,0.06337554931011985,4.396484385773716,0,0,0,0,0,0,0,0,0,0,"",""
245,243600801,0,0,0,0,0,0,0,0,0,0,0,0,1000,149,0,82,0,0,0,-130,52,2067,130,112,115,93,1,8,0,1,1,0.02553019321731766,0.06337263779525784,4.396484385773716,0,0,0,0,0,0,0,0,0,0,"",""
246,243602289,0,0,0,0,0,0,0,0,0,0,0,0,1000,149,0,82,0,0,0,-130,52,2067,129,110,115,93,1,8,0,1,1,0.025528316776628084,0.06336975033661901,4.396484385773716,0,0,0,0,0,0,0,0,0,0,"",""
247,243603774,0,0,0,0,0,0,0,0,0,0,0,0,1000,149,0,82,0,0,0,-130,52,2067,130,111,116,93,1,8,0,1,1,0.025526455779526166,0.06336688664123975,4.396484385773716,0,0,0,0,0,0,0,0,0,0,"",""
248,243605264,0,0,0,0,0,0,0,0,0,0,0,0,1000,149,0,82,0,0,0,-130,52,2067,130,111,115,93,1,8,0,1,1,0.025524610038685037,0.06336404642089341,4.396484385773716,0,0,0,0,0,0,0,0,0,0,"",""
249,243606737,0,0,0,0,0,0,0,0,0,0,0,0,1000,149,0,82,0,0,0,-130,52,2067,129,111,115,93,1,8,0,1,1,0.02552277936979469,0.06336122939199486,4.396484385773716,0,0,0,0,0,0,0,0,0,0,"",""
250,243608219,0,0,0,0,0,0,0,0,0,0,0,0,1000,149,0,82,0,0,0,-130,52,2066,129,111,114,93,1,8,0,1,1,0.025521024019114633,0.0633585848596753,4.396484385773716,0,0,0,0,0,0,0,0,0,0,"",""
251,243609716,0,0,0,0,0,0,0,0,0,0,0,0,1000,149,0,82,0,0,0,-130,52,2066,130,111,115,93,1,8,0,1,1,0.02551928288275745,0.06335596174094574,4.396484385773716,0,0,0,0,0,0,0,0,0,0,"",""
252,243611270,0,0,0,0,0,0,0,0,0,0,0,0,1000,149,0,82,0,0,0,-130,52,2066,130,111,116,93,1,8,0,1,1,0.025517555791149272,0.06335335978035969,4.396484385773716,0,0,0,0,0,0,0,0,0,0,"",""
253,243612756,0,0,0,0,0,0,0,0,0,0,0,0,1000,149,0,82,0,0,0,-130,52,2065,129,110,116,93,1,8,0,1,1,0.02551590241418257,0.06335092686005404,4.396484385773716,0,0,0,0,0,0,0,0,0,0,"",""
254,243614248,0,0,0,0,0,0,0,0,0,0,0,0,1000,149,0,82,0,0,0,-130,52,2065,130,110,116,93,1,8,0,1,1,0.025514262264192223,0.06334851340214027,4.396484385773716,0,0,0,0,0,0,0,0,0,0,"",""
255,243615721,0,0,0,0,0,0,0,0,0,0,0,0,1000,149,0,82,0,0,0,-130,52,2065,131,110,117,93,1,8,0,1,1,0.025512635185334434,0.06334611917731828,4.396484385773716,0,0,0,0,0,0,0,0,0,0,"",""
256,243617206,0,0,0,0,0,0,0,0,0,0,0,0,1000,149,0,82,0,0,0,-130,52,2064,128,109,114,92,1,8,0,1,1,0.025511080285272218,0.06334389067969812,4.396484385773716,0,0,0,0,0,0,0,0,0,0,"",""
257,243618706,0,0,0,0,0,0,0,0,0,0,0,0,1000,150,0,82,0,0,0,-130,52,2064,126,109,113,92,1,8,0,1,1,0.02550953767607782,0.0633416797966936,4.396484385773716,0,0,0,0,0,0,0,0,0,0,"",""
258,243620196,0,0,0,0,0,0,0,0,0,0,0,0,1000,150,0,82,0,0,0,-130,52,2064,126,109,114,92,1,8,0,1,1,0.02550800721470705,0.06333948632331071,4.396484385773716,0,0,0,0,0,0,0,0,0,0,"",""
259,243621683,0,0,0,0,0,0,0,0,0,0,0,0,1000,150,0,82,0,0,0,-130,52,2063,125,109,113,92,1,8,0,1,1,0.025506547460248646,0.06333745539939813,4.396484385773716,0,0,0,0,0,0,0,0,0,0,"",""
260,243623178,0,0,0,0,0,0,0,0,0,0,0,0,1000,150,0,82,0,0,0,-130,52,2063,125,109,112,92,1,8,0,1,1,0.02550509910867413,0.06333544033941418,4.396484385773716,0,0,0,0,0,0,0,0,0,0,"",""
261,243624799,0,0,0,0,0,0,0,0,0,0,0,0,1000,150,0,82,0,0,0,-130,52,2062,127,110,113,92,1,8,0,1,1,0.025503720362709592,0.06333358540343918,4.396484385773716,0,0,0,0,0,0,0,0,0,0,"",""
262,243626434,0,0,0,0,0,0,0,0,0,0,0,0,1000,150,0,82,0,0,0,-130,52,2062,128,110,113,92,1,8,0,1,1,0.02550235230088372,0.06333174484113077,4.396484385773716,0,0,0,0,0,0,0,0,0,0,"",""
263,243627941,0,0,0,0,0,0,0,0,0,0,0,0,1000,150,0,82,0,0,0,-130,52,2061,131,111,114,92,1,8,0,1,1,0.025501052775360748,0.0633300620471421,4.396484385773716,0,0,0,0,0,0,0,0,0,0,"",""
264,243629432,0,0,0,0,0,0,0,0,0,0,0,0,1000,150,0,82,0,0,0,-130,52,2061,131,112,114,92,1,8,0,1,1,0.025499763240356816,0.06332839218971122,4.396484385773716,0,0,0,0,0,0,0,0,0,0,"",""
265,243630917,0,0,0,0,0,0,0,0,0,0,0,0,1000,150,0,82,0,0,0,-130,52,2060,131,111,114,92,1,8,0,1,1,0.025498541203145767,0.06332687781208345,4.396484385773716,0,0,0,0,0,0,0,0,0,0,"",""
266,243632405,0,0,0,0,0,0,0,0,0,0,0,0,1000,150,0,82,0,0,0,-130,52,2060,129,110,114,92,1,8,0,1,1,0.025497328486941594,0.0633253749848887,4.396484385773716,0,0,0,0,0,0,0,0,0,0,"",""
267,243633871,0,0,0,0,0,0,0,0,0,0,0,0,1000,150,0,82,0,0,0,-130,52,2060,129,110,114,92,1,8,0,1,1,0.02549612498716884,0.06332388357854324,4.396484385773716,0,0,0,0,0,0,0,0,0,0,"",""
268,243635352,0,0,0,0,0,0,0,0,0,0,0,0,1000,150,0,82,0,0,0,-130,52,2059,128,109,114,92,1,8,0,1,1,0.025494987701300858,0.06332254487787,4.396484385773716,0,0,0,0,0,0,0,0,0,0,"",""
269,243636855,0,0,0,0,0,0,0,0,0,0,0,0,1000,150,0,82,0,0,0,-130,52,2059,128,109,114,92,1,8,0,1,1,0.02549385899148649,0.06332121627177516,4.396484385773716,0,0,0,0,0,0,0,0,0,0,"",""
270,243638339,0,0,0,0,0,0,0,0,0,0,0,0,1000,150,0,82,0,0,0,-130,52,2058,128,109,114,92,1,8,0,1,1,0.02549279552377757,0.06332003822695788,4.396484385773716,0,0,0,0,0,0,0,0,0,0,"",""
271,243639826,0,0,0,0,0,0,0,0,0,0,0,0,1000,150,0,82,0,0,0,-130,52,2058,129,109,115,92,1,8,0,1,1,0.02549174001367704,0.06331886899685034,4.396484385773716,0,0,0,0,0,0,0,0,0,0,"",""
272,243641312,0,0,0,0,0,0,0,0,0,0,0,0,1000,150,0,82,0,0,0,-130,52,2057,127,109,114,92,1,8,0,1,1,0.0254907488010652,0.06331784824299949,4.396484385773716,0,0,0,0,0,0,0,0,0,0,"",""
273,243642786,0,0,0,0,0,0,0,0,0,0,0,0,1000,150,0,82,0,0,0,-131,52,2057,128,108,115,92,1,8,0,1,1,0.0254897649486815,0.0633190337346731,4.396484385773716,0,0,0,0,0,0,0,0,0,0,"",""
274,243644271,0,0,0,0,0,0,0,0,0,0,0,0,1000,150,0,82,0,0,0,-131,52,2056,127,108,114,92,1,8,0,1,1,0.0254888444753707,0.06332034941556655,4.396484385773716,0,0,0,0,0,0,0,0,0,0,"",""
275,243645814,0,0,0,0,0,0,0,0,0,0,0,0,1000,150,0,82,0,0,0,-131,52,2056,126,108,114,92,1,8,0,1,1,0.025487930785145017,0.06332165540076984,4.396484385773716,0,0,0,0,0,0,0,0,0,0,"",""
276,243647303,0,0,0,0,0,0,0,0,0,0,0,0,1000,150,0,82,0,0,0,-131,52,2056,127,109,114,92,1,8,0,1,1,0.025487023804554556,0.0633229517952747,4.396484385773716,0,0,0,0,0,0,0,0,0,0,"",""
277,243648791,0,0,0,0,0,0,0,0,0,0,0,0,1000,150,0,82,0,0,0,-131,52,2055,128,109,114,92,1,8,0,1,1,0.025486179077712834,0.06332437649146257,4.396484385773716,0,0,0,0,0,0,0,0,0,0,"",""
278,243650279,0,0,0,0,0,0,0,0,0,0,0,0,1000,150,0,82,0,0,0,-131,52,2055,129,110,114,92,1,8,0,1,1,0.02548534050751935,0.06332579080369487,4.396484385773716,0,0,0,0,0,0,0,0,0,0,"",""
279,243651749,0,0,0,0,0,0,0,0,0,0,0,0,1000,150,0,82,0,0,0,-131,52,2055,128,109,114,92,1,8,0,1,1,0.025484508028061074,0.06332719484314545,4.396484385773716,0,0,0,0,0,0,0,0,0,0,"",""
280,243653235,0,0,0,0,0,0,0,0,0,0,0,0,1000,150,0,82,0,0,0,-131,52,2054,128,109,114,92,1,8,0,1,1,0.02548373671949643,0.06332872536292179,4.396484385773716,0,0,0,0,0,0,0,0,0,0,"",""
281,243654730,0,0,0,0,0,0,0,0,0,0,0,0,1015,150,0,82,0,0,0,-131,52,2054,129,110,115,92,1,8,0,1,1,0.025482970971539898,0.06333024484836454,4.396484385773716,0,0,0,0,0,0,0,0,0,0,"",""
282,243656222,0,0,0,0,0,0,0,0,0,0,0,0,1015,150,0,82,0,0,0,-131,52,2054,128,109,115,92,1,8,0,1,1,0.025482210725325517,0.06333175341628944,4.396484385773716,0,0,0,0,0,0,0,0,0,0,"",""
283,243657756,0,0,0,0,0,0,0,0,0,0,0,0,1015,150,0,82,0,0,0,-131,52,2053,128,109,115,92,1,8,0,1,1,0.02548151060749146,0.06333338670618502,4.396484385773716,0,0,0,0,0,0,0,0,0,0,"",""
284,243659252,0,0,0,0,0,0,0,0,0,0,0,0,1015,149,0,82,0,0,0,-131,52,2053,128,110,115,92,1,8,0,1,1,0.025480815482919087,0.06333500834704203,4.396484385773716,0,0,0,0,0,0,0,0,0,0,"",""
285,243660866,0,0,0,0,0,0,0,0,0,0,0,0,1015,149,0,82,0,0,0,-131,53,2053,129,110,115,92,1,8,0,1,1,0.025482259192121614,0.06333661502540447,4.396484385773716,0,0,0,0,0,0,0,0,0,0,"",""
286,243662518,0,0,0,0,0,0,0,0,0,0,0,0,1015,149,0,82,0,0,0,-131,53,2053,128,110,114,92,1,8,0,1,1,0.025483692673559197,0.06333821032101447,4.396484385773716,0,0,0,0,0,0,0,0,0,0,"",""
287,243664019,0,0,0,0,0,0,0,0,0,0,0,0,1015,149,0,82,0,0,0,-131,53,2053,128,110,114,92,1,8,0,1,1,0.025485116033567415,0.06333979435222065,4.396484385773716,0,0,0,0,0,0,0,0,0,0,"",""
288,243665505,0,0,0,0,0,0,0,0,0,0,0,0,1015,149,0,82,0,0,0,-131,53,2052,128,109,113,90,1,8,0,1,1,0.02548658333487649,0.06334150094921086,4.396484385773716,0,0,0,0,0,0,0,0,0,0,"",""
289,243667002,0,0,0,0,0,0,0,0,0,0,0,0,1015,149,0,82,0,0,0,-131,53,2052,127,108,112,90,1,8,0,1,1,0.025488040350735167,0.06334319558284188,4.396484385773716,0,0,0,0,0,0,0,0,0,0,"",""
290,243668491,0,0,0,0,0,0,0,0,0,0,0,0,1015,149,0,82,0,0,0,-131,53,2052,126,107,112,90,1,8,0,1,1,0.025489487186914607,0.06334487837614508,4.396484385773716,0,0,0,0,0,0,0,0,0,0,"",""
291,243669961,0,0,0,0,0,0,0,0,0,0,0,0,1015,149,0,82,0,0,0,-131,53,2052,126,107,112,90,1,8,0,1,1,0.02549092394774116,0.06334654945047119,4.396484385773716,0,0,0,0,0,0,0,0,0,0,"",""
292,243671442,0,0,0,0,0,0,0,0,0,0,0,0,1015,149,0,82,0,0,0,-131,53,2052,126,108,112,90,1,8,0,1,1,0.025492350736120963,0.06334820892551887,4.396484385773716,0,0,0,0,0,0,0,0,0,0,"",""
293,243672945,0,0,0,0,0,0,0,0,0,0,0,0,1025,149,0,82,0,0,0,-131,53,2052,126,108,112,90,1,8,0,1,1,0.025493767653564044,0.06334985691936278,4.396484385773716,0,0,0,0,0,0,0,0,0,0,"",""
294,243674435,0,0,0,0,0,0,0,0,0,0,0,0,1025,149,0,82,0,0,0,-131,53,2052,127,108,113,90,1,8,0,1,1,0.02549517480020791,0.06335149354848105,4.396484385773716,0,0,0,0,0,0,0,0,0,0,"",""
295,243675917,0,0,0,0,0,0,0,0,0,0,0,0,1025,149,5,82,0,0,0,-131,53,2052,128,109,113,90,1,8,0,1,1,0.02549657227484065,0.0633531189277821,4.396484385773716,0,0,0,0,0,0,0,0,0,0,"",""
296,243677403,0,0,0,0,0,0,0,0,0,0,0,0,1025,149,5,82,0,0,0,-131,53,2052,127,108,113,90,1,8,0,1,1,0.02549796017492361,0.06335473317063105,4.396484385773716,0,0,0,0,0,0,0,0,0,0,"",""
297,243678875,0,0,0,0,0,0,0,0,0,0,0,0,1025,149,5,82,0,0,0,-131,53,2052,126,107,113,90,1,8,0,1,1,0.025499338596613595,0.06335633638887551,4.396484385773716,0,0,0,0,0,0,0,0,0,0,"",""
298,243680358,0,0,0,0,0,0,0,0,0,0,0,0,1025,149,5,82,0,0,0,-131,53,2052,125,107,112,90,1,8,0,1,1,0.025500707634784615,0.06335792869287099,4.396484385773716,0,0,0,0,0,0,0,0,0,0,"",""
299,243681864,0,0,0,0,0,0,0,0,0,0,0,0,1025,149,5,82,0,0,0,-132,53,2052,123,106,111,90,1,8,0,1,1,0.025502067383049214,0.06336155909103117,4.396484385773716,0,0,0,0,0,0,0,0,0,0,"",""
300,243683353,0,0,0,0,0,0,0,0,0,0,0,0,1025,149,5,82,0,0,0,-132,53,2052,123,105,111,90,1,8,0,1,1,0.025503417933779356,0.06336516493088054,4.396484385773716,0,0,0,0,0,0,0,0,0,0,"",""
301,243684838,0,0,0,0,0,0,0,0,0,0,0,0,1025,149,5,82,0,0,0,-132,53,2052,124,106,112,90,1,8,0,1,1,0.025504759378126924,0.06336874645582162,4.396484385773716,0,0,0,0,0,0,0,0,0,0,"",""
302,243686325,0,0,0,0,0,0,0,0,0,0,0,0,1025,149,5,82,0,0,0,-132,53,2052,124,106,111,90,1,8,0,1,1,0.025506091806043785,0.0633723039060523,4.396484385773716,0,0,0,0,0,0,0,0,0,0,"",""
303,243687794,0,0,0,0,0,0,0,0,0,0,0,0,1025,149,5,82,0,0,0,-132,52,2052,125,107,111,90,1,8,0,1,1,0.025505379611991414,0.0633758408012042,4.396484385773716,0,0,0,0,0,0,0,0,0,0,"",""
304,243689286,0,0,0,0,0,0,0,0,0,0,0,0,1025,149,5,82,0,0,0,-132,52,2053,127,108,112,90,1,8,0,1,1,0.02550462037427796,0.06337922571858834,4.396484385773716,0,0,0,0,0,0,0,0,0,0,"",""
305,243690816,0,0,0,0,0,0,0,0,0,0,0,0,1034,149,5,82,0,0,0,-132,52,2053,128,109,112,90,1,8,0,1,1,0.025503866194874953,0.06338258808297861,4.396484385773716,0,0,0,0,0,0,0,0,0,0,"",""
306,243692307,0,0,0,0,0,0,0,0,0,0,0,0,1034,149,5,82,0,0,0,-132,52,2053,127,109,111,90,1,8,0,1,1,0.025503117024435168,0.06338592811440949,4.396484385773716,0,0,0,0,0,0,0,0,0,0,"",""
307,243693802,0,0,0,0,0,0,0,0,0,0,0,0,1034,149,5,82,0,0,0,-132,52,2053,127,109,111,90,1,8,0,1,1,0.025502372814250922,0.0633892460300637,4.396484385773716,0,0,0,0,0,0,0,0,0,0,"",""
308,243695426,0,0,0,0,0,0,0,0,0,0,0,0,1034,149,16,82,0,0,0,-132,52,2053,126,108,111,90,1,8,0,1,1,0.025501633516243717,0.06339254204431827,4.396484385773716,0,0,0,0,0,0,0,0,0,0,"",""
309,243697036,0,0,0,0,0,0,0,0,0,0,0,0,1034,149,16,82,0,0,0,-132,52,2053,125,107,111,90,1,8,0,1,1,0.02550089908295411,0.06339581636878967,4.396484385773716,0,0,0,0,0,0,0,0,0,0,"",""
310,243698529,0,0,0,0,0,0,0,0,0,0,0,0,1034,149,16,82,0,0,0,-131,52,2054,124,107,111,90,1,8,0,1,1,0.025500118440773215,0.0633969494955784,4.396484385773716,0,0,0,0,0,0,0,0,0,0,"",""
311,243700028,0,0,0,0,0,0,0,0,0,0,0,0,1035,149,16,82,0,0,0,-131,52,2054,124,106,111,90,1,8,0,1,1,0.02549934290701186,0.06339807520713522,4.396484385773716,0,0,0,0,0,0,0,0,0,0,"",""
312,243701518,0,0,0,0,0,0,0,0,0,0,0,0,1035,149,16,82,0,0,0,-131,52,2054,123,106,110,90,1,8,0,1,1,0.025498572432755162,0.0633991935744655,4.396484385773716,0,0,0,0,0,0,0,0,0,0,"",""
313,243703006,0,0,0,0,0,0,0,0,0,0,0,0,1035,149,16,82,0,0,0,-131,52,2054,124,106,111,90,1,8,0,1,1,0.025497806969710487,0.06340030466767133,4.396484385773716,0,0,0,0,0,0,0,0,0,0,"",""
314,243704541,0,0,0,0,0,0,0,0,0,0,0,0,1035,149,16,82,0,0,0,-131,52,2054,125,107,111,90,1,8,0,1,1,0.025497046470197533,0.06340140855596595,4.396484385773716,0,0,0,0,0,0,0,0,0,0,"",""
315,243706014,0,0,0,0,0,0,0,0,0,0,0,0,1035,149,16,82,0,0,0,-131,52,2055,126,107,111,90,1,8,0,1,1,0.02549624048313503,0.0634023803290365,4.396484385773716,0,0,0,0,0,0,0,0,0,0,"",""
316,243707521,0,0,0,0,0,0,0,0,0,0,0,0,1035,149,16,82,0,0,0,-131,52,2055,127,107,112,90,1,8,0,1,1,0.025495439694067094,0.06340334583476125,4.396484385773716,0,0,0,0,0,0,0,0,0,0,"",""
317,243709024,0,0,0,0,0,0,0,0,0,0,0,0,1047,149,16,82,0,0,0,-131,52,2055,128,107,113,90,1,8,0,1,1,0.02549464405397045,0.06340430513225025,4.396484385773716,0,0,0,0,0,0,0,0,0,0,"",""
