"Product","Blackbox flight data recorder by Nicholas Sherlock"
"firmwareType",3
"firmware","3.3"
"firmwarePatch",3
"firmwareVersion","3.3.3"
"Firmware revision","Betaflight 3.3.3 (a2d5a6482) MATEKF722"
"Firmware date","Apr 16 2020 13:32:09"
"Log start datetime","0000-01-01T00:00:00.000+00:00"
"Craft name","NEUROFLIGHT"
"frameIntervalI",32
"frameIntervalPNum",1
"frameIntervalPDenom",1
"minthrottle",1070
"maxthrottle",2000
"gyroScale",1.7453292519943295e-8
"motorOutput","128,2047"
"acc_1G",2048
"vbatscale",110
"vbatmincellvoltage",33
"vbatwarningcellvoltage",35
"vbatmaxcellvoltage",43
"vbatref",149
"currentMeterOffset",0
"currentMeterScale",179
"looptime",125
"gyro_sync_denom",1
"pid_process_denom",8
"thrMid",50
"thrExpo",0
"dynThrPID",10
"tpa_breakpoint",1650
"rc_rates","100,100,100"
"rc_expo","0,0,0"
"rates","70,70,70"
"rollPID","40,40,30"
"pitchPID","58,50,35"
"yawPID","70,45,20"
"altPID","50,0,0"
"posPID","15,0,0"
"posrPID","34,14,53"
"navrPID","25,33,83"
"levelPID","50,50,75"
"magPID","40,,"
"velPID","55,55,75"
"dterm_filter_type",1
"dterm_lpf_hz",100
"yaw_lpf_hz",0
"dterm_notch_hz",260
"dterm_notch_cutoff",160
"itermWindupPointPercent",50
"vbat_pid_compensation",0
"pidAtMinThrottle",1
"anti_gravity_threshold",350
"anti_gravity_gain",1000
"setpointRelaxRatio",100
"dtermSetpointWeight",0
"yawRateAccelLimit",0.1
"rateAccelLimit",0
"pidSumLimit",500
"pidSumLimitYaw",400
"deadband",0
"yaw_deadband",0
"gyro_lpf",0
"gyro_soft_type",0
"gyro_lowpass_hz",90
"gyro_notch_hz","400,200"
"gyro_notch_cutoff","300,100"
"acc_lpf_hz",1000
"acc_hardware",0
"baro_hardware",0
"mag_hardware",0
"gyro_cal_on_first_arm",0
"rc_interpolation",2
"rc_interpolation_interval",19
"airmode_activate_throttle",32
"serialrx_provider",2
"unsynced_fast_pwm",0
"fast_pwm_protocol",7
"motor_pwm_rate",480
"digitalIdleOffset",400
"debug_mode",0
"features",263176
"loopIteration","time","axisP[0]","axisP[1]","axisP[2]","axisI[0]","axisI[1]","axisI[2]","axisD[0]","axisD[1]","axisD[2]","rcCommand[0]","rcCommand[1]","rcCommand[2]","rcCommand[3]","vbatLatest","amperageLatest","BaroAlt","gyroADC[0]","gyroADC[1]","gyroADC[2]","accSmooth[0]","accSmooth[1]","accSmooth[2]","motor[0]","motor[1]","motor[2]","motor[3]","flightModeFlags","stateFlags","failsafePhase","rxSignalReceived","rxFlightChannelsValid","heading[0]","heading[1]","heading[2]","axisSum[0]","axisSum[1]","axisSum[2]","rcCommands[0]","rcCommands[1]","rcCommands[2]","rcCommands[3]","axisError[0]","axisError[1]","axisError[2]"
0,178711681,0,0,0,0,0,0,0,0,0,0,0,0,1000,149,0,67,0,0,0,-257,211,2052,128,114,122,94,"","","","","",0.10246638770276252,0.12394808214052931,4.396484385773716,0,0,0,0,0,0,0,0,0,0,"",""
1,178713182,0,0,0,0,0,0,0,0,0,0,0,0,1000,149,0,67,0,0,0,-257,211,2052,127,110,119,94,1,8,0,1,1,0.10246638770276251,0.12394808214052931,4.396484385773716,0,0,0,0,0,0,0,0,0,0,"",""
2,178714809,0,0,0,0,0,0,0,0,0,0,0,0,1000,149,0,67,0,0,0,-257,211,2052,126,109,117,94,1,8,0,1,1,0.1024663877027625,0.12394808214052933,4.396484385773716,0,0,0,0,0,0,0,0,0,0,"",""
3,178716430,0,0,0,0,0,0,0,0,0,0,0,0,1000,149,0,67,0,0,0,-257,211,2052,128,109,117,94,1,8,0,1,1,0.1024663877027625,0.12394808214052931,4.396484385773716,0,0,0,0,0,0,0,0,0,0,"",""
4,178717916,0,0,0,0,0,0,0,0,0,0,0,0,1000,149,0,67,0,0,0,-257,211,2052,127,109,117,94,1,8,0,1,1,0.10246638770276251,0.12394808214052931,4.396484385773716,0,0,0,0,0,0,0,0,0,0,"",""
5,178719402,0,0,0,0,0,0,0,0,0,0,0,0,1000,149,0,67,0,0,0,-257,211,2052,130,111,118,94,1,8,0,1,1,0.1024663877027625,0.12394808214052931,4.396484385773716,0,0,0,0,0,0,0,0,0,0,"",""
6,178720887,0,0,0,0,0,0,0,0,0,0,0,0,1000,149,0,67,0,0,0,-257,211,2052,130,111,118,94,1,8,0,1,1,0.10246638770276251,0.12394808214052931,4.396484385773716,0,0,0,0,0,0,0,0,0,0,"",""
7,178722378,0,0,0,0,0,0,0,0,0,0,0,0,1000,149,0,67,0,0,0,-257,211,2052,128,111,117,94,1,8,0,1,1,0.10246638770276251,0.12394808214052933,4.396484385773716,0,0,0,0,0,0,0,0,0,0,"",""
8,178723863,0,0,0,0,0,0,0,0,0,0,0,0,1000,149,0,67,0,0,0,-257,211,2052,127,110,117,94,1,8,0,1,1,0.10246638770276251,0.12394808214052931,4.396484385773716,0,0,0,0,0,0,0,0,0,0,"",""
9,178725346,0,0,0,0,0,0,0,0,0,0,0,0,1000,149,0,67,0,0,0,-257,211,2052,127,110,117,94,1,8,0,1,1,0.10246638770276252,0.12394808214052931,4.396484385773716,0,0,0,0,0,0,0,0,0,0,"",""
10,178726836,0,0,0,0,0,0,0,0,0,0,0,0,1000,150,0,67,0,0,0,-257,211,2052,127,109,118,94,1,8,0,1,1,0.10246638770276251,0.12394808214052931,4.396484385773716,0,0,0,0,0,0,0,0,0,0,"",""
11,178728318,0,0,0,0,0,0,0,0,0,0,0,0,1000,150,0,67,0,0,0,-258,211,2052,126,109,118,94,1,8,0,1,1,0.1024663877027625,0.12398822761400025,4.396484385773716,0,0,0,0,0,0,0,0,0,0,"",""
12,178729804,0,0,0,0,0,0,0,0,0,0,0,0,1000,150,0,67,0,0,0,-258,211,2052,127,109,118,94,1,8,0,1,1,0.10246638770276252,0.1240221963586269,4.396484385773716,0,0,0,0,0,0,0,0,0,0,"",""
13,178731311,0,0,0,0,0,0,0,0,0,0,0,0,1000,150,0,67,0,0,0,-258,211,2052,127,109,118,94,1,8,0,1,1,0.10246638770276253,0.12405131202153755,4.396484385773716,0,0,0,0,0,0,0,0,0,0,"",""
14,178732795,0,0,0,0,0,0,0,0,0,0,0,0,1000,150,0,67,0,0,0,-258,211,2052,127,110,117,94,1,8,0,1,1,0.10246638770276253,0.12407654526178265,4.396484385773716,0,0,0,0,0,0,0,0,0,0,"",""
15,178734279,0,0,0,0,0,0,0,0,0,0,0,0,1000,150,0,67,0,0,0,-258,211,2052,126,109,117,94,1,8,0,1,1,0.10246638770276253,0.12409862406364944,4.396484385773716,0,0,0,0,0,0,0,0,0,0,"",""
16,178735759,0,0,0,0,0,0,0,0,0,0,0,0,1000,150,0,67,0,0,0,-258,211,2052,127,110,117,94,1,8,0,1,1,0.10246638770276253,0.12411810511435831,4.396484385773716,0,0,0,0,0,0,0,0,0,0,"",""
17,178737241,0,0,0,0,0,0,0,0,0,0,0,0,1000,150,0,67,0,0,0,-258,211,2052,128,110,117,94,1,8,0,1,1,0.10246638770276252,0.12413542138832379,4.396484385773716,0,0,0,0,0,0,0,0,0,0,"",""
18,178738733,0,0,0,0,0,0,0,0,0,0,0,0,1000,150,0,67,0,0,0,-258,211,2052,128,110,117,94,1,8,0,1,1,0.10246638770276252,0.1241509147042858,4.396484385773716,0,0,0,0,0,0,0,0,0,0,"",""
19,178740222,0,0,0,0,0,0,0,0,0,0,0,0,1000,150,0,67,0,0,0,-258,211,2052,128,110,116,94,1,8,0,1,1,0.10246638770276253,0.12416485851497992,4.396484385773716,0,0,0,0,0,0,0,0,0,0,"",""
20,178741707,0,0,0,0,0,0,0,0,0,0,0,0,1000,150,0,67,0,0,0,-258,211,2052,127,109,116,94,1,8,0,1,1,0.10246638770276253,0.12417747418526859,4.396484385773716,0,0,0,0,0,0,0,0,0,0,"",""
21,178743192,0,0,0,0,0,0,0,0,0,0,0,0,1000,150,0,67,0,0,0,-258,211,2052,127,109,115,94,1,8,0,1,1,0.10246638770276252,0.12418894283064938,4.396484385773716,0,0,0,0,0,0,0,0,0,0,"",""
22,178744669,0,0,0,0,0,0,0,0,0,0,0,0,1000,150,0,67,0,0,0,-258,211,2052,126,108,115,94,1,8,0,1,1,0.10246638770276253,0.12419941406736792,4.396484385773716,0,0,0,0,0,0,0,0,0,0,"",""
23,178746157,0,0,0,0,0,0,0,0,0,0,0,0,1000,150,0,67,0,0,0,-258,211,2053,124,107,114,94,1,8,0,1,1,0.10246428185008719,0.12420649489728602,4.396484385773716,0,0,0,0,0,0,0,0,0,0,"",""
24,178747653,0,0,0,0,0,0,0,0,0,0,0,-1,1000,149,0,67,0,0,0,-258,211,2053,126,108,115,94,1,8,0,1,1,0.10246234456329302,0.12421300892087184,4.396484385773716,0,0,0,0,0,-1,0,0,0,1,"",""
25,178749153,0,0,0,0,0,0,0,0,0,0,0,-1,1000,149,0,67,0,0,0,-258,211,2053,127,112,119,94,1,8,0,1,1,0.10246055638401276,0.12421902156857623,4.396484385773716,0,0,0,0,0,-1,0,0,0,1,"",""
26,178750779,0,0,0,0,0,0,0,0,0,0,0,-1,1000,149,0,67,0,0,0,-258,211,2053,127,113,121,94,1,8,0,1,1,0.10245890073780736,0.12422458857320824,4.396484385773716,0,0,0,0,0,-1,0,0,0,1,"",""
27,178752404,0,0,0,0,0,0,0,0,0,0,0,-1,1000,149,0,67,0,0,0,-258,211,2053,127,114,121,94,1,8,0,1,1,0.1024573634189708,0.12422975770238784,4.396484385773716,0,0,0,0,0,-1,0,0,0,1,"",""
28,178753886,0,0,0,0,0,0,0,0,0,0,0,-1,1000,149,0,67,0,0,0,-258,211,2053,127,115,120,94,1,8,0,1,1,0.10245593218196859,0.12423457013241362,4.396484385773716,0,0,0,0,0,-1,0,0,0,1,"",""
29,178755392,0,0,0,0,0,0,0,0,0,0,0,-1,1000,149,0,67,0,0,0,-258,211,2053,126,114,120,94,1,8,0,1,1,0.1024545964146194,0.12423906154724905,4.396484385773716,0,0,0,0,0,-1,0,0,0,1,"",""
30,178756882,0,0,0,0,0,0,0,0,0,0,0,-1,1000,149,0,67,0,0,0,-258,211,2053,127,115,120,94,1,8,0,1,1,0.10245334687455504,0.12424326302472052,4.396484385773716,0,0,0,0,0,-1,0,0,0,1,"",""
31,178758372,0,0,0,0,0,0,0,0,0,0,0,-1,1000,149,0,67,0,0,0,-258,211,2053,128,115,121,94,1,8,0,1,1,0.10245217547511143,0.12424720175649197,4.396484385773716,0,0,0,0,0,-1,0,0,0,1,"",""
32,178759857,0,0,0,0,0,0,0,0,0,0,0,-1,1000,149,0,67,0,0,0,-258,211,2053,128,115,121,94,1,8,0,1,1,0.102451075110162,0.12425090163708821,4.396484385773716,0,0,0,0,0,-1,0,0,0,1,"",""
33,178761346,0,0,0,0,0,0,0,0,0,0,0,-1,1000,149,0,67,0,0,0,-258,211,2053,129,115,122,94,1,8,0,1,1,0.102450039509873,0.12425438374893681,4.396484385773716,0,0,0,0,0,-1,0,0,0,1,"",""
34,178762825,0,0,0,0,0,0,0,0,0,0,0,-1,1000,149,0,67,0,0,0,-258,211,2053,127,114,121,94,1,8,0,1,1,0.10244906312119455,0.1242576667642317,4.396484385773716,0,0,0,0,0,-1,0,0,0,1,"",""
35,178764310,0,0,0,0,0,0,0,0,0,0,0,-1,1000,149,0,67,0,0,0,-258,211,2053,127,114,121,94,1,8,0,1,1,0.10244814100827608,0.12426076727979792,4.396484385773716,0,0,0,0,0,-1,0,0,0,1,"",""
36,178765797,0,0,0,0,0,0,0,0,0,0,0,-1,1000,149,0,67,0,0,0,-258,211,2053,126,113,121,94,1,8,0,1,1,0.10244726876903544,0.12426370009763624,4.396484385773716,0,0,0,0,0,-1,0,0,0,1,"",""
37,178767283,0,0,0,0,0,0,0,0,0,0,0,-1,1000,150,0,67,0,0,0,-258,211,2053,127,113,122,94,1,8,0,1,1,0.10244644246490546,0.12426647846115776,4.396484385773716,0,0,0,0,0,-1,0,0,0,1,"",""
38,178768771,0,0,0,0,0,0,0,0,0,0,0,-1,1000,150,0,67,0,0,0,-258,211,2053,130,114,122,94,1,8,0,1,1,0.10244565856139164,0.12426911425506364,4.396484385773716,0,0,0,0,0,-1,0,0,0,1,"",""
39,178770259,0,0,0,0,0,0,0,0,0,0,0,-1,1000,150,0,67,0,0,0,-258,211,2053,129,114,121,94,1,8,0,1,1,0.10244491387754877,0.12427161817523391,4.396484385773716,0,0,0,0,0,-1,0,0,0,1,"",""
40,178771745,0,0,0,0,0,0,0,0,0,0,0,-1,1000,150,0,67,0,0,0,-258,211,2053,127,113,122,94,1,8,0,1,1,0.10244420554285331,0.12427399987374747,4.396484385773716,0,0,0,0,0,-1,0,0,0,1,"",""
41,178773232,0,0,0,0,0,0,0,0,0,0,0,-1,1000,150,0,67,0,0,0,-258,211,2053,125,112,121,94,1,8,0,1,1,0.10244353096023856,0.12427626808317913,4.396484385773716,0,0,0,0,0,-1,0,0,0,1,"",""
42,178774725,0,0,0,0,0,0,0,0,0,0,0,-1,1000,150,0,67,0,0,0,-258,211,2053,125,112,120,94,1,8,0,1,1,0.10244288777428885,0.12427843072354797,4.396484385773716,0,0,0,0,0,-1,0,0,0,1,"",""
43,178776210,0,0,0,0,0,0,0,0,0,0,0,-1,1000,150,0,67,0,0,0,-258,211,2053,125,112,121,94,1,8,0,1,1,0.1024422738437722,0.12428049499467812,4.396484385773716,0,0,0,0,0,-1,0,0,0,1,"",""
44,178777701,0,0,0,0,0,0,0,0,0,0,0,-1,1000,150,0,67,0,0,0,-258,211,2053,127,113,122,94,1,8,0,1,1,0.10244168721783622,0.12428246745624136,4.396484385773716,0,0,0,0,0,-1,0,0,0,1,"",""
45,178779187,0,0,0,0,0,0,0,0,0,0,0,-1,1000,150,0,67,0,0,0,-258,211,2053,128,115,123,94,1,8,0,1,1,0.10244112611530957,0.12428435409735662,4.396484385773716,0,0,0,0,0,-1,0,0,0,1,"",""
46,178780662,0,0,0,0,0,0,0,0,0,0,0,-1,1000,150,0,67,0,0,0,-258,211,2053,130,115,124,94,1,8,0,1,1,0.10244058890664628,0.1242861603973027,4.396484385773716,0,0,0,0,0,-1,0,0,0,1,"",""
47,178782148,0,0,0,0,0,0,0,0,0,0,0,-1,1000,150,0,67,0,0,0,-258,211,2053,130,115,124,94,1,8,0,1,1,0.10244007409812798,0.12428789137863935,4.396484385773716,0,0,0,0,0,-1,0,0,0,1,"",""
48,178783655,0,0,0,0,0,0,0,0,0,0,0,-1,1000,150,0,67,0,0,0,-258,211,2053,129,116,123,94,1,8,0,1,1,0.10243958031800056,0.12428955165382273,4.396484385773716,0,0,0,0,0,-1,0,0,0,1,"",""
49,178785280,0,0,0,0,0,0,0,0,0,0,0,-1,1000,150,0,67,0,0,0,-258,211,2053,128,115,122,94,1,8,0,1,1,0.10243910630427501,0.12429114546622519,4.396484385773716,0,0,0,0,0,-1,0,0,0,1,"",""
50,178786895,0,0,0,0,0,0,0,0,0,0,0,-1,1000,149,0,67,0,0,0,-258,212,2053,127,114,121,94,1,8,0,1,1,0.10244850275690362,0.1242925521345695,4.396484385773716,0,0,0,0,0,-1,0,0,0,1,"",""
51,178788384,0,0,0,0,0,0,0,0,0,0,0,-1,1000,149,0,67,0,0,0,-258,212,2053,126,114,120,94,1,8,0,1,1,0.10245753749810423,0.12429390464325815,4.396484385773716,0,0,0,0,0,-1,0,0,0,1,"",""
52,178789866,0,0,0,0,0,0,0,0,0,0,0,-1,1000,149,0,67,0,0,0,-258,212,2053,126,113,120,94,1,8,0,1,1,0.10246623100747805,0.12429520605933148,4.396484385773716,0,0,0,0,0,-1,0,0,0,1,"",""
53,178791348,0,0,0,0,0,0,0,0,0,0,0,-1,1000,149,0,67,0,0,0,-258,212,2053,125,111,121,94,1,8,0,1,1,0.10247460224722896,0.12429645922253996,4.396484385773716,0,0,0,0,0,-1,0,0,0,1,"",""
54,178792837,0,0,0,0,0,0,0,0,0,0,0,0,1000,149,0,67,0,0,0,-258,212,2053,126,111,122,94,1,8,0,1,1,0.10248266880014355,0.1242976667660161,4.396484385773716,0,0,0,0,0,0,0,0,0,0,"",""
55,178794326,0,0,0,0,0,0,0,0,0,0,0,0,1000,149,0,67,0,0,0,-258,212,2053,127,108,119,94,1,8,0,1,1,0.10249044699278384,0.1242988311347302,4.396484385773716,0,0,0,0,0,0,0,0,0,0,"",""
56,178795812,0,0,0,0,0,0,0,0,0,0,0,0,1000,149,0,67,0,0,0,-258,212,2053,128,108,119,94,1,8,0,1,1,0.10249795200570933,0.12429995460200306,4.396484385773716,0,0,0,0,0,0,0,0,0,0,"",""
57,178797295,0,0,0,0,0,0,0,0,0,0,0,0,1000,149,0,67,0,0,0,-258,212,2053,128,108,118,94,1,8,0,1,1,0.10250519797229388,0.12430103928430938,4.396484385773716,0,0,0,0,0,0,0,0,0,0,"",""
58,178798785,0,0,0,0,0,0,0,0,0,0,0,0,1000,149,0,67,0,0,0,-258,212,2053,129,110,117,94,1,8,0,1,1,0.10251219806749119,0.12430208715457526,4.396484385773716,0,0,0,0,0,0,0,0,0,0,"",""
59,178800271,0,0,0,0,0,0,0,0,0,0,0,0,1000,149,0,67,0,0,0,-258,212,2053,130,110,117,94,1,8,0,1,1,0.10251896458772167,0.12430310005414544,4.396484385773716,0,0,0,0,0,0,0,0,0,0,"",""
60,178801828,0,0,0,0,0,0,0,0,0,0,0,0,1000,149,0,67,0,0,0,-258,212,2053,130,111,117,94,1,8,0,1,1,0.10252550902289956,0.12430407970357282,4.396484385773716,0,0,0,0,0,0,0,0,0,0,"",""
61,178803318,0,0,0,0,0,0,0,0,0,0,0,0,1000,149,0,67,0,0,0,-258,212,2053,129,110,117,94,1,8,0,1,1,0.10253184212148848,0.12430502771236375,4.396484385773716,0,0,0,0,0,0,0,0,0,0,"",""
62,178804803,0,0,0,0,0,0,0,0,0,0,0,0,1000,149,0,67,0,0,0,-258,212,2053,129,110,117,94,1,8,0,1,1,0.10253797394935966,0.1243059455877944,4.396484385773716,0,0,0,0,0,0,0,0,0,0,"",""
63,178806289,0,0,0,0,0,0,0,0,0,0,0,0,1000,149,0,67,0,0,0,-258,212,2053,129,110,116,94,1,8,0,1,1,0.10254391394313099,0.12430683474290066,4.396484385773716,0,0,0,0,0,0,0,0,0,0,"",""
64,178807768,0,0,0,0,0,0,0,0,0,0,0,0,1000,149,0,67,0,0,0,-258,212,2053,128,110,115,94,1,8,0,1,1,0.10254967095858145,0.12430769650373004,4.396484385773716,0,0,0,0,0,0,0,0,0,0,"",""
65,178809254,0,0,0,0,0,0,0,0,0,0,0,0,1000,149,0,67,0,0,0,-258,211,2053,127,110,114,94,1,8,0,1,1,0.10254754696010947,0.12430862969005563,4.396484385773716,0,0,0,0,0,0,0,0,0,0,"",""
66,178810748,0,0,0,0,0,0,0,0,0,0,0,0,1000,149,0,67,0,0,0,-258,211,2053,128,110,114,94,1,8,0,1,1,0.1025454864373317,0.1243095349873695,4.396484385773716,0,0,0,0,0,0,0,0,0,0,"",""
67,178812237,0,0,0,0,0,0,0,0,0,0,0,0,1000,149,0,67,0,0,0,-258,211,2053,129,111,115,94,1,8,0,1,1,0.10254348658941591,0.12431041362629215,4.396484385773716,0,0,0,0,0,0,0,0,0,0,"",""
68,178813723,0,0,0,0,0,0,0,0,0,0,0,0,1000,149,0,67,0,0,0,-258,211,2053,129,110,116,94,1,8,0,1,1,0.10254154477792152,0.124311266766091,4.396484385773716,0,0,0,0,0,0,0,0,0,0,"",""
69,178815209,0,0,0,0,0,0,0,0,0,0,0,0,1000,149,0,67,0,0,0,-258,211,2053,129,110,116,94,1,8,0,1,1,0.10253965851519856,0.12431209549977806,4.396484385773716,0,0,0,0,0,0,0,0,0,0,"",""
70,178816694,0,0,0,0,0,0,0,0,0,0,0,0,1000,149,0,67,0,0,0,-258,211,2053,128,110,115,94,1,8,0,1,1,0.102537825453767,0.12431290085877655,4.396484385773716,0,0,0,0,0,0,0,0,0,0,"",""
71,178818192,0,0,0,0,0,0,0,0,0,0,0,0,1000,149,0,67,0,0,0,-258,211,2053,129,110,115,94,1,8,0,1,1,0.1025360433765813,0.12431368381719869,4.396484385773716,0,0,0,0,0,0,0,0,0,0,"",""
72,178819825,0,0,0,0,0,0,0,0,0,0,0,0,1000,149,0,67,0,0,0,-258,211,2053,128,110,115,94,1,8,0,1,1,0.10253431018809532,0.12431444529577175,4.396484385773716,0,0,0,0,0,0,0,0,0,0,"",""
73,178821453,0,0,0,0,0,0,0,0,0,0,0,0,1000,149,0,67,0,0,0,-258,211,2053,128,111,115,94,1,8,0,1,1,0.10253262390605168,0.12431518616544567,4.396484385773716,0,0,0,0,0,0,0,0,0,0,"",""
74,178822941,0,0,0,0,0,0,0,0,0,0,0,0,1000,149,0,67,0,0,0,-258,211,2053,129,111,115,94,1,8,0,1,1,0.10253098265392815,0.12431590725071223,4.396484385773716,0,0,0,0,0,0,0,0,0,0,"",""
75,178824426,0,0,0,0,0,0,0,0,0,0,0,0,1000,149,0,67,0,0,0,-258,211,2053,129,111,116,94,1,8,0,1,1,0.10252938465398043,0.12431660933266184,4.396484385773716,0,0,0,0,0,0,0,0,0,0,"",""
76,178825913,0,0,0,0,0,0,0,0,0,0,0,0,1000,149,0,67,0,0,0,-258,211,2053,129,111,116,94,1,8,0,1,1,0.1025278282208271,0.12431729315180241,4.396484385773716,0,0,0,0,0,0,0,0,0,0,"",""
77,178827402,0,0,0,0,0,0,0,0,0,0,0,0,1000,149,0,67,0,0,0,-258,211,2053,128,110,116,94,1,8,0,1,1,0.1025263117555281,0.12431795941066104,4.396484385773716,0,0,0,0,0,0,0,0,0,0,"",""
78,178828892,0,0,0,0,0,0,0,0,0,0,0,-1,1000,149,0,67,0,0,0,-258,211,2053,128,109,117,94,1,8,0,1,1,0.10252483374011315,0.1243186087761884,4.396484385773716,0,0,0,0,0,-1,0,0,0,1,"",""
79,178830382,0,0,0,0,0,0,0,0,0,0,0,-1,1000,149,0,67,0,0,0,-258,211,2053,129,112,122,94,1,8,0,1,1,0.10252339273252037,0.12431924188198254,4.396484385773716,0,0,0,0,0,-1,0,0,0,1,"",""
80,178831866,0,0,0,0,0,0,0,0,0,0,0,-1,1000,149,0,67,0,0,0,-258,211,2052,129,114,123,94,1,8,0,1,1,0.10252264132807123,0.12432064144301617,4.396484385773716,0,0,0,0,0,-1,0,0,0,1,"",""
81,178833352,0,0,0,0,0,0,0,0,0,0,0,-1,1000,149,0,67,0,0,0,-258,211,2052,128,115,123,94,1,8,0,1,1,0.10252190827112981,0.12432200682956282,4.396484385773716,0,0,0,0,0,-1,0,0,0,1,"",""
82,178834830,0,0,0,0,0,0,0,0,0,0,0,-1,1000,149,0,67,0,0,0,-258,211,2052,129,115,123,94,1,8,0,1,1,0.10252119289877774,0.12432333927640843,4.396484385773716,0,0,0,0,0,-1,0,0,0,1,"",""
83,178836316,0,0,0,0,0,0,0,0,0,0,0,-1,1000,149,0,67,0,0,0,-258,211,2052,128,114,123,94,1,8,0,1,1,0.1025204945796527,0.12432463995956052,4.396484385773716,0,0,0,0,0,-1,0,0,0,1,"",""
84,178837810,0,0,0,0,0,0,0,0,0,0,0,0,1000,149,0,67,0,0,0,-258,211,2052,127,114,123,94,1,8,0,1,1,0.10251981271209272,0.12432590999970414,4.396484385773716,0,0,0,0,0,0,0,0,0,0,"",""
85,178839301,0,0,0,0,0,0,0,0,0,0,0,0,1000,149,0,67,0,0,0,-258,211,2052,128,111,119,94,1,8,0,1,1,0.10251914672241011,0.12432715046541738,4.396484385773716,0,0,0,0,0,0,0,0,0,0,"",""
86,178840788,0,0,0,0,0,0,0,0,0,0,0,0,1000,149,0,67,0,0,0,-258,211,2052,128,110,117,94,1,8,0,1,1,0.10251849606328421,0.1243283623761651,4.396484385773716,0,0,0,0,0,0,0,0,0,0,"",""
87,178842275,0,0,0,0,0,0,0,0,0,0,0,0,1000,149,0,67,0,0,0,-258,211,2052,127,109,116,94,1,8,0,1,1,0.10251786021226394,0.12432954670508815,4.396484385773716,0,0,0,0,0,0,0,0,0,0,"",""
88,178843751,0,0,0,0,0,0,0,0,0,0,0,0,1000,149,0,67,0,0,0,-258,211,2052,127,108,116,94,1,8,0,1,1,0.10251723867037103,0.12433070438160543,4.396484385773716,0,0,0,0,0,0,0,0,0,0,"",""
89,178845236,0,0,0,0,0,0,0,0,0,0,0,0,1000,149,0,67,0,0,0,-258,211,2052,128,109,116,94,1,8,0,1,1,0.1025166309607964,0.12433183629384181,4.396484385773716,0,0,0,0,0,0,0,0,0,0,"",""
90,178846731,0,0,0,0,0,0,0,0,0,0,0,0,1000,149,0,67,0,0,0,-258,211,2052,127,108,116,94,1,8,0,1,1,0.10251603662768254,0.12433294329089639,4.396484385773716,0,0,0,0,0,0,0,0,0,0,"",""
91,178848263,0,0,0,0,0,0,0,0,0,0,0,0,1000,149,0,67,0,0,0,-257,211,2052,126,107,116,94,1,8,0,1,1,0.10251545523498512,0.12432843675322587,4.396484385773716,0,0,0,0,0,0,0,0,0,0,"",""
92,178849749,0,0,0,0,0,0,0,0,0,0,0,0,1000,149,0,67,0,0,0,-257,210,2052,126,108,115,94,1,8,0,1,1,0.10250929559827736,0.1243240980497033,4.396484385773716,0,0,0,0,0,0,0,0,0,0,"",""
93,178851236,0,0,0,0,0,0,0,0,0,0,0,0,1000,149,0,67,0,0,0,-257,211,2052,127,109,115,94,1,8,0,1,1,0.10250880303185365,0.12431978173075618,4.396484385773716,0,0,0,0,0,0,0,0,0,0,"",""
94,178852716,0,0,0,0,0,0,0,0,0,0,0,0,1000,149,0,67,0,0,0,-257,211,2052,127,109,116,94,1,8,0,1,1,0.10250832085284459,0.1243155564313279,4.396484385773716,0,0,0,0,0,0,0,0,0,0,"",""
95,178854210,0,0,0,0,0,0,0,0,0,0,0,0,1000,149,0,67,0,0,0,-257,211,2052,125,108,115,94,1,8,0,1,1,0.10250784873674623,0.12431141930809989,4.396484385773716,0,0,0,0,0,0,0,0,0,0,"",""
96,178855842,0,0,0,0,0,0,0,0,0,0,0,-1,1000,149,0,67,0,0,0,-257,211,2052,128,111,117,96,1,8,0,1,1,0.10250738637243195,0.12430736763496097,4.396484385773716,0,0,0,0,0,-1,0,0,0,1,"",""
97,178857464,0,0,0,0,0,0,0,0,0,0,0,-1,1000,149,0,67,0,0,0,-257,211,2052,130,115,122,96,1,8,0,1,1,0.10250693346147025,0.12430339879702934,4.396484385773716,0,0,0,0,0,-1,0,0,0,1,"",""
98,178858954,0,0,0,0,0,0,0,0,0,0,0,-1,1000,149,0,67,0,0,0,-257,211,2052,130,116,124,96,1,8,0,1,1,0.10250648971748365,0.12429951028503708,4.396484385773716,0,0,0,0,0,-1,0,0,0,1,"",""
99,178860442,0,0,0,0,0,0,0,0,0,0,0,-1,1000,149,0,67,0,0,0,-257,211,2052,130,117,125,96,1,8,0,1,1,0.10250605486554629,0.12429569969005129,4.396484385773716,0,0,0,0,0,-1,0,0,0,1,"",""
100,178861923,0,0,0,0,0,0,0,0,0,0,0,-1,1000,149,0,67,0,0,0,-257,211,2052,130,117,125,96,1,8,0,1,1,0.10250562864161711,0.12429196469850871,4.396484385773716,0,0,0,0,0,-1,0,0,0,1,"",""
101,178863408,0,0,0,0,0,0,0,0,0,0,0,-1,1000,149,0,67,0,0,0,-257,211,2052,129,116,125,96,1,8,0,1,1,0.10250521079200653,0.12428830308754243,4.396484385773716,0,0,0,0,0,-1,0,0,0,1,"",""
102,178864900,0,0,0,0,0,0,0,0,0,0,0,-1,1000,149,0,67,0,0,0,-257,211,2052,129,116,125,96,1,8,0,1,1,0.10250480107287395,0.12428471272058066,4.396484385773716,0,0,0,0,0,-1,0,0,0,1,"",""
103,178866390,0,0,0,0,0,0,0,0,0,0,0,-1,1000,149,0,67,0,0,0,-257,211,2052,129,116,125,96,1,8,0,1,1,0.10250439924975455,0.12428119154319922,4.396484385773716,0,0,0,0,0,-1,0,0,0,1,"",""
104,178867878,0,0,0,0,0,0,0,0,0,0,0,-1,1000,149,0,67,0,0,0,-257,211,2052,129,117,124,96,1,8,0,1,1,0.10250400509711281,0.12427773757921132,4.396484385773716,0,0,0,0,0,-1,0,0,0,1,"",""
105,178869364,0,0,0,0,0,0,0,0,0,0,0,-1,1000,149,0,67,0,0,0,-257,211,2052,128,117,123,96,1,8,0,1,1,0.1025036183979216,0.1242743489269781,4.396484385773716,0,0,0,0,0,-1,0,0,0,1,"",""
106,178870849,0,0,0,0,0,0,0,0,0,0,0,-1,1000,149,0,67,0,0,0,-257,211,2051,127,117,122,96,1,8,0,1,1,0.10250374450758723,0.12427162826574262,4.396484385773716,0,0,0,0,0,-1,0,0,0,1,"",""
107,178872334,0,0,0,0,0,0,0,0,0,0,0,-1,1000,149,0,67,0,0,0,-257,211,2051,127,116,122,96,1,8,0,1,1,0.10250386827763854,0.12426895807701434,4.396484385773716,0,0,0,0,0,-1,0,0,0,1,"",""
108,178873826,0,0,0,0,0,0,0,0,0,0,0,0,1000,149,0,67,0,0,0,-257,211,2051,126,116,122,96,1,8,0,1,1,0.10250398977241773,0.12426633697278698,4.396484385773716,0,0,0,0,0,0,0,0,0,0,"",""
109,178875317,0,0,0,0,0,0,0,0,0,0,0,0,1000,149,0,67,0,0,0,-257,211,2051,126,112,119,96,1,8,0,1,1,0.10250410905392927,0.12426376361548562,4.396484385773716,0,0,0,0,0,0,0,0,0,0,"",""
110,178876802,0,0,0,0,0,0,0,0,0,0,0,0,1000,149,0,67,0,0,0,-257,211,2051,128,111,118,96,1,8,0,1,1,0.10250422618194484,0.12426123671569686,4.396484385773716,0,0,0,0,0,0,0,0,0,0,"",""
111,178878290,0,0,0,0,0,0,0,0,0,0,0,0,1000,149,0,67,0,0,0,-257,211,2051,128,111,118,96,1,8,0,1,1,0.10250434121410312,0.12425875503002048,4.396484385773716,0,0,0,0,0,0,0,0,0,0,"",""
112,178879768,0,0,0,0,0,0,0,0,0,0,0,0,1000,149,0,67,0,0,0,-257,211,2051,128,111,118,96,1,8,0,1,1,0.10250445420600408,0.12425631735903522,4.396484385773716,0,0,0,0,0,0,0,0,0,0,"",""
113,178881248,0,0,0,0,0,0,0,0,0,0,0,0,1000,149,0,67,0,0,0,-257,211,2051,130,111,120,96,1,8,0,1,1,0.10250456521129828,0.1242539225453712,4.396484385773716,0,0,0,0,0,0,0,0,0,0,"",""
114,178882743,0,0,0,0,0,0,0,0,0,0,0,0,1000,149,0,67,0,0,0,-257,212,2051,132,112,121,96,1,8,0,1,1,0.10250927714345058,0.12425151124428394,4.396484385773716,0,0,0,0,0,0,0,0,0,0,"",""
115,178884233,0,0,0,0,0,0,0,0,0,0,0,0,1000,149,0,67,0,0,0,-257,212,2051,133,112,122,96,1,8,0,1,1,0.10251390764554005,0.12424914161043464,4.396484385773716,0,0,0,0,0,0,0,0,0,0,"",""
116,178885715,0,0,0,0,0,0,0,0,0,0,0,0,1000,149,0,67,0,0,0,-257,212,2051,134,112,122,96,1,8,0,1,1,0.10251845880409796,0.12424681257626294,4.396484385773716,0,0,0,0,0,0,0,0,0,0,"",""
117,178887203,0,0,0,0,0,0,0,0,0,0,0,0,1000,149,0,67,0,0,0,-257,212,2051,133,112,121,96,1,8,0,1,1,0.10252293263497404,0.12424452311036871,4.396484385773716,0,0,0,0,0,0,0,0,0,0,"",""
118,178888679,0,0,0,0,0,0,0,0,0,0,0,0,1000,149,0,67,0,0,0,-257,212,2051,133,112,120,96,1,8,0,1,1,0.10252733108630425,0.12424227221599393,4.396484385773716,0,0,0,0,0,0,0,0,0,0,"",""
119,178890178,0,0,0,0,0,0,0,0,0,0,0,0,1000,149,0,67,0,0,0,-257,212,2051,131,111,119,96,1,8,0,1,1,0.10253165604133037,0.12424005892958036,4.396484385773716,0,0,0,0,0,0,0,0,0,0,"",""
120,178891818,0,0,0,0,0,0,0,0,0,0,0,-1,1000,149,0,67,0,0,0,-257,212,2051,129,110,117,96,1,8,0,1,1,0.10253590932107974,0.12423788231939872,4.396484385773716,0,0,0,0,0,-1,0,0,0,1,"",""
121,178893496,0,0,0,0,0,0,0,0,0,0,0,-1,1000,149,0,67,0,0,0,-257,212,2051,128,114,120,96,1,8,0,1,1,0.10254009268691337,0.12423574148424509,4.396484385773716,0,0,0,0,0,-1,0,0,0,1,"",""
122,178894986,0,0,0,0,0,0,0,0,0,0,0,-1,1000,149,0,67,0,0,0,-257,212,2051,128,116,121,96,1,8,0,1,1,0.10254420784294976,0.12423363555220113,4.396484385773716,0,0,0,0,0,-1,0,0,0,1,"",""
123,178896474,0,0,0,0,0,0,0,0,0,0,0,-1,1000,149,0,67,0,0,0,-257,212,2051,128,116,122,96,1,8,0,1,1,0.10254825643837168,0.12423156367945393,4.396484385773716,0,0,0,0,0,-1,0,0,0,1,"",""
124,178897963,0,0,0,0,0,0,0,0,0,0,0,-1,1000,149,0,67,0,0,0,-257,212,2051,129,117,122,96,1,8,0,1,1,0.10255224006962209,0.12422952504917274,4.396484385773716,0,0,0,0,0,-1,0,0,0,1,"",""
125,178899457,0,0,0,0,0,0,0,0,0,0,0,-1,1000,149,0,67,0,0,0,-257,213,2051,130,118,123,96,1,8,0,1,1,0.10256039889698468,0.12422746523382065,4.396484385773716,0,0,0,0,0,-1,0,0,0,1,"",""
126,178900946,0,0,0,0,0,0,0,0,0,0,0,-1,1000,149,0,67,0,0,0,-257,213,2050,130,118,123,96,1,8,0,1,1,0.10256886204056528,0.1242259554060508,4.396484385773716,0,0,0,0,0,-1,0,0,0,1,"",""
127,178902443,0,0,0,0,0,0,0,0,0,0,0,-1,1000,149,0,67,0,0,0,-257,213,2050,130,117,124,96,1,8,0,1,1,0.10257719260409878,0.12422446922145106,4.396484385773716,0,0,0,0,0,-1,0,0,0,1,"",""
128,178903930,0,0,0,0,0,0,0,0,0,0,0,-1,1000,149,0,67,0,0,0,-257,213,2050,128,115,122,94,1,8,0,1,1,0.10258539366750315,0.12422300613098852,4.396484385773716,0,0,0,0,0,-1,0,0,0,1,"",""
129,178905418,0,0,0,0,0,0,0,0,0,0,0,-1,1000,149,0,67,0,0,0,-257,213,2050,129,116,122,94,1,8,0,1,1,0.1025934682160328,0.12422156560249861,4.396484385773716,0,0,0,0,0,-1,0,0,0,1,"",""
130,178906904,0,0,0,0,0,0,0,0,0,0,0,-1,1000,149,0,67,0,0,0,-257,213,2050,129,117,121,94,1,8,0,1,1,0.10260141914388789,0.12422014712004228,4.396484385773716,0,0,0,0,0,-1,0,0,0,1,"",""
131,178908387,0,0,0,0,0,0,0,0,0,0,0,-1,1000,150,0,67,0,0,0,-256,213,2050,129,117,121,94,1,8,0,1,1,0.10260924925765957,0.12421472575556056,4.396484385773716,0,0,0,0,0,-1,0,0,0,1,"",""
132,178909877,0,0,0,0,0,0,0,0,0,0,0,-1,1000,150,0,67,0,0,0,-256,213,2050,130,117,121,94,1,8,0,1,1,0.10261696127962013,0.12420938614019536,4.396484385773716,0,0,0,0,0,-1,0,0,0,1,"",""
133,178911367,0,0,0,0,0,0,0,0,0,0,0,-1,1000,150,0,67,0,0,0,-256,213,2050,130,117,121,94,1,8,0,1,1,0.10262455785086579,0.12420412644597252,4.396484385773716,0,0,0,0,0,-1,0,0,0,1,"",""
134,178912856,0,0,0,0,0,0,0,0,0,0,0,-1,1000,150,0,67,0,0,0,-256,213,2050,129,116,122,94,1,8,0,1,1,0.10263204153432026,0.12419894489901348,4.396484385773716,0,0,0,0,0,-1,0,0,0,1,"",""
135,178914342,0,0,0,0,0,0,0,0,0,0,0,-1,1000,150,0,67,0,0,0,-256,213,2050,130,115,123,94,1,8,0,1,1,0.1026394148176056,0.12419383977754919,4.396484385773716,0,0,0,0,0,-1,0,0,0,1,"",""
136,178915821,0,0,0,0,0,0,0,0,0,0,0,-1,1000,150,0,67,0,0,0,-256,213,2050,129,115,123,94,1,8,0,1,1,0.10264668011578766,0.12418880941002045,4.396484385773716,0,0,0,0,0,-1,0,0,0,1,"",""
137,178917322,0,0,0,0,0,0,0,0,0,0,0,-1,1000,150,0,67,0,0,0,-256,212,2050,130,116,123,94,1,8,0,1,1,0.1026499319609268,0.12418390165225912,4.396484385773716,0,0,0,0,0,-1,0,0,0,1,"",""
138,178918817,0,0,0,0,0,0,0,0,0,0,0,0,1000,150,0,67,0,0,0,-256,212,2050,129,115,123,94,1,8,0,1,1,0.10265313686252833,0.12417906473558438,4.396484385773716,0,0,0,0,0,0,0,0,0,0,"",""
139,178920305,0,0,0,0,0,0,0,0,0,0,0,0,1000,150,0,67,0,0,0,-256,212,2050,127,111,118,94,1,8,0,1,1,0.10265629582547209,0.12417429714371589,4.396484385773716,0,0,0,0,0,0,0,0,0,0,"",""
140,178921790,0,0,0,0,0,0,0,0,0,0,0,0,1000,150,0,67,0,0,0,-256,212,2050,126,109,116,94,1,8,0,1,1,0.10265940982616083,0.12416959740333845,4.396484385773716,0,0,0,0,0,0,0,0,0,0,"",""
141,178923281,0,0,0,0,0,0,0,0,0,0,0,0,1000,150,0,67,0,0,0,-256,212,2050,125,109,116,94,1,8,0,1,1,0.1026624798135219,0.12416496408259094,4.396484385773716,0,0,0,0,0,0,0,0,0,0,"",""
142,178924780,0,0,0,0,0,0,0,0,0,0,0,0,1000,150,0,67,0,0,0,-256,212,2050,126,109,115,94,1,8,0,1,1,0.102665506709967,0.1241603957896185,4.396484385773716,0,0,0,0,0,0,0,0,0,0,"",""
143,178926404,0,0,0,0,0,0,0,0,0,0,0,0,1000,150,0,67,0,0,0,-256,212,2050,128,110,116,94,1,8,0,1,1,0.1026684914123118,0.12415589117118495,4.396484385773716,0,0,0,0,0,0,0,0,0,0,"",""
144,178928040,0,0,0,0,0,0,0,0,0,0,0,0,1000,150,0,67,0,0,0,-256,212,2050,129,111,116,94,1,8,0,1,1,0.10267143479265779,0.12415144891134273,4.396484385773716,0,0,0,0,0,0,0,0,0,0,"",""
145,178929531,0,0,0,0,0,0,0,0,0,0,0,0,1000,150,0,67,0,0,0,-256,212,2050,129,111,116,94,1,8,0,1,1,0.10267433769923769,0.12414706773015713,4.396484385773716,0,0,0,0,0,0,0,0,0,0,"",""
146,178931018,0,0,0,0,0,0,0,0,0,0,0,0,1000,150,0,67,0,0,0,-256,212,2050,129,110,117,94,1,8,0,1,1,0.10267720095722643,0.12414274638248289,4.396484385773716,0,0,0,0,0,0,0,0,0,0,"",""
147,178932508,0,0,0,0,0,0,0,0,0,0,0,0,1000,150,0,67,0,0,0,-256,212,2050,129,110,117,94,1,8,0,1,1,0.10268002536951956,0.12413848365679017,4.396484385773716,0,0,0,0,0,0,0,0,0,0,"",""
148,178934002,0,0,0,0,0,0,0,0,0,0,0,0,1000,150,0,67,0,0,0,-256,212,2050,128,109,117,94,1,8,0,1,1,0.10268281171747999,0.12413427837403755,4.396484385773716,0,0,0,0,0,0,0,0,0,0,"",""
149,178935516,0,0,0,0,0,0,0,0,0,0,0,-1,1000,150,0,67,0,0,0,-256,212,2050,128,109,116,94,1,8,0,1,1,0.102685560761655,0.12413012938659056,4.396484385773716,0,0,0,0,0,-1,0,0,0,1,"",""
150,178937004,0,0,0,0,0,0,0,0,0,0,0,-1,1000,150,0,67,0,0,0,-256,212,2050,128,113,120,94,1,8,0,1,1,0.10268827324246489,0.12412603557718255,4.396484385773716,0,0,0,0,0,-1,0,0,0,1,"",""
151,178938492,0,0,0,0,0,0,0,0,0,0,0,-1,1000,150,0,67,0,0,0,-256,212,2050,129,115,122,94,1,8,0,1,1,0.10269094988086441,0.12412199585791706,4.396484385773716,0,0,0,0,0,-1,0,0,0,1,"",""
152,178939980,0,0,0,0,0,0,0,0,0,0,0,-1,1000,150,0,67,0,0,0,-256,212,2050,129,115,123,94,1,8,0,1,1,0.10269359137897821,0.1241180091693088,4.396484385773716,0,0,0,0,0,-1,0,0,0,1,"",""
153,178941468,0,0,0,0,0,0,0,0,0,0,0,-1,1000,150,0,67,0,0,0,-256,212,2051,128,115,123,94,1,8,0,1,1,0.1026958328481782,0.12411363872622266,4.396484385773716,0,0,0,0,0,-1,0,0,0,1,"",""
154,178942948,0,0,0,0,0,0,0,0,0,0,0,-1,1000,150,0,67,0,0,0,-256,212,2051,129,115,124,94,1,8,0,1,1,0.10269804524989616,0.12410932495397707,4.396484385773716,0,0,0,0,0,-1,0,0,0,1,"",""
155,178944426,0,0,0,0,0,0,0,0,0,0,0,-1,1000,150,0,67,0,0,0,-256,212,2051,129,114,124,94,1,8,0,1,1,0.10270022914290362,0.12410506676327629,4.396484385773716,0,0,0,0,0,-1,0,0,0,1,"",""
156,178945917,0,0,0,0,0,0,0,0,0,0,0,-1,1000,150,0,67,0,0,0,-256,212,2051,127,113,123,94,1,8,0,1,1,0.10270238507174187,0.1241008630925631,4.396484385773716,0,0,0,0,0,-1,0,0,0,1,"",""
157,178947406,0,0,0,0,0,0,0,0,0,0,0,-1,1000,150,0,67,0,0,0,-256,212,2051,127,113,123,94,1,8,0,1,1,0.10270451356717206,0.1240967129071415,4.396484385773716,0,0,0,0,0,-1,0,0,0,1,"",""
158,178948891,0,0,0,0,0,0,0,0,0,0,0,-1,1000,149,0,67,0,0,0,-256,212,2051,127,113,123,94,1,8,0,1,1,0.10270661514660841,0.1240926151983324,4.396484385773716,0,0,0,0,0,-1,0,0,0,1,"",""
159,178950375,0,0,0,0,0,0,0,0,0,0,0,-1,1000,149,0,67,0,0,0,-256,212,2051,126,113,122,94,1,8,0,1,1,0.10270869031453501,0.12408856898266109,4.396484385773716,0,0,0,0,0,-1,0,0,0,1,"",""
160,178951856,0,0,0,0,0,0,0,0,0,0,0,-1,1000,149,0,67,0,0,0,-256,212,2051,128,115,124,96,1,8,0,1,1,0.10271073956290744,0.12408457330107472,4.396484385773716,0,0,0,0,0,-1,0,0,0,1,"",""
161,178953342,0,0,0,0,0,0,0,0,0,0,0,-1,1000,149,0,67,0,0,0,-256,212,2051,129,116,124,96,1,8,0,1,1,0.102712763371539,0.12408062721818904,4.396484385773716,0,0,0,0,0,-1,0,0,0,1,"",""
162,178954835,0,0,0,0,0,0,0,0,0,0,0,-1,1000,149,0,67,0,0,0,-256,212,2051,129,115,125,96,1,8,0,1,1,0.10271476220847335,0.1240767298215627,4.396484385773716,0,0,0,0,0,-1,0,0,0,1,"",""
163,178956325,0,0,0,0,0,0,0,0,0,0,0,-1,1000,149,0,67,0,0,0,-256,211,2051,128,115,124,96,1,8,0,1,1,0.10271337890262731,0.12407292272290937,4.396484385773716,0,0,0,0,0,-1,0,0,0,1,"",""
164,178957811,0,0,0,0,0,0,0,0,0,0,0,-1,1000,149,0,67,0,0,0,-256,211,2051,130,116,125,96,1,8,0,1,1,0.102712012460101,0.12406916203126939,4.396484385773716,0,0,0,0,0,-1,0,0,0,1,"",""
165,178959311,0,0,0,0,0,0,0,0,0,0,0,-1,1000,149,0,67,0,0,0,-256,211,2051,128,115,124,96,1,8,0,1,1,0.10271066257626214,0.12406544690837876,4.396484385773716,0,0,0,0,0,-1,0,0,0,1,"",""
166,178960932,0,0,0,0,0,0,0,0,0,0,0,-1,1000,149,0,67,0,0,0,-256,211,2051,128,115,124,96,1,8,0,1,1,0.10270932895377179,0.12406177653604099,4.396484385773716,0,0,0,0,0,-1,0,0,0,1,"",""
167,178962565,0,0,0,0,0,0,0,0,0,0,0,-1,1000,149,0,67,0,0,0,-256,211,2051,128,115,124,96,1,8,0,1,1,0.10270801130236719,0.12405815011553013,4.396484385773716,0,0,0,0,0,-1,0,0,0,1,"",""
168,178964056,0,0,0,0,0,0,0,0,0,0,0,-1,1000,149,0,67,0,0,0,-256,211,2051,127,114,123,96,1,8,0,1,1,0.10270670933865284,0.12405456686701508,4.396484385773716,0,0,0,0,0,-1,0,0,0,1,"",""
169,178965543,0,0,0,0,0,0,0,0,0,0,0,-1,1000,149,0,67,0,0,0,-257,211,2051,128,115,123,96,1,8,0,1,1,0.10270542278589825,0.12405424782529816,4.396484385773716,0,0,0,0,0,-1,0,0,0,1,"",""
170,178967027,0,0,0,0,0,0,0,0,0,0,0,-1,1000,149,0,67,0,0,0,-257,211,2051,127,115,123,96,1,8,0,1,1,0.10270415137384341,0.12405393253797516,4.396484385773716,0,0,0,0,0,-1,0,0,0,1,"",""
171,178968512,0,0,0,0,0,0,0,0,0,0,0,-1,1000,149,0,67,0,0,0,-257,211,2050,127,114,124,96,1,8,0,1,1,0.10270322690924967,0.12405401654459111,4.396484385773716,0,0,0,0,0,-1,0,0,0,1,"",""
172,178969998,0,0,0,0,0,0,0,0,0,0,0,-1,1000,149,0,67,0,0,0,-257,211,2050,129,115,125,96,1,8,0,1,1,0.10270231319425384,0.12405409957428026,4.396484385773716,0,0,0,0,0,-1,0,0,0,1,"",""
173,178971519,0,0,0,0,0,0,0,0,0,0,0,-1,1000,149,0,67,0,0,0,-257,211,2050,129,115,125,96,1,8,0,1,1,0.10270141004369153,0.12405418164387219,4.396484385773716,0,0,0,0,0,-1,0,0,0,1,"",""
174,178973009,0,0,0,0,0,0,0,0,0,0,0,-1,1000,149,0,67,0,0,0,-257,211,2050,129,115,125,96,1,8,0,1,1,0.10270051727662664,0.12405426276981217,4.396484385773716,0,0,0,0,0,-1,0,0,0,1,"",""
175,178974490,0,0,0,0,0,0,0,0,0,0,0,-1,1000,149,0,67,0,0,0,-257,211,2050,130,116,125,96,1,8,0,1,1,0.10269963471623124,0.12405434296817205,4.396484385773716,0,0,0,0,0,-1,0,0,0,1,"",""
176,178975973,0,0,0,0,0,0,0,0,0,0,0,-1,1000,149,0,67,0,0,0,-257,211,2050,130,116,125,96,1,8,0,1,1,0.10269876218966958,0.12405442225466075,4.396484385773716,0,0,0,0,0,-1,0,0,0,1,"",""
177,178977460,0,0,0,0,0,0,0,0,0,0,0,-1,1000,149,0,67,0,0,0,-257,211,2050,129,116,124,96,1,8,0,1,1,0.10269789952798619,0.12405450064463451,4.396484385773716,0,0,0,0,0,-1,0,0,0,1,"",""
178,178978940,0,0,0,0,0,0,0,0,0,0,0,-1,1000,149,0,67,0,0,0,-257,211,2050,129,117,123,96,1,8,0,1,1,0.10269704656599753,0.12405457815310672,4.396484385773716,0,0,0,0,0,-1,0,0,0,1,"",""
179,178980428,0,0,0,0,0,0,0,0,0,0,0,-1,1000,149,0,67,0,0,0,-257,211,2050,130,117,124,96,1,8,0,1,1,0.10269620314218729,0.12405465479475737,4.396484385773716,0,0,0,0,0,-1,0,0,0,1,"",""
180,178981919,0,0,0,0,0,0,0,0,0,0,0,-1,1000,149,0,67,0,0,0,-257,211,2050,129,116,123,96,1,8,0,1,1,0.1026953690986052,0.12405473058394241,4.396484385773716,0,0,0,0,0,-1,0,0,0,1,"",""
181,178983410,0,0,0,0,0,0,0,0,0,0,0,-1,1000,149,0,67,0,0,0,-257,211,2050,128,116,122,96,1,8,0,1,1,0.10269454428076918,0.12405480553470241,4.396484385773716,0,0,0,0,0,-1,0,0,0,1,"",""
182,178984995,0,0,0,0,0,0,0,0,0,0,0,-1,1000,149,0,67,0,0,0,-257,211,2050,126,115,122,96,1,8,0,1,1,0.10269372853757064,0.1240548796607714,4.396484385773716,0,0,0,0,0,-1,0,0,0,1,"",""
183,178986499,0,0,0,0,0,0,0,0,0,0,0,-1,1000,149,0,67,0,0,0,-257,211,2050,125,114,122,96,1,8,0,1,1,0.10269292172118284,0.12405495297558498,4.396484385773716,0,0,0,0,0,-1,0,0,0,1,"",""
184,178987980,0,0,0,0,0,0,0,0,0,0,0,-1,1000,149,0,67,0,0,0,-257,211,2050,126,114,123,96,1,8,0,1,1,0.10269212368697239,0.12405502549228858,4.396484385773716,0,0,0,0,0,-1,0,0,0,1,"",""
185,178989473,0,0,0,0,0,0,0,0,0,0,0,-1,1000,149,0,67,0,0,0,-257,211,2050,127,115,123,96,1,8,0,1,1,0.10269133429341344,0.12405509722374523,4.396484385773716,0,0,0,0,0,-1,0,0,0,1,"",""
186,178990963,0,0,0,0,0,0,0,0,0,0,0,-1,1000,149,0,67,0,0,0,-257,211,2050,128,115,124,96,1,8,0,1,1,0.10269055340200457,0.12405516818254282,4.396484385773716,0,0,0,0,0,-1,0,0,0,1,"",""
187,178992453,0,0,0,0,0,0,0,0,0,0,0,-1,1000,149,0,67,0,0,0,-258,211,2050,128,115,125,96,1,8,0,1,1,0.10268978087718858,0.12405819376917822,4.396484385773716,0,0,0,0,0,-1,0,0,0,1,"",""
188,178993941,0,0,0,0,0,0,0,0,0,0,0,-1,1000,149,0,67,0,0,0,-258,211,2050,128,115,124,96,1,8,0,1,1,0.1026890165862746,0.12406118710549027,4.396484385773716,0,0,0,0,0,-1,0,0,0,1,"",""
189,178995437,0,0,0,0,0,0,0,0,0,0,0,-1,1000,149,0,67,0,0,0,-258,211,2050,128,115,124,96,1,8,0,1,1,0.10268826039936269,0.12406414870030441,4.396484385773716,0,0,0,0,0,-1,0,0,0,1,"",""
190,178997060,0,0,0,0,0,0,0,0,0,0,0,-1,1000,149,0,67,0,0,0,-258,211,2050,127,115,123,96,1,8,0,1,1,0.10268751218927086,0.12406707905179884,4.396484385773716,0,0,0,0,0,-1,0,0,0,1,"",""
191,178998683,0,0,0,0,0,0,0,0,0,0,0,0,1000,149,0,67,0,0,0,-258,211,2050,126,115,122,96,1,8,0,1,1,0.10268677183146441,0.12406997864778163,4.396484385773716,0,0,0,0,0,0,0,0,0,0,"",""
192,179000172,0,0,0,0,0,0,0,0,0,0,0,0,1000,149,0,70,0,0,0,-258,211,2050,128,112,120,96,1,8,0,1,1,0.10268603920398735,0.1240728479659592,4.396484385773716,0,0,0,0,0,0,0,0,0,0,"",""
193,179001660,0,0,0,0,0,0,0,0,0,0,0,0,1000,149,0,70,0,0,0,-258,211,2050,129,111,118,96,1,8,0,1,1,0.10268531418739606,0.12407568747419624,4.396484385773716,0,0,0,0,0,0,0,0,0,0,"",""
194,179003149,0,0,0,0,0,0,0,0,0,0,0,0,1000,149,0,70,0,0,0,-258,212,2050,128,111,117,96,1,8,0,1,1,0.10268749104711646,0.12407846100157154,4.396484385773716,0,0,0,0,0,0,0,0,0,0,"",""
195,179004632,0,0,0,0,0,0,0,0,0,0,0,0,1000,149,0,70,0,0,0,-258,212,2050,130,112,118,96,1,8,0,1,1,0.10268964551789414,0.12408120600083125,4.396484385773716,0,0,0,0,0,0,0,0,0,0,"",""
196,179006117,0,0,0,0,0,0,0,0,0,0,0,0,1000,149,0,70,0,0,0,-258,212,2050,131,112,119,96,1,8,0,1,1,0.1026917779404248,0.12408392290612966,4.396484385773716,0,0,0,0,0,0,0,0,0,0,"",""
197,179007648,0,0,0,0,0,0,0,0,0,0,0,0,1000,149,0,70,0,0,0,-257,212,2050,130,111,119,96,1,8,0,1,1,0.10269388864852692,0.12408378370960756,4.396484385773716,0,0,0,0,0,0,0,0,0,0,"",""
198,179009136,0,0,0,0,0,0,0,0,0,0,0,0,1000,150,0,70,0,0,0,-257,212,2050,130,112,119,96,1,8,0,1,1,0.1026959779693146,0.12408364592298785,4.396484385773716,0,0,0,0,0,0,0,0,0,0,"",""
199,179010624,0,0,0,0,0,0,0,0,0,0,0,0,1000,150,0,70,0,0,0,-257,212,2050,130,111,119,96,1,8,0,1,1,0.10269804622336486,0.12408350952514556,4.396484385773716,0,0,0,0,0,0,0,0,0,0,"",""
200,179012110,0,0,0,0,0,0,0,0,0,0,0,0,1000,150,0,70,0,0,0,-257,212,2050,129,111,118,96,1,8,0,1,1,0.1027000937248802,0.12408337449537564,4.396484385773716,0,0,0,0,0,0,0,0,0,0,"",""
201,179013594,0,0,0,0,0,0,0,0,0,0,0,0,1000,150,0,70,0,0,0,-257,212,2050,128,111,118,96,1,8,0,1,1,0.10270212078184636,0.12408324081338257,4.396484385773716,0,0,0,0,0,0,0,0,0,0,"",""
202,179015077,0,0,0,0,0,0,0,0,0,0,0,0,1000,150,0,70,0,0,0,-257,212,2050,130,112,119,96,1,8,0,1,1,0.10270412769618512,0.12408310845927024,4.396484385773716,0,0,0,0,0,0,0,0,0,0,"",""
203,179016569,0,0,0,0,0,0,0,0,0,0,0,0,1000,150,0,70,0,0,0,-257,212,2050,131,112,119,96,1,8,0,1,1,0.10270611476390289,0.12408297741353232,4.396484385773716,0,0,0,0,0,0,0,0,0,0,"",""
204,179018062,0,0,0,0,0,0,0,0,0,0,0,0,1000,150,0,70,0,0,0,-257,212,2050,130,111,119,96,1,8,0,1,1,0.102708082275235,0.12408284765704239,4.396484385773716,0,0,0,0,0,0,0,0,0,0,"",""
205,179019546,0,0,0,0,0,0,0,0,0,0,0,0,1000,150,0,70,0,0,0,-257,212,2050,130,111,119,96,1,8,0,1,1,0.10271003051478547,0.12408271917104524,4.396484385773716,0,0,0,0,0,0,0,0,0,0,"",""
206,179021032,0,0,0,0,0,0,0,0,0,0,0,0,1000,150,0,70,0,0,0,-257,212,2050,131,111,120,96,1,8,0,1,1,0.10271195976166314,0.12408259193714756,4.396484385773716,0,0,0,0,0,0,0,0,0,0,"",""
207,179022518,0,0,0,0,0,0,0,0,0,0,0,0,1000,150,0,70,0,0,0,-257,212,2051,129,110,119,96,1,8,0,1,1,0.10271358770717479,0.12408212924861232,4.396484385773716,0,0,0,0,0,0,0,0,0,0,"",""
208,179024004,0,0,0,0,0,0,0,0,0,0,0,0,1000,150,0,70,0,0,0,-257,212,2051,128,110,119,96,1,8,0,1,1,0.10271519992243736,0.12408167103049576,4.396484385773716,0,0,0,0,0,0,0,0,0,0,"",""
209,179025521,0,0,0,0,0,0,0,0,0,0,0,0,1000,150,0,72,0,0,0,-257,212,2051,128,110,119,96,1,8,0,1,1,0.10271679663214488,0.12408121721894698,4.396484385773716,0,0,0,0,0,0,0,0,0,0,"",""
210,179027011,0,0,0,0,0,0,0,0,0,0,0,0,1000,150,0,72,0,0,0,-257,212,2050,127,110,118,96,1,8,0,1,1,0.10271865729133868,0.12408110043197726,4.396484385773716,0,0,0,0,0,0,0,0,0,0,"",""
211,179028497,0,0,0,0,0,0,0,0,0,0,0,0,1000,150,0,72,0,0,0,-257,212,2050,126,109,117,96,1,8,0,1,1,0.10272050023089764,0.12408098475678363,4.396484385773716,0,0,0,0,0,0,0,0,0,0,"",""
212,179029988,0,0,0,0,0,0,0,0,0,0,0,0,1000,150,0,72,0,0,0,-257,212,2050,127,110,117,96,1,8,0,1,1,0.10272232570022735,0.12408087017772372,4.396484385773716,0,0,0,0,0,0,0,0,0,0,"",""
213,179031620,0,0,0,0,0,0,0,0,0,0,0,0,1000,150,0,72,0,0,0,-256,212,2050,128,111,118,96,1,8,0,1,1,0.10272413394407529,0.1240781064967891,4.396484385773716,0,0,0,0,0,0,0,0,0,0,"",""
214,179033262,0,0,0,0,0,0,0,0,0,0,0,0,1000,150,0,72,0,0,0,-256,212,2050,128,111,118,96,1,8,0,1,1,0.10272592520263885,0.12407536877352272,4.396484385773716,0,0,0,0,0,0,0,0,0,0,"",""
215,179034775,0,0,0,0,0,0,0,0,0,0,0,0,1000,150,0,72,0,0,0,-256,212,2050,130,112,118,96,1,8,0,1,1,0.10272769971167084,0.12407265664766891,4.396484385773716,0,0,0,0,0,0,0,0,0,0,"",""
216,179036266,0,0,0,0,0,0,0,0,0,0,0,0,1000,150,0,72,0,0,0,-256,212,2050,129,112,118,96,1,8,0,1,1,0.1027294577025816,0.12406996976560687,4.396484385773716,0,0,0,0,0,0,0,0,0,0,"",""
217,179037753,0,0,0,0,0,0,0,0,0,0,0,0,1000,150,0,72,0,0,0,-256,212,2050,128,111,118,96,1,8,0,1,1,0.1027311994025387,0.12406730778019895,4.396484385773716,0,0,0,0,0,0,0,0,0,0,"",""
218,179039240,0,0,0,0,0,0,0,0,0,0,0,0,1000,150,0,72,0,0,0,-256,212,2050,129,111,118,96,1,8,0,1,1,0.1027329250345636,0.12406467035064248,4.396484385773716,0,0,0,0,0,0,0,0,0,0,"",""
219,179040728,0,0,0,0,0,0,0,0,0,0,0,0,1000,150,0,72,0,0,0,-256,212,2050,129,111,119,96,1,8,0,1,1,0.10273463481762592,0.12406205714232596,4.396484385773716,0,0,0,0,0,0,0,0,0,0,"",""
220,179042211,0,0,0,0,0,0,0,0,0,0,0,0,1000,150,0,72,0,0,0,-256,212,2050,129,110,119,96,1,8,0,1,1,0.10273632896673492,0.12405946782668922,4.396484385773716,0,0,0,0,0,0,0,0,0,0,"",""
221,179043697,0,0,0,0,0,0,0,0,0,0,0,0,1000,150,0,72,0,0,0,-256,212,2050,131,111,119,96,1,8,0,1,1,0.10273800769302874,0.12405690208108719,4.396484385773716,0,0,0,0,0,0,0,0,0,0,"",""
222,179045188,0,0,0,0,0,0,0,0,0,0,0,0,1000,150,0,72,0,0,0,-256,212,2050,130,111,118,96,1,8,0,1,1,0.10273967120386115,0.1240543595886573,4.396484385773716,0,0,0,0,0,0,0,0,0,0,"",""
223,179046675,0,0,0,0,0,0,0,0,0,0,0,0,1000,150,0,72,0,0,0,-256,212,2050,130,111,119,96,1,8,0,1,1,0.10274131970288586,0.12405184003819057,4.396484385773716,0,0,0,0,0,0,0,0,0,0,"",""
224,179048161,0,0,0,0,0,0,0,0,0,0,0,0,1000,150,0,72,0,0,0,-256,212,2050,128,109,117,94,1,8,0,1,1,0.10274295339013872,0.12404934312400613,4.396484385773716,0,0,0,0,0,0,0,0,0,0,"",""
225,179049640,0,0,0,0,0,0,0,0,0,0,0,0,1000,149,0,72,0,0,0,-256,212,2050,128,109,116,94,1,8,0,1,1,0.1027445724621178,0.12404686854582885,4.396484385773716,0,0,0,0,0,0,0,0,0,0,"",""
226,179051135,0,0,0,0,0,0,0,0,0,0,0,0,1000,149,0,73,0,0,0,-256,212,2050,127,108,116,94,1,8,0,1,1,0.10274617711186108,0.12404441600867064,4.396484385773716,0,0,0,0,0,0,0,0,0,0,"",""
227,179052660,0,0,0,0,0,0,0,0,0,0,0,0,1000,149,0,73,0,0,0,-256,212,2051,127,108,116,94,1,8,0,1,1,0.10274750556746755,0.12404167330659081,4.396484385773716,0,0,0,0,0,0,0,0,0,0,"",""
228,179054147,0,0,0,0,0,0,0,0,0,0,0,0,1000,149,0,73,0,0,0,-255,212,2051,125,108,115,94,1,8,0,1,1,0.10274882228376549,0.12403644890923919,4.396484385773716,0,0,0,0,0,0,0,0,0,0,"",""
229,179055632,0,0,0,0,0,0,0,0,0,0,0,0,1000,149,0,73,0,0,0,-255,212,2051,125,108,115,94,1,8,0,1,1,0.10275012741387571,0.12403127047602454,4.396484385773716,0,0,0,0,0,0,0,0,0,0,"",""
230,179057120,0,0,0,0,0,0,0,0,0,0,0,0,1000,149,0,73,0,0,0,-255,212,2051,126,108,116,94,1,8,0,1,1,0.10275142110826796,0.12402613741010284,4.396484385773716,0,0,0,0,0,0,0,0,0,0,"",""
231,179058609,0,0,0,0,0,0,0,0,0,0,0,0,1000,149,0,73,0,0,0,-255,212,2051,127,109,116,94,1,8,0,1,1,0.10275270351481812,0.12402104912491739,4.396484385773716,0,0,0,0,0,0,0,0,0,0,"",""
232,179060094,0,0,0,0,0,0,0,0,0,0,0,0,1000,149,0,73,0,0,0,-255,212,2051,130,110,117,94,1,8,0,1,1,0.1027539747788637,0.12401600504397808,4.396484385773716,0,0,0,0,0,0,0,0,0,0,"",""
233,179061578,0,0,0,0,0,0,0,0,0,0,0,0,1000,149,0,73,0,0,0,-255,212,2051,132,111,118,94,1,8,0,1,1,0.10275523504325823,0.12401100460064654,4.396484385773716,0,0,0,0,0,0,0,0,0,0,"",""
234,179063071,0,0,0,0,0,0,0,0,0,0,0,0,1000,149,0,73,0,0,0,-255,212,2051,131,111,117,94,1,8,0,1,1,0.10275648444842406,0.12400604723792628,4.396484385773716,0,0,0,0,0,0,0,0,0,0,"",""
235,179064558,0,0,0,0,0,0,0,0,0,0,0,0,1000,149,0,73,0,0,0,-255,212,2051,129,110,118,94,1,8,0,1,1,0.1027577231324038,0.12400113240825875,4.396484385773716,0,0,0,0,0,0,0,0,0,0,"",""
236,179066057,0,0,0,0,0,0,0,0,0,0,0,0,1000,149,0,73,0,0,0,-255,212,2051,128,109,118,94,1,8,0,1,1,0.10275895123091057,0.12399625957332411,4.396484385773716,0,0,0,0,0,0,0,0,0,0,"",""
237,179067721,0,0,0,0,0,0,0,0,0,0,0,0,1000,149,0,73,0,0,0,-255,212,2051,126,108,116,94,1,8,0,1,1,0.10276016887737693,0.12399142820384723,4.396484385773716,0,0,0,0,0,0,0,0,0,0,"",""
238,179069350,0,0,0,0,0,0,0,0,0,0,0,0,1000,149,0,73,0,0,0,-256,212,2051,125,108,116,94,1,8,0,1,1,0.10276137620300262,0.12398905767079303,4.396484385773716,0,0,0,0,0,0,0,0,0,0,"",""
239,179070845,0,0,0,0,0,0,0,0,0,0,0,0,1004,149,0,73,0,0,0,-256,212,2051,126,109,116,94,1,8,0,1,1,0.10276257333680096,0.12398670714740317,4.396484385773716,0,0,0,0,0,0,0,0,0,0,"",""
240,179072338,0,0,0,0,0,0,0,0,0,0,0,0,1004,149,0,73,0,0,0,-256,212,2051,126,110,115,94,1,8,0,1,1,0.10276376040564433,0.12398437638460845,4.396484385773716,0,0,0,0,0,0,0,0,0,0,"",""
241,179073820,0,0,0,0,0,0,0,0,0,0,0,0,1004,149,0,73,0,0,0,-256,212,2051,127,110,116,94,1,8,0,1,1,0.10276493753430839,0.12398206513745547,4.396484385773716,0,0,0,0,0,0,0,0,0,0,"",""
242,179075312,0,0,0,0,0,0,0,0,0,0,0,0,1004,149,0,73,0,0,0,-256,212,2051,127,110,116,94,1,8,0,1,1,0.1027661048455151,0.12397977316502214,4.396484385773716,0,0,0,0,0,0,0,0,0,0,"",""
243,179076796,0,0,0,0,0,0,0,0,0,0,0,0,1004,149,0,73,0,0,0,-256,212,2051,126,109,116,94,1,8,0,1,1,0.10276726245997493,0.12397750023033503,4.396484385773716,0,0,0,0,0,0,0,0,0,0,"",""
244,179078279,0,0,0,0,0,0,0,0,0,0,0,0,1004,149,0,73,0,0,0,-256,212,2052,126,108,116,94,1,8,0,1,1,0.1027681634146823,0.1239749521159836,4.396484385773716,0,0,0,0,0,0,0,0,0,0,"",""
245,179079806,0,0,0,0,0,0,0,0,0,0,0,0,1018,149,0,73,0,0,0,-256,212,2052,125,107,116,94,1,8,0,1,1,0.10276905694017839,0.1239724250115132,4.396484385773716,0,0,0,0,0,0,0,0,0,0,"",""
246,179081298,0,0,0,0,0,0,0,0,0,0,0,0,1018,149,0,73,0,0,0,-256,212,2052,125,108,116,94,1,8,0,1,1,0.1027699431267534,0.12396991866160366,4.396484385773716,0,0,0,0,0,0,0,0,0,0,"",""
247,179082784,0,0,0,0,0,0,0,0,0,0,0,0,1018,149,0,73,0,0,0,-256,212,2052,127,109,117,94,1,8,0,1,1,0.10277082206324047,0.12396743281505426,4.396484385773716,0,0,0,0,0,0,0,0,0,0,"",""
248,179084270,0,0,0,0,0,0,0,0,0,0,0,0,1018,149,0,73,0,0,0,-256,212,2052,127,109,117,94,1,8,0,1,1,0.10277169383704514,0.12396496722470116,4.396484385773716,0,0,0,0,0,0,0,0,0,0,"",""
249,179085750,0,0,0,0,0,0,0,0,0,0,0,0,1018,149,0,73,0,0,0,-256,212,2052,127,109,118,94,1,8,0,1,1,0.10277255853417383,0.12396252164733643,4.396484385773716,0,0,0,0,0,0,0,0,0,0,"",""
250,179087236,0,0,0,0,0,0,0,0,0,0,0,0,1018,149,0,73,0,0,0,-256,212,2052,128,109,118,94,1,8,0,1,1,0.10277341623926177,0.12396009584362938,4.396484385773716,0,0,0,0,0,0,0,0,0,0,"",""
251,179088722,0,0,0,0,0,0,0,0,0,0,0,0,1027,149,0,73,0,0,0,-256,212,2052,128,110,118,94,1,8,0,1,1,0.10277426703560016,0.1239576895780496,4.396484385773716,0,0,0,0,0,0,0,0,0,0,"",""
252,179090214,0,0,0,0,0,0,0,0,0,0,0,0,1027,149,0,73,0,0,0,-256,212,2052,127,109,117,94,1,8,0,1,1,0.10277511100516283,0.12395530261879165,4.396484385773716,0,0,0,0,0,0,0,0,0,0,"",""
253,179091700,0,0,0,0,0,0,0,0,0,0,0,0,1027,149,0,73,0,0,0,-256,212,2052,125,108,115,94,1,8,0,1,1,0.10277594822863209,0.123952934737702,4.396484385773716,0,0,0,0,0,0,0,0,0,0,"",""
254,179093186,0,0,0,0,0,0,0,0,0,0,0,0,1027,149,0,73,0,0,0,-256,212,2052,124,109,114,94,1,8,0,1,1,0.10277677878542416,0.123950585710207,4.396484385773716,0,0,0,0,0,0,0,0,0,0,"",""
255,179094670,0,0,0,0,0,0,0,0,0,0,0,0,1027,149,0,73,0,0,0,-256,212,2052,124,109,114,94,1,8,0,1,1,0.10277760275371382,0.1239482553152434,4.396484385773716,0,0,0,0,0,0,0,0,0,0,"",""
256,179096161,0,0,0,0,0,0,0,0,0,0,0,0,1027,149,0,73,0,0,0,-257,212,2052,128,111,118,97,1,8,0,1,1,0.10277842021045859,0.1239482253466015,4.396484385773716,0,0,0,0,0,0,0,0,0,0,"",""
257,179097655,0,0,0,0,0,0,0,0,0,0,0,0,1040,149,0,73,0,0,0,-257,212,2052,128,111,118,97,1,8,0,1,1,0.10277923123142242,0.12394819561381944,4.396484385773716,0,0,0,0,0,0,0,0,0,0,"",""
258,179099146,0,0,0,0,0,0,0,0,0,0,0,0,1040,149,0,73,0,0,0,-257,212,2052,130,112,120,97,1,8,0,1,1,0.10278003589119865,0.12394816611416447,4.396484385773716,0,0,0,0,0,0,0,0,0,0,"",""
259,179100641,0,0,0,0,0,0,0,0,0,0,0,0,1040,149,0,70,0,0,0,-257,212,2052,130,112,119,97,1,8,0,1,1,0.10278083426323253,0.12394813684494586,4.396484385773716,0,0,0,0,0,0,0,0,0,0,"",""
260,179102269,0,0,0,0,0,0,0,0,0,0,0,0,1040,149,0,70,0,0,0,-257,212,2052,130,111,120,97,1,8,0,1,1,0.1027816264198433,0.12394810780351419,4.396484385773716,0,0,0,0,0,0,0,0,0,0,"",""
261,179103888,0,0,0,0,0,0,0,0,0,0,0,0,1040,149,0,70,0,0,0,-257,212,2052,129,111,120,97,1,8,0,1,1,0.1027824124322456,0.12394807898726043,4.396484385773716,0,0,0,0,0,0,0,0,0,0,"",""
262,179105372,0,0,0,0,0,0,0,0,0,0,0,0,1040,149,0,70,0,0,0,-257,212,2052,130,111,120,97,1,8,0,1,1,0.10278319237057057,0.12394805039361526,4.396484385773716,0,0,0,0,0,0,0,0,0,0,"",""
263,179106859,0,0,0,0,0,0,0,0,0,0,0,0,1061,149,0,70,0,0,0,-257,212,2052,129,111,120,97,1,8,0,1,1,0.10278396630388625,0.12394802202004826,4.396484385773716,0,0,0,0,0,0,0,0,0,0,"",""
264,179108350,0,0,0,0,0,0,0,0,0,0,0,0,1061,149,0,70,0,0,0,-257,212,2052,152,133,143,118,1,8,0,1,1,0.10278473430021781,0.12394799386406724,4.396484385773716,0,0,0,0,0,0,0,0,0,0,"",""
265,179109829,0,0,0,0,0,0,0,0,0,0,0,0,1061,150,0,70,0,0,0,-257,212,2052,152,134,143,118,1,8,0,1,1,0.10278549642656704,0.12394796592321751,4.396484385773716,0,0,0,0,0,0,0,0,0,0,"",""
266,179111317,0,0,0,0,0,0,0,0,0,0,0,0,1061,150,0,70,0,0,0,-257,212,2052,154,135,143,118,1,8,0,1,1,0.10278625274893158,0.1239479381950811,4.396484385773716,0,0,0,0,0,0,0,0,0,0,"",""
267,179112797,0,0,0,0,0,0,0,0,0,0,0,0,1061,150,0,70,0,0,0,-257,212,2052,157,135,145,118,1,8,0,1,1,0.10278700333232363,0.12394791067727616,4.396484385773716,0,0,0,0,0,0,0,0,0,0,"",""
268,179114281,0,0,0,0,0,0,0,0,0,0,0,0,1061,150,0,70,0,0,0,-257,212,2052,155,136,145,118,1,8,0,1,1,0.1027877482407883,0.12394788336745624,4.396484385773716,0,0,0,0,0,0,0,0,0,0,"",""
269,179115808,0,0,0,0,0,0,0,0,0,0,0,0,1074,150,0,70,0,0,0,-257,212,2052,152,138,145,118,1,8,0,1,1,0.1027884875374215,0.12394785626330972,4.396484385773716,0,0,0,0,0,0,0.43010752688172044,0,0,0,"",""
270,179117298,0,0,0,0,0,0,0,0,0,0,0,0,1074,150,0,70,0,0,1,-257,212,2052,180,164,179,144,1,8,0,1,1,0.10279242930144601,0.12394517319764194,4.396458317650236,0,0,0,0,0,0,0.43010752688172044,0,0,1,"",""
271,179118786,0,0,0,0,0,0,0,0,0,0,0,0,1074,150,0,70,0,0,1,-257,212,2052,171,164,178,144,1,8,0,1,1,0.10279634658327756,0.12394250589870866,4.396432284538595,0,0,0,0,0,0,0.43010752688172044,0,0,1,"",""
272,179120272,0,0,0,0,0,0,0,0,0,0,0,0,1074,150,0,70,0,0,1,-257,213,2052,171,168,178,144,1,8,0,1,1,0.10280243660544319,0.12393982641982944,4.396406286456408,0,0,0,0,0,0,0.43010752688172044,0,0,1,"",""
273,179121760,0,0,0,0,0,0,0,0,0,0,0,0,1074,150,0,70,0,0,1,-256,213,2052,173,169,180,144,1,8,0,1,1,0.10280849489628961,0.12393498681724793,4.39638025344393,0,0,0,0,0,0,0.43010752688172044,0,0,1,"",""
274,179123242,0,0,0,0,0,0,0,0,0,0,0,0,1074,150,0,70,0,0,1,-256,214,2052,172,166,176,144,1,8,0,1,1,0.10281668889905128,0.12393015827544004,4.396354325478761,0,0,0,0,0,0,0.43010752688172044,0,0,1,"",""
275,179124730,0,0,0,0,0,0,0,0,0,0,0,0,1100,150,0,70,0,0,0,-256,214,2053,175,164,170,144,1,8,0,1,1,0.10282141621387944,0.12392773317234396,4.396354325581486,0,0,0,0,0,0,3.225806451612903,0,0,0,"",""
276,179126250,0,0,0,0,0,0,0,0,0,0,0,0,1100,150,0,68,0,0,-1,-256,215,2053,227,209,213,196,1,8,0,1,1,0.10282500828561048,0.12392800904372006,4.396380918534365,0,0,0,0,0,0,3.225806451612903,0,0,-1,"",""
277,179127739,0,0,0,0,0,0,0,0,0,0,0,0,1100,150,0,68,0,0,-1,-255,215,2053,227,197,207,196,1,8,0,1,1,0.10282863144682265,0.1239260914380826,4.396406969118074,0,0,0,0,0,0,3.225806451612903,0,0,-1,"",""
278,179129225,0,0,0,0,0,0,0,0,0,0,0,0,1100,150,0,68,0,0,-2,-255,216,2053,240,195,203,197,1,8,0,1,1,0.10283118591520005,0.12392681294048713,4.3964589651394785,0,0,0,0,0,0,3.225806451612903,0,0,-2,"",""
279,179130710,0,0,0,0,0,0,0,0,0,0,0,0,1100,150,0,68,0,0,-3,-254,217,2053,243,195,197,202,1,8,0,1,1,0.10283266430932993,0.12392802993389643,4.3965369065363005,0,0,0,0,0,0,3.225806451612903,0,0,-3,"",""
280,179132196,0,0,0,0,0,0,0,0,0,0,0,0,1100,150,0,68,0,0,-3,-254,217,2053,247,195,196,210,1,8,0,1,1,0.10283409848059176,0.12392926588517236,4.396614900264516,0,0,0,0,0,0,3.225806451612903,0,0,-3,"",""
281,179133687,0,0,0,0,0,0,0,0,0,0,0,0,1115,150,0,68,0,0,-3,-254,217,2053,258,195,194,205,1,8,0,1,1,0.10283546304720084,0.1239305420025497,4.396693156268629,0,0,0,0,0,0,4.838709677419355,0,0,-3,"",""
282,179135179,0,0,0,0,0,0,0,0,0,0,0,0,1115,150,0,68,0,0,-3,-253,217,2053,281,225,224,242,1,8,0,1,1,0.10283678440900923,0.12392972243238967,4.396771464531083,0,0,0,0,0,0,4.838709677419355,0,0,-3,"",""
283,179136678,0,0,0,0,0,0,0,0,0,0,0,0,1115,150,0,68,0,0,-3,-253,217,2054,280,228,224,239,1,8,0,1,1,0.10283780462398895,0.12392870719031676,4.396850139999228,0,0,0,0,0,0,4.838709677419355,0,0,-3,"",""
284,179138305,0,0,0,0,0,0,0,0,0,0,0,0,1115,150,0,68,0,0,-2,-252,217,2054,273,224,227,233,1,8,0,1,1,0.10284146730528618,0.12392340183270534,4.396907068567677,0,0,0,0,0,0,4.838709677419355,0,0,-2,"",""
285,179139928,0,0,0,0,0,0,0,0,0,0,0,0,1115,150,0,68,0,0,-1,-252,217,2055,262,225,231,231,1,8,0,1,1,0.10284837796879165,0.12391498133307112,4.396935462235871,0,0,0,0,0,0,4.838709677419355,0,0,-1,"",""
286,179141418,0,0,0,0,0,0,0,0,0,0,0,0,1115,150,0,68,0,0,-1,-251,216,2055,246,226,232,233,1,8,0,1,1,0.10285340418973739,0.12390432726527609,4.39696152891289,0,0,0,0,0,0,4.838709677419355,0,0,-1,"",""
287,179142957,0,0,0,0,0,0,0,0,0,0,0,0,1132,150,0,68,0,0,0,-251,215,2056,242,227,240,229,1,8,0,1,1,0.10285926991013591,0.12389086613191073,4.396961527824274,0,0,0,0,0,0,6.666666666666667,0,0,0,"",""
288,179144447,0,0,0,0,0,0,0,0,0,0,0,0,1132,150,0,68,0,0,1,-251,215,2056,167,165,180,164,1,8,0,1,1,0.10286830134597824,0.12387484157980032,4.39693545905377,0,0,0,0,0,0,6.666666666666667,0,0,1,"",""
289,179145932,0,0,0,0,0,0,0,0,0,0,0,0,1132,150,0,68,-1,0,1,-251,214,2056,163,175,188,169,1,8,0,1,1,0.10284936617034465,0.12385895861803757,4.39690947792075,0,0,0,0,0,0,6.666666666666667,-1,0,1,"",""
290,179147418,0,0,0,0,0,0,0,0,0,0,0,0,1132,150,0,68,-1,0,2,-251,213,2056,169,179,193,163,1,8,0,1,1,0.10283159568790766,0.12384055453315503,4.396857481738798,0,0,0,0,0,0,6.666666666666667,-1,0,2,"",""
291,179148925,0,0,0,0,0,0,0,0,0,0,0,0,1132,150,0,68,-1,0,2,-251,213,2056,168,183,196,162,1,8,0,1,1,0.10281362199442799,0.12382219106043371,4.396804750881778,0,0,0,0,0,0,6.666666666666667,-1,0,2,"",""
292,179150408,0,0,0,0,0,0,0,0,0,0,0,0,1132,148,0,68,-1,1,2,-251,213,2056,167,190,195,162,1,8,0,1,1,0.10279636443745123,0.12382966328682414,4.396750183401547,0,0,0,0,0,0,6.666666666666667,-1,1,2,"",""
293,179151913,0,0,0,0,0,0,0,0,0,0,0,0,1132,148,0,67,-1,1,2,-251,213,2056,180,198,201,162,1,8,0,1,1,0.10277889386485167,0.12383744045100269,4.396694806791622,0,0,0,0,0,0,6.666666666666667,-1,1,2,"",""
294,179153408,0,0,0,0,0,0,0,0,0,0,0,0,1132,148,0,67,-1,1,2,-250,213,2056,175,195,196,162,1,8,0,1,1,0.10276162209748466,0.12384303537322089,4.396639798438106,0,0,0,0,0,0,6.666666666666667,-1,1,2,"",""
295,179154894,0,0,0,0,0,0,0,0,0,0,0,0,1132,148,0,67,0,1,1,-249,213,2056,180,195,194,162,1,8,0,1,1,0.10276716124079267,0.1238491296009236,4.396611118936093,0,0,0,0,0,0,6.666666666666667,0,1,1,"",""
296,179156379,0,0,0,0,0,0,0,0,0,0,0,0,1132,148,0,67,0,1,1,-248,213,2056,182,198,185,162,1,8,0,1,1,0.10277266931608399,0.12385319062280369,4.396582458576557,0,0,0,0,0,0,6.666666666666667,0,1,1,"",""
297,179157859,0,0,0,0,0,0,0,0,0,0,0,0,1132,148,0,67,0,1,1,-247,214,2056,179,189,181,163,1,8,0,1,1,0.10278018838285354,0.12385514956390399,4.396553894243179,0,0,0,0,0,0,6.666666666666667,0,1,1,"",""
298,179159344,0,0,0,0,0,0,0,0,0,0,0,0,1132,148,0,67,0,1,0,-245,214,2056,189,186,179,163,1,8,0,1,1,0.1027844805300214,0.12385582907041794,4.396551213557929,0,0,0,0,0,0,6.666666666666667,0,1,0,"",""
299,179160836,0,0,0,0,0,0,0,0,0,0,0,0,1142,148,184,67,0,1,0,-244,215,2057,188,184,174,163,1,8,0,1,1,0.10279057606135596,0.12385439517148183,4.396548519624468,0,0,0,0,0,0,7.741935483870968,0,1,0,"",""
300,179162330,0,0,0,0,0,0,0,0,0,0,0,0,1142,148,184,67,0,1,0,-244,215,2057,214,204,190,182,1,8,0,1,1,0.10279663144868047,0.12385307212347078,4.396545821792006,0,0,0,0,0,0,7.741935483870968,0,1,0,"",""
301,179163816,0,0,0,0,0,0,0,0,0,0,0,0,1142,148,184,67,0,1,-1,-244,216,2057,218,200,191,182,1,8,0,1,1,0.10280147632139706,0.12385431053877859,4.396569135367557,0,0,0,0,0,0,7.741935483870968,0,1,-1,"",""
302,179165303,0,0,0,0,0,0,0,0,0,0,0,0,1142,148,184,67,0,1,-1,-245,217,2057,213,194,188,182,1,8,0,1,1,0.10280830427531501,0.12385761144749152,4.396592463627971,0,0,0,0,0,0,7.741935483870968,0,1,-1,"",""
303,179166785,0,0,0,0,0,0,0,0,0,0,0,0,1142,148,184,67,0,1,-1,-245,218,2057,221,199,187,182,1,8,0,1,1,0.10281710848171713,0.1238608416302421,4.39661571225298,0,0,0,0,0,0,7.741935483870968,0,1,-1,"",""
304,179168277,0,0,0,0,0,0,0,0,0,0,0,0,1142,148,184,67,0,1,-1,-245,219,2057,211,192,183,183,1,8,0,1,1,0.10282784179856332,0.12386428727567882,4.396639116429725,0,0,0,0,0,0,7.741935483870968,0,1,-1,"",""
305,179169765,0,0,0,0,0,0,0,0,0,0,0,0,1142,148,184,67,0,1,-1,-246,220,2057,208,187,183,183,1,8,0,1,1,0.10284051343697896,0.12386966990515648,4.396662456381358,0,0,0,0,0,0,7.741935483870968,0,1,-1,"",""
306,179171264,0,0,0,0,0,0,0,0,0,0,0,0,1142,149,184,67,0,1,-1,-247,222,2057,205,183,189,189,1,8,0,1,1,0.10285708142707023,0.12387723201078259,4.39668596647365,0,0,0,0,0,0,7.741935483870968,0,1,-1,"",""
307,179172906,0,0,0,0,0,0,0,0,0,0,0,0,1142,149,184,67,0,1,-1,-249,223,2057,206,183,193,189,1,8,0,1,1,0.10287525532457306,0.12389147735633657,4.3967117182712485,0,0,0,0,0,0,7.741935483870968,0,1,-1,"",""
308,179174533,0,0,0,0,0,0,0,0,0,0,0,0,1142,149,184,67,0,1,-1,-251,225,2057,203,183,201,195,1,8,0,1,1,0.10289731893621262,0.12390931967904302,4.396737231750446,0,0,0,0,0,0,7.741935483870968,0,1,-1,"",""
309,179176017,0,0,0,0,0,0,0,0,0,0,0,0,1142,149,184,67,-1,1,0,-251,226,2057,200,183,208,198,1,8,0,1,1,0.10289889715044927,0.12392171959505026,4.396734537327232,0,0,0,0,0,0,7.741935483870968,-1,1,0,"",""
310,179177497,0,0,0,0,0,0,0,0,0,0,0,0,1142,149,184,67,-1,0,0,-252,228,2057,201,182,221,196,1,8,0,1,1,0.10290411121630316,0.12391035859280584,4.396734521299895,0,0,0,0,0,0,7.741935483870968,-1,0,0,"",""
311,179178991,0,0,0,0,0,0,0,0,0,0,0,0,1142,149,184,67,-1,0,1,-252,229,2057,193,181,223,193,1,8,0,1,1,0.10291418122593324,0.12389638034556825,4.396708366712294,0,0,0,0,0,0,7.741935483870968,-1,0,1,"",""
312,179180476,0,0,0,0,0,0,0,0,0,0,0,0,1142,149,111,67,-2,0,1,-251,232,2058,188,181,227,188,1,8,0,1,1,0.10290417581771324,0.12388023114685037,4.396682366804787,0,0,0,0,0,0,7.741935483870968,-2,0,1,"",""
