"Product","Blackbox flight data recorder by Nicholas Sherlock"
"firmwareType",3
"firmware","3.3"
"firmwarePatch",3
"firmwareVersion","3.3.3"
"Firmware revision","Betaflight 3.3.3 (a2d5a6482) MATEKF722"
"Firmware date","Apr 16 2020 13:32:09"
"Log start datetime","0000-01-01T00:00:00.000+00:00"
"Craft name","NEUROFLIGHT"
"frameIntervalI",32
"frameIntervalPNum",1
"frameIntervalPDenom",1
"minthrottle",1070
"maxthrottle",2000
"gyroScale",1.7453292519943295e-8
"motorOutput","128,2047"
"acc_1G",2048
"vbatscale",110
"vbatmincellvoltage",33
"vbatwarningcellvoltage",35
"vbatmaxcellvoltage",43
"vbatref",150
"currentMeterOffset",0
"currentMeterScale",179
"looptime",125
"gyro_sync_denom",1
"pid_process_denom",8
"thrMid",50
"thrExpo",0
"dynThrPID",10
"tpa_breakpoint",1650
"rc_rates","100,100,100"
"rc_expo","0,0,0"
"rates","70,70,70"
"rollPID","40,40,30"
"pitchPID","58,50,35"
"yawPID","70,45,20"
"altPID","50,0,0"
"posPID","15,0,0"
"posrPID","34,14,53"
"navrPID","25,33,83"
"levelPID","50,50,75"
"magPID","40,,"
"velPID","55,55,75"
"dterm_filter_type",1
"dterm_lpf_hz",100
"yaw_lpf_hz",0
"dterm_notch_hz",260
"dterm_notch_cutoff",160
"itermWindupPointPercent",50
"vbat_pid_compensation",0
"pidAtMinThrottle",1
"anti_gravity_threshold",350
"anti_gravity_gain",1000
"setpointRelaxRatio",100
"dtermSetpointWeight",0
"yawRateAccelLimit",0.1
"rateAccelLimit",0
"pidSumLimit",500
"pidSumLimitYaw",400
"deadband",0
"yaw_deadband",0
"gyro_lpf",0
"gyro_soft_type",0
"gyro_lowpass_hz",90
"gyro_notch_hz","400,200"
"gyro_notch_cutoff","300,100"
"acc_lpf_hz",1000
"acc_hardware",0
"baro_hardware",0
"mag_hardware",0
"gyro_cal_on_first_arm",0
"rc_interpolation",2
"rc_interpolation_interval",19
"airmode_activate_throttle",32
"serialrx_provider",2
"unsynced_fast_pwm",0
"fast_pwm_protocol",7
"motor_pwm_rate",480
"digitalIdleOffset",400
"debug_mode",0
"features",263176
"loopIteration","time","axisP[0]","axisP[1]","axisP[2]","axisI[0]","axisI[1]","axisI[2]","axisD[0]","axisD[1]","axisD[2]","rcCommand[0]","rcCommand[1]","rcCommand[2]","rcCommand[3]","vbatLatest","amperageLatest","BaroAlt","gyroADC[0]","gyroADC[1]","gyroADC[2]","accSmooth[0]","accSmooth[1]","accSmooth[2]","motor[0]","motor[1]","motor[2]","motor[3]","flightModeFlags","stateFlags","failsafePhase","rxSignalReceived","rxFlightChannelsValid","heading[0]","heading[1]","heading[2]","axisSum[0]","axisSum[1]","axisSum[2]","rcCommands[0]","rcCommands[1]","rcCommands[2]","rcCommands[3]","axisError[0]","axisError[1]","axisError[2]"
0,141999978,0,0,0,0,0,0,0,0,0,0,0,0,1000,150,0,73,0,0,0,157,-834,1838,128,110,114,92,"","","","","",-0.4259714328634493,-0.07762938975793728,4.396484385773716,0,0,0,0,0,0,0,0,0,0,"",""
1,142001481,0,0,0,0,0,0,0,0,0,1,0,0,1000,150,0,73,0,0,0,157,-834,1837,126,107,115,92,1,8,0,1,1,-0.42607390266003964,-0.07764684977293354,4.396484385773716,0,0,0,0,0,0,0,0,0,0,"",""
2,142003111,0,0,0,0,0,0,0,0,0,2,0,0,1000,150,0,73,0,0,0,157,-834,1837,124,106,115,92,1,8,0,1,1,-0.42610806951234986,-0.07765267133398261,4.396484385773716,0,0,0,0,0,0,0,0,0,0,"",""
3,142004730,0,0,0,0,0,0,0,0,0,2,0,0,1000,150,0,73,0,0,0,157,-834,1837,122,105,114,92,1,8,0,1,1,-0.42612515484386243,-0.07765558240331404,4.396484385773716,0,0,0,0,0,0,0,0,0,0,"",""
4,142006215,0,0,0,0,0,0,0,0,0,3,0,0,1000,150,0,73,0,0,0,157,-834,1837,119,103,114,92,1,8,0,1,1,-0.426135406641188,-0.07765732913540283,4.396484385773716,0,0,0,1,0,0,0,-1,0,0,"",""
5,142007714,0,0,0,0,0,0,0,0,0,4,0,0,1000,150,0,73,0,0,0,157,-834,1836,115,100,113,92,1,8,0,1,1,-0.4261765324884498,-0.07766433619456993,4.396484385773716,0,0,0,1,0,0,0,-1,0,0,"",""
6,142009207,0,0,0,0,0,0,0,0,0,5,0,0,1000,150,0,73,0,0,0,157,-834,1836,111,97,113,92,1,8,0,1,1,-0.4262059125745825,-0.0776693419155042,4.396484385773716,0,0,0,2,0,0,0,-2,0,0,"",""
7,142010696,0,0,0,0,0,0,0,0,0,6,0,0,1000,150,0,73,0,0,0,157,-834,1836,107,93,113,92,1,8,0,1,1,-0.42622795006341657,-0.07767309657285422,4.396484385773716,0,0,0,2,0,0,0,-2,0,0,"",""
8,142012180,0,0,0,0,0,0,0,0,0,8,0,0,1000,150,0,73,0,0,0,157,-834,1836,105,92,115,93,1,8,0,1,1,-0.4262450917481604,-0.07767601707560208,4.396484385773716,0,0,0,3,0,0,0,-3,0,0,"",""
9,142013665,0,0,0,0,0,0,0,0,0,9,0,0,1000,150,0,73,0,0,0,157,-834,1835,103,92,118,96,1,8,0,1,1,-0.4262794590835292,-0.07768187231425086,4.396484385773716,0,0,0,3,0,0,0,-3,0,0,"",""
10,142015150,0,0,0,0,0,0,0,0,0,10,0,0,1000,150,0,73,0,0,0,157,-834,1835,103,92,121,98,1,8,0,1,1,-0.42630758155205284,-0.07768666352922209,4.396484385773716,0,0,0,4,0,0,0,-4,0,0,"",""
11,142016636,0,0,0,0,0,0,0,0,0,11,0,0,1000,150,0,73,0,0,0,157,-834,1835,103,92,124,100,1,8,0,1,1,-0.4263310194840979,-0.07769065659189513,4.396484385773716,0,0,0,4,0,0,0,-4,0,0,"",""
12,142018126,0,0,0,0,0,0,0,0,0,13,0,0,1000,150,0,73,0,0,0,157,-834,1835,101,92,128,105,1,8,0,1,1,-0.42635085336000017,-0.07769403560526845,4.396484385773716,0,0,0,5,0,0,0,-5,0,0,"",""
13,142019639,0,0,0,0,0,0,0,0,0,14,0,0,1000,150,0,73,0,0,0,157,-834,1835,100,92,132,109,1,8,0,1,1,-0.4263678551016677,-0.07769693209429,4.396484385773716,0,0,0,5,0,0,0,-5,0,0,"",""
14,142021125,0,0,0,0,0,0,0,0,0,15,0,0,1000,150,0,73,0,0,0,157,-834,1835,99,92,135,113,1,8,0,1,1,-0.42638259087866853,-0.0776994425247812,4.396484385773716,0,0,0,6,0,0,0,-6,0,0,"",""
15,142022611,0,0,0,0,0,0,0,0,0,17,0,0,1000,150,0,73,0,0,0,157,-834,1835,96,92,138,117,1,8,0,1,1,-0.4263954853784549,-0.0777016392552573,4.396484385773716,0,0,0,7,0,0,0,-7,0,0,"",""
16,142024095,0,0,0,0,0,0,0,0,0,18,0,0,1000,150,0,73,0,0,0,157,-834,1835,95,92,143,122,1,8,0,1,1,-0.42640686340207085,-0.07770357762477965,4.396484385773716,0,0,0,7,0,0,0,-7,0,0,"",""
17,142025586,0,0,0,0,0,0,0,0,0,19,0,0,1000,150,0,73,0,0,0,157,-834,1835,94,92,148,127,1,8,0,1,1,-0.42641697759987324,-0.07770530067898745,4.396484385773716,0,0,0,8,0,0,0,-8,0,0,"",""
18,142027077,0,0,0,0,0,0,0,0,0,21,0,0,1000,150,0,73,0,0,0,157,-834,1835,93,92,154,132,1,8,0,1,1,-0.42642602745174524,-0.07770684240417519,4.396484385773716,0,0,0,8,0,0,0,-8,0,0,"",""
19,142028565,0,0,0,0,0,0,0,0,0,22,0,0,1000,150,0,73,0,0,0,157,-834,1835,93,92,160,137,1,8,0,1,1,-0.4264341725551857,-0.07770822999144146,4.396484385773716,0,0,0,9,0,0,0,-9,0,0,"",""
20,142030047,0,0,0,0,0,0,0,0,0,24,0,0,1000,149,0,73,0,0,0,158,-834,1835,92,92,165,141,1,8,0,1,1,-0.4264415421180341,-0.07773335337580728,4.396484385773716,0,0,0,10,0,0,0,-10,0,0,"",""
21,142031527,0,0,0,0,0,0,0,0,0,25,0,0,1000,149,0,73,0,0,0,158,-834,1835,92,92,174,146,1,8,0,1,1,-0.4264482418630716,-0.07775619321278107,4.396484385773716,0,0,0,10,0,0,0,-10,0,0,"",""
22,142033009,0,0,0,0,0,0,0,0,0,26,0,0,1000,149,0,73,0,0,1,158,-834,1835,92,96,180,152,1,8,0,1,1,-0.426456112584978,-0.0777668217717197,4.396460765192648,0,0,0,11,0,0,0,-11,0,1,"",""
23,142034491,0,0,0,0,0,0,0,0,0,28,0,0,1000,149,0,73,0,0,1,158,-834,1835,92,100,188,159,1,8,0,1,1,-0.42646340272175787,-0.07777612735341156,4.396437144694393,0,0,0,11,0,0,0,-11,0,1,"",""
24,142035991,0,0,0,0,0,0,0,0,0,29,0,0,1000,149,0,73,0,0,1,158,-834,1835,92,102,193,161,1,8,0,1,1,-0.42647020323219786,-0.07778414437987298,4.396413237380885,0,0,0,12,0,0,0,-12,0,1,"",""
25,142037630,0,0,0,0,0,0,0,0,0,30,0,0,1000,149,0,73,0,0,1,158,-834,1836,92,106,199,168,1,8,0,1,1,-0.426468659604289,-0.07778879886768095,4.396387114379404,0,0,0,12,0,0,0,-12,0,1,"",""
26,142039253,0,0,0,0,0,0,0,0,0,31,0,0,1000,149,0,73,0,0,1,159,-834,1836,92,108,207,174,1,8,0,1,1,-0.4264672849855818,-0.07781144740065121,4.396361246124962,0,0,0,13,0,0,0,-13,0,1,"",""
27,142040740,0,0,0,0,0,0,0,0,0,32,0,0,1000,149,0,73,0,0,1,159,-834,1836,92,108,213,179,1,8,0,1,1,-0.4264659170369375,-0.07783301434635943,4.3963375453454505,0,0,0,13,0,0,0,-13,0,1,"",""
28,142042325,0,0,0,0,0,0,0,0,0,33,0,0,1000,149,0,73,0,0,1,159,-834,1836,92,109,215,186,1,8,0,1,1,-0.4264648231673641,-0.07785204908875484,4.396312282495212,0,0,0,14,0,0,0,-14,0,1,"",""
29,142043856,0,0,0,0,0,0,0,0,0,33,0,0,1000,149,0,73,0,0,0,159,-834,1836,92,109,216,195,1,8,0,1,1,-0.42646196912738804,-0.07788049432857759,4.396312281889695,0,0,0,14,0,0,0,-14,0,0,"",""
30,142045348,0,0,0,0,0,0,0,0,0,34,0,0,1000,149,0,73,0,0,-1,158,-834,1835,92,103,211,199,1,8,0,1,1,-0.42646429491824495,-0.07790237505103605,4.396336062154274,0,0,0,14,0,0,0,-14,0,-1,"",""
31,142046836,0,0,0,0,0,0,0,0,0,34,0,0,1000,149,0,73,0,0,-2,158,-833,1835,92,95,204,206,1,8,0,1,1,-0.4264501578603869,-0.07793409728236722,4.396383494381836,0,0,0,14,0,0,0,-14,0,-2,"",""
32,142048323,0,0,0,0,0,0,0,0,0,35,0,0,1000,149,0,73,0,0,-3,157,-832,1835,128,122,229,249,1,8,0,1,1,-0.42642092901707346,-0.0779600728355401,4.396454596133324,0,0,0,15,0,0,0,-15,0,-3,"",""
33,142049812,0,0,0,0,0,0,0,0,0,35,0,0,1000,149,0,73,0,0,-4,156,-831,1835,141,122,231,265,1,8,0,1,1,-0.4263778073699962,-0.07798148565829492,4.3965495288662675,0,0,0,15,0,0,0,-15,0,-4,"",""
34,142051307,0,0,0,0,0,0,0,0,0,36,0,0,1000,150,0,73,-1,0,-5,155,-831,1835,151,122,236,285,1,8,0,1,1,-0.42636043563536746,-0.07799902141765816,4.396668675323999,0,0,0,15,0,0,0,-16,0,-5,"",""
35,142052798,0,0,0,0,0,0,0,0,0,37,0,0,1000,150,0,73,-1,0,-6,155,-830,1835,161,122,237,294,1,8,0,1,1,-0.42632972073247166,-0.0780278062561677,4.3968112730367945,0,0,0,15,0,0,0,-16,0,-6,"",""
36,142054298,0,0,0,0,0,0,0,0,0,38,0,0,1000,150,0,73,-1,0,-6,154,-830,1835,170,122,244,300,1,8,0,1,1,-0.42630113855934454,-0.07804337375963835,4.396954735419139,0,0,0,16,0,0,0,-17,0,-6,"",""
37,142055787,0,0,0,0,0,0,0,0,0,39,0,0,1000,150,0,73,-1,0,-5,153,-831,1836,174,122,250,295,1,8,0,1,1,-0.4262828243650636,-0.07803409125069007,4.3970734125615785,0,0,0,16,0,0,0,-17,0,-5,"",""
38,142057272,0,0,0,0,0,0,0,0,0,40,0,0,1000,150,16,73,-1,0,-4,152,-832,1836,174,122,251,279,1,8,0,1,1,-0.4262795712220279,-0.07800257394683545,4.397168097501003,0,0,0,17,0,0,0,-18,0,-4,"",""
39,142058756,0,0,0,0,0,0,0,0,0,41,0,0,1000,150,16,73,-1,0,-3,152,-833,1836,173,122,263,261,1,8,0,1,1,-0.42629037885237,-0.07796279635884719,4.397239060208707,0,0,0,17,0,0,0,-18,0,-3,"",""
40,142060246,0,0,0,0,0,0,0,0,0,42,0,0,1000,150,16,73,0,-1,-1,151,-834,1836,167,122,265,237,1,8,0,1,1,-0.42629168576756404,-0.07791512828555215,4.397252018794461,0,0,0,18,0,0,0,-18,-1,-1,"",""
41,142061737,0,0,0,0,0,0,0,0,0,43,0,0,1000,150,16,73,0,-1,0,151,-835,1836,162,122,277,219,1,8,0,1,1,-0.426305837133817,-0.07785965881384967,4.397241215659664,0,0,0,18,0,0,0,-18,-1,0,"",""
42,142063225,0,0,0,0,0,0,0,0,0,45,0,0,1000,150,16,73,0,-2,1,151,-837,1836,155,122,283,205,1,8,0,1,1,-0.4263437156317525,-0.07781908700246505,4.397195934860542,0,0,0,19,0,0,0,-19,-2,1,"",""
43,142064714,0,0,0,0,0,0,0,0,0,47,0,0,1000,150,16,73,1,-2,2,151,-839,1835,146,122,296,204,1,8,0,1,1,-0.4263824783578849,-0.07777076874359411,4.3971268776948085,0,0,0,20,0,0,0,-19,-2,2,"",""
44,142066201,0,0,0,0,0,0,0,0,0,48,0,0,1000,150,16,73,1,-2,2,151,-841,1835,136,122,295,205,1,8,0,1,1,-0.42643991355848676,-0.07772438511826879,4.397057902319863,0,0,0,21,0,0,0,-20,-2,2,"",""
45,142067684,0,0,0,0,0,0,0,0,0,50,0,0,1000,150,16,73,1,-2,1,152,-842,1834,136,122,311,222,1,8,0,1,1,-0.4265074915668269,-0.0777025081979456,4.397012739717842,0,0,0,22,0,0,0,-21,-2,1,"",""
46,142069176,0,0,0,0,0,0,0,0,0,52,0,0,1000,150,16,73,1,-2,1,153,-844,1833,123,122,302,234,1,8,0,1,1,-0.42659609397878767,-0.07769348928491857,4.396967286390718,0,0,0,22,0,0,0,-21,-2,1,"",""
47,142070851,0,0,0,0,0,0,0,0,0,54,0,0,1000,150,16,73,1,-2,0,153,-846,1833,122,130,308,264,1,8,0,1,1,-0.42669537763986565,-0.0777011186334417,4.3969429422068185,0,0,0,23,0,0,0,-22,-2,0,"",""
48,142072479,0,0,0,0,0,0,0,0,0,57,0,0,1000,150,16,73,1,-2,-1,153,-848,1832,122,136,308,287,1,8,0,1,1,-0.4268123783422318,-0.07771959173803969,4.396945197757745,0,0,0,25,0,0,0,-24,-2,-1,"",""
49,142073968,0,0,0,0,0,0,0,0,0,59,0,0,1000,150,16,73,1,-1,-1,153,-850,1831,122,147,313,317,1,8,0,1,1,-0.42694879446415546,-0.0777101378064075,4.396958017663945,0,0,0,26,0,0,0,-25,-1,-1,"",""
50,142075453,0,0,0,0,0,0,0,0,0,62,0,0,1000,150,16,73,1,-1,-2,153,-852,1831,122,160,319,347,1,8,0,1,1,-0.4270960643669288,-0.07771147508445289,4.39699444434474,0,0,0,27,0,0,0,-26,-1,-2,"",""
51,142076939,0,0,0,0,0,0,0,0,0,64,0,0,1000,150,55,73,1,0,-2,153,-854,1831,122,169,320,363,1,8,0,1,1,-0.42725439737782783,-0.07768985541800554,4.397041650879443,0,0,0,28,0,0,0,-27,0,-2,"",""
52,142078425,0,0,0,0,0,0,0,0,0,67,0,0,1000,150,55,73,1,0,-1,153,-856,1831,122,174,332,371,1,8,0,1,1,-0.4274257853176593,-0.07765828684925156,4.397065167031769,0,0,0,30,0,0,0,-29,0,-1,"",""
53,142079924,0,0,0,0,0,0,0,0,0,69,0,0,1000,150,55,73,1,0,0,153,-859,1831,122,179,346,371,1,8,0,1,1,-0.42761808414526264,-0.0776166183061924,4.397064992019591,0,0,0,31,0,0,0,-30,0,0,"",""
54,142081418,0,0,0,0,0,0,0,0,0,72,0,0,1000,150,55,73,1,1,1,152,-862,1831,122,186,358,367,1,8,0,1,1,-0.4278297107366174,-0.07753230853672788,4.397051856754059,0,0,0,32,0,0,0,-31,1,1,"",""
55,142082902,0,0,0,0,0,0,0,0,0,74,0,0,1000,150,55,73,2,1,2,151,-866,1831,122,186,372,347,1,8,0,1,1,-0.4280435795277399,-0.07742971216416504,4.397015168833181,0,0,0,33,0,0,0,-31,1,2,"",""
56,142084394,0,0,0,0,0,0,0,0,0,77,0,0,1000,150,55,73,2,0,3,151,-869,1831,122,189,391,341,1,8,0,1,1,-0.4282763069929958,-0.07734149672234614,4.396943688834315,0,0,0,35,0,0,0,-33,0,3,"",""
57,142085878,0,0,0,0,0,0,0,0,0,80,0,0,1000,150,55,73,2,0,4,151,-870,1832,122,188,408,340,1,8,0,1,1,-0.42850665128884263,-0.07724447995499735,4.396848981937038,0,0,0,36,0,0,0,-34,0,4,"",""
58,142087373,0,0,0,0,0,0,0,0,0,82,0,0,1000,150,55,73,3,0,4,152,-871,1832,122,185,419,339,1,8,0,1,1,-0.42871047140855756,-0.07715821624743324,4.396753596535901,0,0,0,37,0,0,0,-34,0,4,"",""
59,142088977,0,0,0,0,0,0,0,0,0,86,0,0,1000,150,55,73,3,0,4,152,-871,1832,122,187,427,347,1,8,0,1,1,-0.42890123182564016,-0.07707102440714257,4.39665129602304,0,0,0,40,0,0,0,-37,0,4,"",""
60,142090471,0,0,0,0,0,0,0,0,0,89,0,0,1000,148,55,73,3,-1,3,153,-871,1832,122,177,430,351,1,8,0,1,1,-0.4290886518188121,-0.07703153796733389,4.396568927210312,0,0,0,41,0,0,0,-38,-1,3,"",""
61,142091967,0,0,0,0,0,0,0,0,0,93,0,0,1000,148,55,73,4,-1,2,155,-871,1832,122,182,446,387,1,8,0,1,1,-0.42924131643459484,-0.07702055586238049,4.396510268082296,0,0,0,43,0,0,0,-39,-1,2,"",""
62,142093456,0,0,0,0,0,0,0,0,0,96,0,0,1000,148,55,73,4,-1,1,156,-871,1832,122,189,448,413,1,8,0,1,1,-0.4293862567585535,-0.07702879491346598,4.396475584573581,0,0,0,45,0,0,0,-41,-1,1,"",""
63,142094939,0,0,0,0,0,0,0,0,0,100,0,0,1000,148,55,73,4,0,1,158,-872,1832,122,188,457,436,1,8,0,1,1,-0.429532127732291,-0.07702971402666535,4.3964518454656,0,0,0,47,0,0,0,-43,0,1,"",""
64,142096428,0,0,0,0,0,0,0,0,0,103,0,0,1000,148,55,73,4,0,0,159,-872,1832,128,197,469,468,1,8,0,1,1,-0.42966979227440166,-0.07704902890818477,4.396451714261282,0,0,0,49,0,0,0,-45,0,0,"",""
65,142097977,0,0,0,0,0,0,0,0,0,105,0,0,1000,148,162,73,4,0,-1,159,-873,1831,128,213,472,500,1,8,0,1,1,-0.429806269768057,-0.07707913028808704,4.396476229774159,0,0,0,50,0,0,0,-46,0,-1,"",""
66,142099477,0,0,0,0,0,0,0,0,0,108,0,0,1000,148,162,73,4,0,0,159,-873,1831,128,209,483,504,1,8,0,1,1,-0.4299423217389984,-0.07709740391771423,4.396476096347478,0,0,0,52,0,0,0,-48,0,0,"",""
67,142100970,0,0,0,0,0,0,0,0,0,110,0,0,1000,148,162,73,4,1,0,159,-873,1831,128,207,486,498,1,8,0,1,1,-0.4300725405858119,-0.07709181696280637,4.396486862783335,0,0,0,53,0,0,0,-49,1,0,"",""
68,142102480,0,0,0,0,0,0,0,0,0,113,0,0,1000,148,162,73,4,1,1,159,-873,1831,128,221,496,510,1,8,0,1,1,-0.4301981600895257,-0.07707498413577929,4.396473740175413,0,0,0,55,0,0,0,-51,1,1,"",""
69,142104107,0,0,0,0,0,0,0,0,0,115,0,0,1000,148,162,73,5,1,1,158,-872,1830,128,214,507,495,1,8,0,1,1,-0.43027913863389083,-0.07704881036827205,4.3964596254068065,0,0,0,56,0,0,0,-51,1,1,"",""
70,142105742,0,0,0,0,0,0,0,0,0,117,0,0,1000,148,162,73,5,0,2,158,-871,1830,128,212,530,494,1,8,0,1,1,-0.4303514241857413,-0.07703675428557089,4.3964075061008385,0,0,0,57,0,0,0,-52,0,2,"",""
71,142107255,0,0,0,0,0,0,0,0,0,119,0,0,1000,148,162,73,5,0,3,159,-871,1831,128,203,546,487,1,8,0,1,1,-0.43042884611809473,-0.07702235595419585,4.3963352087565335,0,0,0,58,0,0,0,-53,0,3,"",""
72,142108754,0,0,0,0,0,0,0,0,0,121,0,0,1000,148,162,73,5,-1,3,160,-870,1831,128,198,560,485,1,8,0,1,1,-0.43049794077928843,-0.07703903662232238,4.396252641898678,0,0,0,59,0,0,0,-54,-1,3,"",""
73,142110252,0,0,0,0,0,0,0,0,0,123,0,0,1000,148,162,73,4,-1,3,161,-870,1832,128,202,575,500,1,8,0,1,1,-0.4305864559322369,-0.07706171440843768,4.396170134868301,0,0,0,60,0,0,0,-56,-1,3,"",""
74,142111778,0,0,0,0,0,0,0,0,0,125,0,0,1000,150,162,73,4,-1,3,163,-869,1832,128,196,586,505,1,8,0,1,1,-0.43066317759896583,-0.07709767158425569,4.396086092470646,0,0,0,62,0,0,0,-58,-1,3,"",""
75,142113266,0,0,0,0,0,0,0,0,0,127,0,0,1000,150,162,73,4,-2,3,165,-868,1832,128,198,595,516,1,8,0,1,1,-0.4307336196057546,-0.07717004762940065,4.395993270014099,0,0,0,63,0,0,0,-59,-2,3,"",""
76,142114761,0,0,0,0,0,0,0,0,0,129,0,0,1000,150,162,73,4,-2,3,167,-867,1832,128,213,599,540,1,8,0,1,1,-0.4307943787611751,-0.07725460133588725,4.395900009949726,0,0,0,64,0,0,0,-60,-2,3,"",""
77,142116275,0,0,0,0,0,0,0,0,0,130,0,0,1000,150,162,73,3,-2,2,169,-867,1833,128,221,605,560,1,8,0,1,1,-0.4308725949144596,-0.07736118061893436,4.3958296437644435,0,0,0,65,0,0,0,-62,-2,2,"",""
78,142117777,0,0,0,0,0,0,0,0,0,132,0,0,1000,150,0,73,3,-2,2,171,-867,1833,128,222,603,564,1,8,0,1,1,-0.4309485266635507,-0.07747842874473598,4.395759828492116,0,0,0,66,0,0,0,-63,-2,2,"",""
79,142119280,0,0,0,0,0,0,0,0,0,134,0,0,1000,150,0,73,4,-1,2,172,-867,1833,128,233,594,574,1,8,0,1,1,-0.43099492823707775,-0.077576091662335,4.395700953701557,0,0,0,67,0,0,0,-63,-1,2,"",""
80,142120782,0,0,0,0,0,0,0,0,0,135,0,0,1000,150,0,73,4,-1,1,173,-868,1833,128,239,586,581,1,8,0,1,1,-0.4310431888980669,-0.07768842757924693,4.395666003898321,0,0,0,68,0,0,0,-64,-1,1,"",""
81,142122280,0,0,0,0,0,0,0,0,0,137,0,0,1000,150,0,73,4,-1,1,173,-869,1833,128,236,583,582,1,8,0,1,1,-0.43109523145671413,-0.07779790936358817,4.395631142340477,0,0,0,69,0,0,0,-65,-1,1,"",""
82,142123776,0,0,0,0,0,0,0,0,0,138,0,0,1000,150,0,73,5,-1,1,173,-870,1833,128,232,569,573,1,8,0,1,1,-0.43112502332481584,-0.07790465661081288,4.395596322708878,0,0,0,70,0,0,0,-65,-1,1,"",""
83,142125287,0,0,0,0,0,0,0,0,0,139,0,0,1000,150,0,73,5,-1,0,172,-870,1832,128,228,560,570,1,8,0,1,1,-0.43115220362964135,-0.07801416671290384,4.395585183738907,0,0,0,70,0,0,0,-65,-1,0,"",""
84,142126790,0,0,0,0,0,0,0,0,0,140,0,0,1000,150,0,73,6,-1,0,171,-871,1832,128,215,549,557,1,8,0,1,1,-0.43115775252726174,-0.07811482020994676,4.395574097806609,0,0,0,71,0,0,0,-65,-1,0,"",""
85,142128291,0,0,0,0,0,0,0,0,0,140,0,0,1000,150,0,73,7,-1,-1,170,-870,1832,128,201,541,550,1,8,0,1,1,-0.4311283614252291,-0.07821822216751867,4.395586900745501,0,0,0,71,0,0,0,-64,-1,-1,"",""
86,142129795,0,0,0,0,0,0,0,0,0,141,0,0,1000,150,0,73,7,-1,-2,168,-869,1832,128,192,542,556,1,8,0,1,1,-0.43108991276200004,-0.07831856939800608,4.395623651907905,0,0,0,72,0,0,0,-65,-1,-2,"",""
87,142131290,0,0,0,0,0,0,0,0,0,142,0,0,1000,149,0,73,7,-1,-3,167,-867,1832,128,178,548,561,1,8,0,1,1,-0.4310386508977532,-0.07842199410352398,4.395683965616751,0,0,0,72,0,0,0,-65,-1,-3,"",""
88,142132787,0,0,0,0,0,0,0,0,0,142,0,0,1000,149,0,73,7,-2,-3,166,-865,1831,128,174,554,574,1,8,0,1,1,-0.4309788146949016,-0.07854207319647828,4.3957334144349005,0,0,0,72,0,0,0,-65,-2,-3,"",""
89,142134302,0,0,0,0,0,0,0,0,0,144,0,0,1000,149,0,73,6,-2,-4,165,-862,1830,128,168,563,584,1,8,0,1,1,-0.43092676250910855,-0.07866728682914988,4.395807563713127,0,0,0,73,0,0,0,-67,-2,-4,"",""
90,142135821,0,0,0,0,0,0,0,0,0,145,0,0,1000,149,0,73,6,-2,-4,164,-860,1830,128,163,566,586,1,8,0,1,1,-0.43086310326825855,-0.07878548331734105,4.395881915280451,0,0,0,74,0,0,0,-68,-2,-4,"",""
91,142137333,0,0,0,0,0,0,0,0,0,146,0,0,1000,149,72,73,5,-3,-5,164,-858,1830,128,156,568,582,1,8,0,1,1,-0.4308144452324194,-0.07893657951005194,4.395968928240963,0,0,0,75,0,0,0,-70,-3,-5,"",""
92,142138975,0,0,0,0,0,0,0,0,0,147,0,0,1000,149,72,73,5,-3,-5,163,-857,1829,128,154,562,579,1,8,0,1,1,-0.43075082494231176,-0.0790913704921757,4.396063431969578,0,0,0,75,0,0,0,-70,-3,-5,"",""
93,142140603,0,0,0,0,0,0,0,0,0,148,0,0,1000,149,72,73,5,-3,-5,162,-856,1829,128,157,554,585,1,8,0,1,1,-0.4306831718532934,-0.07923759213282314,4.396157134246339,0,0,0,76,0,0,0,-71,-3,-5,"",""
94,142142105,0,0,0,0,0,0,0,0,0,149,0,0,1000,149,72,73,5,-3,-6,160,-856,1828,128,153,544,582,1,8,0,1,1,-0.4306273954357987,-0.07937162940091574,4.396267467363541,0,0,0,77,0,0,0,-72,-3,-6,"",""
95,142143618,0,0,0,0,0,0,0,0,0,149,0,0,1000,149,72,73,6,-3,-6,159,-855,1828,128,149,521,569,1,8,0,1,1,-0.4305392379091853,-0.07949981922616889,4.396378618538686,0,0,0,77,0,0,0,-71,-3,-6,"",""
96,142145124,0,0,0,0,0,0,0,0,0,150,0,0,1000,149,72,73,7,-3,-7,157,-854,1828,128,146,480,545,1,8,0,1,1,-0.430419168668664,-0.07962608752530922,4.396513231734188,0,0,0,77,0,0,0,-70,-3,-7,"",""
97,142146628,0,0,0,0,0,0,0,0,0,150,0,0,1000,149,72,73,8,-3,-8,155,-852,1827,128,139,452,529,1,8,0,1,1,-0.43026445628273297,-0.07975167375814475,4.396671623787222,0,0,0,77,0,0,0,-69,-3,-8,"",""
98,142148126,0,0,0,0,0,0,0,0,0,150,0,0,1000,149,72,73,9,-3,-8,153,-849,1827,129,128,440,518,1,8,0,1,1,-0.43007102854669127,-0.07986531725736809,4.396829430213722,0,0,0,77,0,0,0,-68,-3,-8,"",""
99,142149607,0,0,0,0,0,0,0,0,0,151,0,0,1000,149,72,73,10,-3,-9,150,-845,1826,141,128,448,519,1,8,0,1,1,-0.42983724157852593,-0.07997208504580856,4.397009077174509,0,0,0,78,0,0,0,-68,-3,-9,"",""
100,142151111,0,0,0,0,0,0,0,0,0,151,0,0,1000,149,72,73,11,-3,-8,147,-841,1826,139,128,454,519,1,8,0,1,1,-0.42955796999838347,-0.08005481975681968,4.397167653092515,0,0,0,78,0,0,0,-67,-3,-8,"",""
101,142152627,0,0,0,0,0,0,0,0,0,152,0,0,1000,149,72,73,12,-4,-7,143,-836,1825,132,128,473,526,1,8,0,1,1,-0.4292338934037398,-0.08013178145219642,4.397292404372731,0,0,0,79,0,0,0,-67,-4,-7,"",""
102,142154126,0,0,0,0,0,0,0,0,0,153,0,0,1000,149,72,73,12,-4,-5,139,-831,1823,138,128,510,516,1,8,0,1,1,-0.42890117963473723,-0.08016614964274879,4.397368115140597,0,0,0,79,0,0,0,-67,-4,-5,"",""
103,142155626,0,0,0,0,0,0,0,0,0,154,0,0,1000,149,72,73,12,-5,-3,136,-827,1822,130,128,527,508,1,8,0,1,1,-0.42855977453267435,-0.08018889310520486,4.397385272216392,0,0,0,80,0,0,0,-68,-5,-3,"",""
104,142157123,0,0,0,0,0,0,0,0,0,155,0,0,1000,149,273,73,12,-5,-1,133,-824,1821,128,143,535,503,1,8,0,1,1,-0.42821462469162974,-0.08017630527411909,4.397354784426338,0,0,0,81,0,0,0,-69,-5,-1,"",""
105,142158615,0,0,0,0,0,0,0,0,0,156,0,0,1000,149,273,73,13,-5,0,132,-823,1819,128,148,544,488,1,8,0,1,1,-0.427850006604826,-0.08014979191389582,4.397300670577265,0,0,0,81,0,0,0,-68,-5,0,"",""
106,142160114,0,0,0,0,0,0,0,0,0,157,0,0,1000,149,273,73,14,-6,1,131,-824,1818,128,160,537,475,1,8,0,1,1,-0.4274713128984608,-0.08013335023798607,4.397211551935056,0,0,0,82,0,0,0,-68,-6,1,"",""
107,142161626,0,0,0,0,0,0,0,0,0,157,0,0,1000,149,273,73,15,-6,2,132,-826,1817,128,170,523,461,1,8,0,1,1,-0.42708045392768823,-0.0801136645989772,4.397097569644617,0,0,0,82,0,0,0,-67,-6,2,"",""
108,142163127,0,0,0,0,0,0,0,0,0,158,0,0,1000,149,273,73,17,-6,2,132,-829,1817,128,166,480,414,1,8,0,1,1,-0.4266579687978919,-0.08009402171432889,4.396984409026959,0,0,0,83,0,0,0,-66,-6,2,"",""
109,142164626,0,0,0,0,0,0,0,0,0,158,0,0,1000,149,273,73,19,-6,1,132,-831,1816,128,162,467,402,1,8,0,1,1,-0.4261973942770226,-0.0800863600735081,4.396895298563951,0,0,0,83,0,0,0,-64,-6,1,"",""
110,142166125,0,0,0,0,0,0,0,0,0,158,0,0,1000,149,273,73,20,-6,1,132,-832,1816,128,163,468,412,1,8,0,1,1,-0.4257196117761455,-0.080079787724408,4.39680621586258,0,0,0,83,0,0,0,-63,-6,1,"",""
111,142167606,0,0,0,0,0,0,0,0,0,159,0,0,1000,149,273,73,22,-7,1,131,-833,1815,128,157,480,424,1,8,0,1,1,-0.42520834551780196,-0.08009156370774476,4.396707524845372,0,0,0,83,0,0,0,-61,-7,1,"",""
112,142169108,0,0,0,0,0,0,0,0,0,159,0,0,1000,149,273,73,22,-7,1,129,-834,1815,128,160,505,452,1,8,0,1,1,-0.4246980952229133,-0.08009686372534379,4.396607475083479,0,0,0,83,0,0,0,-61,-7,1,"",""
113,142170638,0,0,0,0,0,0,0,0,0,159,0,0,1000,149,273,73,23,-7,1,127,-835,1814,128,172,518,478,1,8,0,1,1,-0.4241616002440656,-0.08009695863670066,4.39650559691167,0,0,0,83,0,0,0,-60,-7,1,"",""
114,142172291,0,0,0,0,0,0,0,0,0,160,0,0,1000,148,273,73,23,-6,2,126,-839,1812,128,194,530,504,1,8,0,1,1,-0.4236036642781712,-0.08006861899847087,4.396381039172806,0,0,0,84,0,0,0,-61,-6,2,"",""
115,142173924,0,0,0,0,0,0,0,0,0,160,0,0,1000,148,273,73,24,-6,2,126,-845,1811,128,195,514,487,1,8,0,1,1,-0.4230574337356721,-0.0800396842139877,4.396257903257407,0,0,0,84,0,0,0,-60,-6,2,"",""
116,142175424,0,0,0,0,0,0,0,0,0,160,0,0,1000,148,273,73,25,-6,1,126,-851,1810,128,200,474,465,1,8,0,1,1,-0.4225692784423327,-0.08001167962432681,4.396168606942544,0,0,0,84,0,0,0,-59,-6,1,"",""
117,142176916,0,0,0,0,0,0,0,0,0,160,0,0,1000,148,273,73,27,-5,0,128,-857,1809,128,192,427,427,1,8,0,1,1,-0.42206071329657097,-0.07998015253222239,4.396114218299882,0,0,0,84,0,0,0,-57,-5,0,"",""
118,142178414,0,0,0,0,0,0,0,0,0,160,0,0,1000,148,134,73,28,-5,0,129,-862,1808,128,173,411,407,1,8,0,1,1,-0.42154951152669645,-0.07995470202289824,4.396059527880351,0,0,0,84,0,0,0,-56,-5,0,"",""
119,142179920,0,0,0,0,0,0,0,0,0,160,0,0,1000,148,134,73,30,-5,-1,129,-867,1806,128,153,394,392,1,8,0,1,1,-0.421008015563519,-0.07994179373671582,4.396028519365241,0,0,0,84,0,0,0,-54,-5,-1,"",""
120,142181439,0,0,0,0,0,0,0,0,0,161,0,0,1000,148,134,73,31,-6,-1,129,-870,1805,133,128,405,379,1,8,0,1,1,-0.42045170218774447,-0.0799550842922922,4.395986350962361,0,0,0,85,0,0,0,-54,-6,-1,"",""
121,142182937,0,0,0,0,0,0,0,0,0,161,0,0,1000,148,134,73,32,-6,0,128,-875,1804,147,128,428,380,1,8,0,1,1,-0.41990799198520057,-0.07995177954348424,4.395920708672791,0,0,0,85,0,0,0,-53,-6,0,"",""
122,142184430,0,0,0,0,0,0,0,0,0,161,0,0,1000,148,134,73,32,-6,0,127,-879,1802,128,136,415,386,1,8,0,1,1,-0.4193896998501043,-0.07994478420777337,4.395855193759517,0,0,0,85,0,0,0,-53,-6,0,"",""
123,142185925,0,0,0,0,0,0,0,0,0,161,0,0,1000,148,134,73,33,-7,1,127,-882,1801,128,128,413,363,1,8,0,1,1,-0.41886346395669094,-0.07995217770632544,4.395754975414801,0,0,0,85,0,0,0,-52,-7,1,"",""
124,142187424,0,0,0,0,0,0,0,0,0,162,0,0,1000,148,134,73,35,-7,1,126,-887,1799,128,131,390,340,1,8,0,1,1,-0.41830903129225433,-0.07995661942218034,4.3956543823858185,0,0,0,85,0,0,0,-50,-7,1,"",""
125,142188929,0,0,0,0,0,0,0,0,0,162,0,0,1000,148,134,73,36,-6,0,125,-891,1798,128,158,355,352,1,8,0,1,1,-0.4177422547006952,-0.07994496786289024,4.39558808807139,0,0,0,85,0,0,0,-49,-6,0,"",""
126,142190430,0,0,0,0,0,0,0,0,0,163,0,0,1000,148,134,73,38,-6,-1,125,-895,1798,128,129,333,326,1,8,0,1,1,-0.4171422389224282,-0.07994414170770295,4.395545914979707,0,0,0,86,0,0,0,-48,-6,-1,"",""
127,142191922,0,0,0,0,0,0,0,0,0,164,0,0,1000,149,134,73,39,-7,-2,125,-898,1798,171,128,363,335,1,8,0,1,1,-0.4165354850766837,-0.07997716185719236,4.395517246841996,0,0,0,87,0,0,0,-48,-7,-2,"",""
128,142193416,0,0,0,0,0,0,0,0,0,165,0,0,1000,149,134,73,40,-7,-3,124,-900,1797,128,98,323,331,1,8,0,1,1,-0.4159115567681069,-0.08001748251556698,4.395512437482394,0,0,0,87,0,0,0,-47,-7,-3,"",""
129,142194906,0,0,0,0,0,0,0,0,0,166,0,0,1000,149,134,73,40,-8,-3,125,-902,1797,161,98,376,349,1,8,0,1,1,-0.4153014284241505,-0.08008557774462961,4.395497080066906,0,0,0,88,0,0,0,-48,-8,-3,"",""
130,142196398,0,0,0,0,0,0,0,0,0,166,0,0,1000,149,134,73,40,-8,-1,125,-904,1797,170,98,406,348,1,8,0,1,1,-0.41470367026948685,-0.0801334088970908,4.3954338585311445,0,0,0,88,0,0,0,-48,-8,-1,"",""
131,142197896,0,0,0,0,0,0,0,0,0,167,0,0,1000,149,5,73,41,-8,-1,126,-907,1798,113,98,375,358,1,8,0,1,1,-0.41408772128777943,-0.0801861825610701,4.39537034756251,0,0,0,89,0,0,0,-48,-8,-1,"",""
132,142199396,0,0,0,0,0,0,0,0,0,167,0,0,1000,149,5,73,41,-8,0,129,-910,1798,110,98,376,344,1,8,0,1,1,-0.41348581690599356,-0.08024141011440006,4.395282639558779,0,0,0,89,0,0,0,-48,-8,0,"",""
133,142200890,0,0,0,0,0,0,0,0,0,167,0,0,1000,149,5,73,42,-8,0,130,-913,1799,100,98,349,320,1,8,0,1,1,-0.41287388421712434,-0.08029980345337695,4.395195211746787,0,0,0,89,0,0,0,-47,-8,0,"",""
134,142202389,0,0,0,0,0,0,0,0,0,168,0,0,1000,149,5,73,43,-7,-1,132,-916,1799,98,129,316,339,1,8,0,1,1,-0.4122428199966811,-0.08035366508675311,4.395141996537866,0,0,0,90,0,0,0,-47,-7,-1,"",""
135,142203881,0,0,0,0,0,0,0,0,0,168,0,0,1000,149,5,73,44,-7,-1,134,-919,1801,108,98,306,305,1,8,0,1,1,-0.4116010331966934,-0.08041423862240389,4.3950889621099725,0,0,0,90,0,0,0,-46,-7,-1,"",""
136,142205385,0,0,0,0,0,0,0,0,0,168,0,0,1000,149,5,73,45,-8,-2,137,-920,1804,138,98,311,294,1,8,0,1,1,-0.41092385858641833,-0.08052186028067573,4.395049177586258,0,0,0,90,0,0,0,-45,-8,-2,"",""
137,142207028,0,0,0,0,0,0,0,0,0,169,0,0,1000,149,5,73,46,-7,-2,138,-920,1806,122,98,300,310,1,8,0,1,1,-0.4101083557749509,-0.08062624253459627,4.39501763017545,0,0,0,90,0,0,0,-44,-7,-2,"",""
138,142208660,0,0,0,0,0,0,0,0,0,169,0,0,1000,149,5,73,47,-9,-1,139,-920,1809,171,98,360,309,1,8,0,1,1,-0.409275859567278,-0.08077282899820694,4.394937385344709,0,0,0,90,0,0,0,-43,-9,-1,"",""
139,142210157,0,0,0,0,0,0,0,0,0,169,0,0,1000,149,5,73,47,-9,1,138,-921,1811,178,98,391,305,1,8,0,1,1,-0.4085605668114251,-0.08087349456532408,4.3948153405582175,0,0,0,90,0,0,0,-43,-9,1,"",""
140,142211651,0,0,0,0,0,0,0,0,0,169,0,0,1000,149,5,73,47,-9,2,136,-922,1813,125,98,367,304,1,8,0,1,1,-0.40785265487237177,-0.08095492556864062,4.3946695345632225,0,0,0,90,0,0,0,-43,-9,2,"",""
141,142213150,0,0,0,0,0,0,0,0,0,169,0,0,1000,149,5,73,48,-10,3,135,-923,1815,128,98,390,295,1,8,0,1,1,-0.4071204794529035,-0.0810461752926318,4.394488776998202,0,0,0,90,0,0,0,-42,-10,3,"",""
142,142214642,0,0,0,0,0,0,0,0,0,169,0,0,1000,149,5,73,48,-10,3,136,-923,1818,112,98,368,279,1,8,0,1,1,-0.40639205383637766,-0.08113963084873665,4.394308906756218,0,0,0,90,0,0,0,-42,-10,3,"",""
143,142216144,0,0,0,0,0,0,0,0,0,169,0,0,1000,149,5,73,48,-9,2,137,-924,1820,98,125,354,321,1,8,0,1,1,-0.40565572001109723,-0.08122410568102477,4.3941624270200705,0,0,0,90,0,0,0,-42,-9,2,"",""
144,142217636,0,0,0,0,0,0,0,0,0,169,0,0,1000,149,0,73,49,-9,1,141,-923,1823,101,98,343,306,1,8,0,1,1,-0.40489438587861853,-0.0813321687549459,4.394041001932191,0,0,0,90,0,0,0,-41,-9,1,"",""
145,142219131,0,0,0,0,0,0,0,0,0,169,0,0,1000,149,0,73,49,-9,0,143,-922,1825,123,98,341,310,1,8,0,1,1,-0.40412489701675464,-0.08145783294196297,4.393943501977708,0,0,0,90,0,0,0,-41,-9,0,"",""
146,142220626,0,0,0,0,0,0,0,0,0,169,0,0,1000,149,0,73,49,-9,-1,144,-921,1827,121,98,328,325,1,8,0,1,1,-0.40334989344053,-0.08159665467216938,4.393870174833629,0,0,0,90,0,0,0,-41,-9,-1,"",""
147,142222117,0,0,0,0,0,0,0,0,0,169,0,0,1000,149,0,73,49,-10,-2,144,-920,1829,165,98,378,338,1,8,0,1,1,-0.40257367809271566,-0.08176784073500425,4.393810922282149,0,0,0,90,0,0,0,-41,-10,-2,"",""
148,142223664,0,0,0,0,0,0,0,0,0,169,0,0,1000,149,0,73,50,-10,-1,145,-919,1831,182,98,388,323,1,8,0,1,1,-0.4017219251085316,-0.08194083533949198,4.3937248292712345,0,0,0,90,0,0,0,-40,-10,-1,"",""
149,142225165,0,0,0,0,0,0,0,0,0,169,0,0,1000,149,0,73,50,-10,0,146,-918,1833,149,98,370,317,1,8,0,1,1,-0.4009090024278436,-0.08209860579049402,4.39361705332913,0,0,0,90,0,0,0,-40,-10,0,"",""
150,142226660,0,0,0,0,0,0,0,0,0,169,0,0,1000,149,0,73,50,-11,1,147,-916,1835,147,98,390,318,1,8,0,1,1,-0.4000975975297761,-0.08227197377114741,4.3934755247163535,0,0,0,90,0,0,0,-40,-11,1,"",""
151,142228183,0,0,0,0,0,0,0,0,0,169,0,0,1000,149,0,73,50,-11,2,149,-914,1836,127,98,379,313,1,8,0,1,1,-0.3992592299538581,-0.0824464248404916,4.393307016205542,0,0,0,90,0,0,0,-40,-11,2,"",""
152,142229682,0,0,0,0,0,0,0,0,0,169,0,0,1000,149,0,73,50,-10,2,151,-910,1838,98,105,352,324,1,8,0,1,1,-0.39842775639552447,-0.08259953278467196,4.393151495627404,0,0,0,90,0,0,0,-40,-10,2,"",""
153,142231173,0,0,0,0,0,0,0,0,0,169,0,0,1000,149,0,73,50,-10,0,153,-905,1840,98,99,340,330,1,8,0,1,1,-0.3975830838804759,-0.08277812604857854,4.393045196025462,0,0,0,90,0,0,0,-40,-10,0,"",""
154,142232668,0,0,0,0,0,0,0,0,0,169,0,0,1000,149,0,73,50,-9,-1,155,-897,1842,107,98,339,348,1,8,0,1,1,-0.3967062903291678,-0.08295018299613724,4.392973298640434,0,0,0,90,0,0,0,-40,-9,-1,"",""
155,142234167,0,0,0,0,0,0,0,0,0,169,0,0,1000,149,0,73,50,-9,-2,156,-889,1844,117,98,325,349,1,8,0,1,1,-0.3957987129009769,-0.08313592798708085,4.39292586141112,0,0,0,90,0,0,0,-40,-9,-2,"",""
156,142235668,0,0,0,0,0,0,0,0,0,169,0,0,1000,149,0,73,50,-10,-3,156,-881,1846,151,98,345,354,1,8,0,1,1,-0.3948634045180173,-0.08335535780472157,4.392892954690397,0,0,0,90,0,0,0,-40,-10,-3,"",""
157,142237161,0,0,0,0,0,0,0,0,0,169,0,0,1000,149,0,73,50,-10,-3,154,-873,1848,170,98,367,355,1,8,0,1,1,-0.3939106565059897,-0.0835653853266678,4.392860665742281,0,0,0,90,0,0,0,-40,-10,-3,"",""
158,142238651,0,0,0,0,0,0,0,0,0,169,0,0,1000,149,27,73,50,-10,-1,151,-866,1851,165,98,363,337,1,8,0,1,1,-0.39294246302922003,-0.08374340367340603,4.392780673379772,0,0,0,90,0,0,0,-40,-10,-1,"",""
159,142240142,0,0,0,0,0,0,0,0,0,169,0,0,1000,149,27,73,50,-11,0,148,-859,1854,172,98,378,318,1,8,0,1,1,-0.3919545671467296,-0.08392429516193162,4.3926669746562395,0,0,0,90,0,0,0,-40,-11,0,"",""
160,142241668,0,0,0,0,0,0,0,0,0,169,0,0,1000,149,27,73,50,-11,1,147,-852,1856,128,57,353,269,1,8,0,1,1,-0.3909186653169025,-0.08409734849424685,4.392526454547585,0,0,0,90,0,0,0,-40,-11,1,"",""
161,142243316,0,0,0,0,0,0,0,0,0,169,0,0,1000,149,27,73,50,-11,2,148,-845,1859,94,57,338,271,1,8,0,1,1,-0.3897594756280185,-0.0842831268300172,4.392348826953558,0,0,0,90,0,0,0,-40,-11,2,"",""
162,142244942,0,0,0,0,0,0,0,0,0,169,0,0,1000,149,27,73,50,-11,1,150,-838,1862,74,57,333,284,1,8,0,1,1,-0.38859731931773983,-0.08448220150154796,4.392200390985291,0,0,0,90,0,0,0,-40,-11,1,"",""
163,142246441,0,0,0,0,0,0,0,0,0,169,0,0,1000,149,27,73,50,-11,0,153,-830,1865,77,57,339,302,1,8,0,1,1,-0.3875196322979172,-0.08467904473625014,4.392088130265531,0,0,0,90,0,0,0,-40,-11,0,"",""
164,142247932,0,0,0,0,0,0,0,0,0,169,0,0,1000,149,27,73,49,-10,-1,155,-821,1869,74,57,327,322,1,8,0,1,1,-0.3864443939529343,-0.08486612192589091,4.392011108980384,0,0,0,90,0,0,0,-41,-10,-1,"",""
165,142249432,0,0,0,0,0,0,0,0,0,169,0,0,1000,149,27,73,49,-10,-2,157,-813,1872,85,57,326,334,1,8,0,1,1,-0.38533680124400166,-0.08507044657545092,4.391958549350119,0,0,0,90,0,0,0,-41,-10,-2,"",""
166,142250927,0,0,0,0,0,0,0,0,0,169,0,0,1000,149,27,73,49,-10,-2,159,-806,1874,103,57,324,326,1,8,0,1,1,-0.3842156245942464,-0.08527982660229552,4.3919066703986065,0,0,0,90,0,0,0,-41,-10,-2,"",""
167,142252424,0,0,0,0,0,0,0,0,0,169,0,0,1000,150,27,73,49,-11,-2,159,-799,1877,121,57,328,315,1,8,0,1,1,-0.3830747814838458,-0.08551247559468228,4.39184546936609,0,0,0,90,0,0,0,-41,-11,-2,"",""
168,142253922,0,0,0,0,0,0,0,0,0,169,0,0,1000,150,27,73,50,-11,-2,159,-794,1880,117,57,323,306,1,8,0,1,1,-0.3818948895887544,-0.08574381685813198,4.391784715815899,0,0,0,90,0,0,0,-40,-11,-2,"",""
169,142255418,0,0,0,0,0,0,0,0,0,169,0,0,1000,150,27,73,50,-11,-1,160,-789,1883,114,57,324,297,1,8,0,1,1,-0.38070696212459526,-0.08596698607975305,4.391700202602624,0,0,0,90,0,0,0,-40,-11,-1,"",""
170,142256908,0,0,0,0,0,0,0,0,0,169,0,0,1000,150,27,73,50,-11,-1,161,-783,1886,112,57,334,296,1,8,0,1,1,-0.37950946857466167,-0.08619106099170967,4.391616557273973,0,0,0,90,0,0,0,-40,-11,-1,"",""
171,142258400,0,0,0,0,0,0,0,0,0,169,0,0,1000,150,0,73,49,-11,-1,163,-776,1888,99,57,338,312,1,8,0,1,1,-0.3783197441510159,-0.08642113113595731,4.391533371775202,0,0,0,90,0,0,0,-41,-11,-1,"",""
172,142259914,0,0,0,0,0,0,0,0,0,169,0,0,1000,150,0,73,49,-10,-1,166,-769,1890,83,57,336,334,1,8,0,1,1,-0.37709433259440317,-0.08663963701166587,4.391459331068676,0,0,0,90,0,0,0,-41,-10,-1,"",""
173,142261414,0,0,0,0,0,0,0,0,0,169,0,0,1000,150,0,73,48,-10,-2,168,-762,1892,90,57,347,351,1,8,0,1,1,-0.3758887859393376,-0.0868708618058967,4.391410968105648,0,0,0,90,0,0,0,-42,-10,-2,"",""
174,142262907,0,0,0,0,0,0,0,0,0,169,0,0,1000,150,0,73,48,-10,-3,172,-755,1895,99,57,354,364,1,8,0,1,1,-0.37466989635936604,-0.08712189538053698,4.391387764274938,0,0,0,90,0,0,0,-42,-10,-3,"",""
175,142264405,0,0,0,0,0,0,0,0,0,169,0,0,1000,150,0,73,47,-10,-3,175,-748,1897,101,57,347,367,1,8,0,1,1,-0.37345721493415823,-0.08738215029420153,4.39136507816087,0,0,0,90,0,0,0,-43,-10,-3,"",""
176,142265893,0,0,0,0,0,0,0,0,0,169,0,0,1000,150,0,73,47,-10,-3,177,-742,1899,109,57,342,355,1,8,0,1,1,-0.3722401738904726,-0.08764546961104315,4.3913430876327935,0,0,0,90,0,0,0,-43,-10,-3,"",""
177,142267389,0,0,0,0,0,0,0,0,0,169,0,0,1000,150,0,73,47,-10,-3,180,-737,1900,121,57,338,331,1,8,0,1,1,-0.37100843200824535,-0.08791837679820297,4.391321457134912,0,0,0,90,0,0,0,-43,-10,-3,"",""
178,142268920,0,0,0,0,0,0,0,0,0,170,0,0,1000,150,0,73,48,-11,-2,183,-734,1902,123,57,330,308,1,8,0,1,1,-0.36972147773860387,-0.08822029887523081,4.391265022554924,0,0,0,91,0,0,0,-43,-11,-2,"",""
179,142270419,0,0,0,0,0,0,0,0,0,171,0,0,1000,150,0,73,48,-11,-1,185,-731,1905,112,57,321,295,1,8,0,1,1,-0.36845924297245614,-0.08851066563361988,4.391185709637938,0,0,0,92,0,0,0,-44,-11,-1,"",""
180,142271980,0,0,0,0,0,0,0,0,0,172,0,0,1000,150,0,73,49,-11,-1,188,-727,1907,110,57,330,292,1,8,0,1,1,-0.367112739270788,-0.08881992579502962,4.391103597131769,0,0,0,92,0,0,0,-43,-11,-1,"",""
181,142273476,0,0,0,0,0,0,0,0,0,172,0,0,1000,150,0,73,48,-11,0,190,-722,1909,101,57,355,314,1,8,0,1,1,-0.36584104790834976,-0.0891121701418755,4.391000962516779,0,0,0,92,0,0,0,-44,-11,0,"",""
182,142274983,0,0,0,0,0,0,0,0,0,173,0,0,1000,150,0,73,48,-11,-1,192,-717,1911,90,57,374,341,1,8,0,1,1,-0.36454946396971644,-0.0894200331476103,4.390922759865775,0,0,0,93,0,0,0,-45,-11,-1,"",""
183,142276496,0,0,0,0,0,0,0,0,0,174,0,0,1000,150,0,73,47,-11,-1,194,-711,1913,82,57,384,358,1,8,0,1,1,-0.36326782065517266,-0.08973326819707064,4.390844835908409,0,0,0,94,0,0,0,-47,-11,-1,"",""
184,142278178,0,0,0,0,0,0,0,0,0,174,0,0,1000,150,0,73,46,-11,-1,195,-705,1915,87,57,395,364,1,8,0,1,1,-0.3618670834862159,-0.09007880894268923,4.390758765867395,0,0,0,94,0,0,0,-48,-11,-1,"",""
185,142279819,0,0,0,0,0,0,0,0,0,174,0,0,1000,150,0,73,46,-11,-1,197,-700,1916,89,57,390,359,1,8,0,1,1,-0.36049240813345906,-0.09042091933344878,4.390675391073071,0,0,0,94,0,0,0,-48,-11,-1,"",""
186,142281317,0,0,0,0,0,0,0,0,0,175,0,0,1000,150,0,73,46,-11,-1,198,-696,1918,89,57,373,343,1,8,0,1,1,-0.35922639261531536,-0.09073731874515005,4.390599878197153,0,0,0,95,0,0,0,-49,-11,-1,"",""
187,142282815,0,0,0,0,0,0,0,0,0,175,0,0,1000,150,0,73,47,-11,-1,199,-692,1919,102,57,365,319,1,8,0,1,1,-0.3579300707774387,-0.09105482257302369,4.390524831153523,0,0,0,95,0,0,0,-48,-11,-1,"",""
188,142284298,0,0,0,0,0,0,0,0,0,175,0,0,1000,150,0,73,47,-11,-1,199,-689,1921,99,57,352,308,1,8,0,1,1,-0.3566435990259864,-0.09136725956597028,4.390450976829021,0,0,0,95,0,0,0,-48,-11,-1,"",""
189,142285800,0,0,0,0,0,0,0,0,0,175,0,0,1000,150,0,73,48,-11,-1,199,-684,1923,98,57,352,311,1,8,0,1,1,-0.3553076365759517,-0.09168115972736579,4.3903767165747265,0,0,0,95,0,0,0,-47,-11,-1,"",""
190,142287311,0,0,0,0,0,0,0,0,0,175,0,0,1000,150,0,73,48,-12,-1,198,-678,1925,107,57,378,327,1,8,0,1,1,-0.3539545641679747,-0.09201636661429163,4.390293453302803,0,0,0,95,0,0,0,-47,-12,-1,"",""
191,142288808,0,0,0,0,0,0,0,0,0,176,0,0,1000,150,0,73,47,-12,-1,198,-671,1927,107,57,395,349,1,8,0,1,1,-0.3526259227154589,-0.092346814129377,4.390211705669771,0,0,0,95,0,0,0,-48,-12,-1,"",""
192,142290304,0,0,0,0,0,0,0,0,0,176,0,0,1000,150,0,73,47,-12,-1,197,-664,1928,128,87,434,400,1,8,0,1,1,-0.35128596320237493,-0.09267245244107906,4.39013072471477,0,0,0,95,0,0,0,-48,-12,-1,"",""
193,142291805,0,0,0,0,0,0,0,0,0,176,0,0,1000,150,0,73,46,-12,-1,196,-657,1929,132,87,443,401,1,8,0,1,1,-0.3499560248549551,-0.09299455924672499,4.390050179809161,0,0,0,95,0,0,0,-49,-12,-1,"",""
194,142293286,0,0,0,0,0,0,0,0,0,176,0,0,1000,152,0,73,46,-12,-1,195,-651,1930,130,87,436,398,1,8,0,1,1,-0.34863279963867666,-0.09330806248296132,4.389971398469221,0,0,0,95,0,0,0,-49,-12,-1,"",""
195,142294793,0,0,0,0,0,0,0,0,0,176,0,0,1000,152,0,73,46,-12,-1,193,-647,1930,118,87,404,386,1,8,0,1,1,-0.3472864083122688,-0.09361946872061741,4.389891690296739,0,0,0,95,0,0,0,-49,-12,-1,"",""
196,142296306,0,0,0,0,0,0,0,0,0,176,0,0,1000,152,0,73,47,-11,-1,192,-644,1931,119,87,377,358,1,8,0,1,1,-0.3459075400428404,-0.09390270089699723,4.389821123388952,0,0,0,95,0,0,0,-48,-11,-1,"",""
197,142297806,0,0,0,0,0,0,0,0,0,176,0,0,1000,152,0,73,47,-11,-1,192,-642,1932,118,87,355,340,1,8,0,1,1,-0.3445415341844992,-0.09418183730468077,4.389751561847897,0,0,0,95,0,0,0,-48,-11,-1,"",""
198,142299304,0,0,0,0,0,0,0,0,0,176,0,0,1000,152,50,73,48,-11,-2,191,-639,1933,123,87,347,337,1,8,0,1,1,-0.3431483186581633,-0.09446490379412908,4.3897072679007945,0,0,0,95,0,0,0,-47,-11,-2,"",""
199,142300800,0,0,0,0,0,0,0,0,0,176,0,0,1000,152,50,73,48,-11,-2,191,-635,1934,136,87,366,349,1,8,0,1,1,-0.34175365682353004,-0.09474609258378605,4.389663557433963,0,0,0,95,0,0,0,-47,-11,-2,"",""
200,142302279,0,0,0,0,0,0,0,0,0,176,0,0,1000,152,50,73,48,-11,-2,191,-630,1936,142,87,391,367,1,8,0,1,1,-0.34036633318638104,-0.09502238656587411,4.389620991232841,0,0,0,95,0,0,0,-47,-11,-2,"",""
201,142303776,0,0,0,0,0,0,0,0,0,176,0,0,1000,152,50,73,48,-11,-2,191,-626,1937,135,87,414,389,1,8,0,1,1,-0.33896099166170296,-0.09530069418710235,4.389578385499297,0,0,0,95,0,0,0,-47,-11,-2,"",""
202,142305313,0,0,0,0,0,0,0,0,0,176,0,0,1000,152,50,73,47,-12,-1,191,-623,1937,146,87,439,385,1,8,0,1,1,-0.3375530846275716,-0.09560172458039275,4.3895006302536945,0,0,0,95,0,0,0,-48,-12,-1,"",""
203,142306810,0,0,0,0,0,0,0,0,0,176,0,0,1000,152,50,73,47,-12,0,191,-620,1938,128,87,423,373,1,8,0,1,1,-0.3361797272420246,-0.09588449323327934,4.389400700335463,0,0,0,95,0,0,0,-48,-12,0,"",""
204,142308306,0,0,0,0,0,0,0,0,0,176,0,0,1000,152,50,73,48,-12,0,192,-619,1939,110,87,394,359,1,8,0,1,1,-0.33478617483074946,-0.09616825919030128,4.389301164905721,0,0,0,95,0,0,0,-47,-12,0,"",""
205,142309802,0,0,0,0,0,0,0,0,0,176,0,0,1000,152,50,73,48,-11,0,195,-619,1939,115,87,376,339,1,8,0,1,1,-0.33340044147996356,-0.09643445834133287,4.389210438118193,0,0,0,95,0,0,0,-47,-11,0,"",""
206,142311297,0,0,0,0,0,0,0,0,0,176,0,0,1000,152,50,73,49,-11,0,198,-620,1940,111,87,349,321,1,8,0,1,1,-0.33199986506947626,-0.09670712820697377,4.389119913598588,0,0,0,95,0,0,0,-46,-11,0,"",""
207,142312943,0,0,0,0,0,0,0,0,0,176,0,0,1000,150,50,73,50,-11,-1,200,-621,1941,120,87,343,321,1,8,0,1,1,-0.3304508889958889,-0.09702011851495543,4.389047394735758,0,0,0,95,0,0,0,-45,-11,-1,"",""
208,142314596,0,0,0,0,0,0,0,0,0,176,0,0,1003,150,50,73,50,-11,-2,202,-620,1942,143,87,366,341,1,8,0,1,1,-0.32889896189811174,-0.0973473542276403,4.389002345512101,0,0,0,95,0,0,0,-45,-11,-2,"",""
209,142316105,0,0,0,0,0,0,0,0,0,176,0,0,1003,150,50,73,50,-12,-2,203,-620,1943,164,87,400,357,1,8,0,1,1,-0.3274807600617732,-0.09767241466684252,4.388953217182329,0,0,0,95,0,0,0,-45,-12,-2,"",""
210,142317601,0,0,0,0,0,0,0,0,0,176,0,0,1003,150,50,73,49,-12,-1,203,-620,1944,160,87,426,371,1,8,0,1,1,-0.32610971730226,-0.09798436997149011,4.388879946873554,0,0,0,95,0,0,0,-46,-12,-1,"",""
211,142319094,0,0,0,0,0,0,0,0,0,176,0,0,1003,150,33,73,49,-13,-1,202,-620,1944,167,87,446,370,1,8,0,1,1,-0.3247501409883663,-0.09831583322527279,4.388798694606849,0,0,0,95,0,0,0,-46,-13,-1,"",""
212,142320607,0,0,0,0,0,0,0,0,0,176,0,0,1003,150,33,73,49,-13,0,202,-620,1944,151,87,435,362,1,8,0,1,1,-0.3233841165841259,-0.09864156870014423,4.3886914183275385,0,0,0,95,0,0,0,-46,-13,0,"",""
213,142322101,0,0,0,0,0,0,0,0,0,176,0,0,1003,150,33,73,49,-13,0,202,-620,1945,126,87,409,353,1,8,0,1,1,-0.32204121512842654,-0.0989612919628076,4.388585776542874,0,0,0,95,0,0,0,-46,-13,0,"",""
214,142323612,0,0,0,0,0,0,0,0,0,177,0,0,1016,150,33,73,49,-12,0,203,-620,1945,113,87,377,344,1,8,0,1,1,-0.32069093676839155,-0.09926083348899688,4.388487495929028,0,0,0,96,0,0,0,-47,-12,0,"",""
215,142325114,0,0,0,0,0,0,0,0,0,177,0,0,1016,150,33,73,50,-12,-1,204,-619,1946,122,87,365,344,1,8,0,1,1,-0.3193240318996785,-0.09956777106625284,4.388415122462336,0,0,0,96,0,0,0,-46,-12,-1,"",""
216,142326618,0,0,0,0,0,0,0,0,0,177,0,0,1016,150,33,73,50,-12,-2,204,-618,1947,141,87,356,334,1,8,0,1,1,-0.3179572904557816,-0.0998814972704294,4.388368018427097,0,0,0,96,0,0,0,-46,-12,-2,"",""
217,142328117,0,0,0,0,0,0,0,0,0,177,0,0,1016,150,33,73,50,-12,-3,203,-615,1947,152,87,367,355,1,8,0,1,1,-0.31659242553528955,-0.10019818966645758,4.388346513034364,0,0,0,96,0,0,0,-46,-12,-3,"",""
218,142329595,0,0,0,0,0,0,0,0,0,177,0,0,1016,150,33,73,50,-13,-3,203,-613,1948,184,87,411,368,1,8,0,1,1,-0.31524829231702733,-0.10053299075920753,4.38831769435636,0,0,0,96,0,0,0,-46,-13,-3,"",""
219,142331088,0,0,0,0,0,0,0,0,0,177,0,0,1016,150,33,73,50,-13,-2,201,-611,1949,201,87,438,358,1,8,0,1,1,-0.3138952789243978,-0.10085607856994834,4.388264097005527,0,0,0,96,0,0,0,-46,-13,-2,"",""
220,142332595,0,0,0,0,0,0,0,0,0,177,0,0,1016,150,33,73,50,-14,-1,200,-609,1950,179,87,427,346,1,8,0,1,1,-0.3125351686927918,-0.10119479460111204,4.388177129921638,0,0,0,96,0,0,0,-46,-14,-1,"",""
221,142334095,0,0,0,0,0,0,0,0,0,177,0,0,1016,150,33,73,50,-14,1,199,-607,1950,163,87,430,342,1,8,0,1,1,-0.3111886554576221,-0.1015117803395584,4.388040898154234,0,0,0,96,0,0,0,-46,-14,1,"",""
222,142335590,0,0,0,0,0,0,0,0,0,177,0,0,1016,150,33,73,51,-14,1,198,-607,1950,149,87,423,332,1,8,0,1,1,-0.309827967315309,-0.10182356300387291,4.387905366734141,0,0,0,96,0,0,0,-45,-14,1,"",""
223,142337084,0,0,0,0,0,0,0,0,0,177,0,0,1016,150,33,73,51,-13,1,199,-607,1951,111,87,371,321,1,8,0,1,1,-0.30847404767132314,-0.10211137122435734,4.387778143639283,0,0,0,96,0,0,0,-45,-13,1,"",""
224,142338570,0,0,0,0,0,0,0,0,0,177,0,0,1016,150,0,73,51,-13,0,201,-607,1952,128,107,371,350,1,8,0,1,1,-0.3071312325771445,-0.10240897639343632,4.387676676129927,0,0,0,96,0,0,0,-45,-13,0,"",""
225,142340069,0,0,0,0,0,0,0,0,0,177,0,0,1016,150,0,73,51,-13,-2,202,-605,1953,162,107,388,357,1,8,0,1,1,-0.3057733881774025,-0.10272617579328283,4.387624869339776,0,0,0,96,0,0,0,-45,-13,-2,"",""
226,142341579,0,0,0,0,0,0,0,0,0,177,0,0,1016,150,0,73,52,-13,-2,203,-604,1953,175,107,397,372,1,8,0,1,1,-0.30438446713655715,-0.10304698328742783,4.387572994926423,0,0,0,96,0,0,0,-44,-13,-2,"",""
227,142343079,0,0,0,0,0,0,0,0,0,177,0,0,1016,150,0,73,52,-13,-3,203,-603,1953,193,107,417,382,1,8,0,1,1,-0.3030069232610883,-0.10337182524046896,4.387546904008568,0,0,0,96,0,0,0,-44,-13,-3,"",""
228,142344574,0,0,0,0,0,0,0,0,0,177,0,0,1016,150,0,73,52,-14,-2,202,-603,1953,222,107,446,365,1,8,0,1,1,-0.3016445996222984,-0.10370841341291855,4.387488298226011,0,0,0,96,0,0,0,-44,-14,-2,"",""
229,142346082,0,0,0,0,0,0,0,0,0,177,0,0,1016,150,0,73,52,-14,0,201,-603,1953,207,107,448,354,1,8,0,1,1,-0.30028302630511444,-0.10402850883970258,4.387378885219344,0,0,0,96,0,0,0,-44,-14,0,"",""
230,142347701,0,0,0,0,0,0,0,0,0,177,0,0,1016,150,0,73,52,-14,1,200,-603,1953,177,107,439,350,1,8,0,1,1,-0.2988320576013371,-0.10436215307821799,4.387234543143177,0,0,0,96,0,0,0,-44,-14,1,"",""
231,142349336,0,0,0,0,0,0,0,0,0,177,0,0,1016,150,0,73,52,-14,1,202,-602,1954,161,107,435,352,1,8,0,1,1,-0.2973711786114534,-0.10470292580937039,4.387089161085998,0,0,0,96,0,0,0,-44,-14,1,"",""
232,142350843,0,0,0,0,0,0,0,0,0,177,0,0,1025,150,0,73,52,-14,1,205,-601,1955,131,107,404,360,1,8,0,1,1,-0.29602909632228436,-0.10502053082620062,4.386955460720324,0,0,0,96,0,0,0,-44,-14,1,"",""
233,142352342,0,0,0,0,0,0,0,0,0,177,0,0,1025,150,0,73,51,-13,-1,207,-599,1955,127,107,387,374,1,8,0,1,1,-0.29471619518097764,-0.10533034246361203,4.386880829128582,0,0,0,96,0,0,0,-45,-13,-1,"",""
234,142353836,0,0,0,0,0,0,0,0,0,177,0,0,1025,149,0,73,52,-13,-2,208,-597,1956,162,107,403,377,1,8,0,1,1,-0.29338027214103884,-0.10564753469942058,4.386831937207447,0,0,0,96,0,0,0,-44,-13,-2,"",""
235,142355335,0,0,0,0,0,0,0,0,0,177,0,0,1025,149,0,73,52,-14,-3,208,-596,1955,184,107,403,371,1,8,0,1,1,-0.2920431312162472,-0.10599711141118609,4.386800768867447,0,0,0,96,0,0,0,-44,-14,-3,"",""
236,142356822,0,0,0,0,0,0,0,0,0,177,0,0,1025,149,0,73,52,-14,-2,208,-596,1955,192,107,400,362,1,8,0,1,1,-0.29072622391145336,-0.10633463846240526,4.386745077162489,0,0,0,96,0,0,0,-44,-14,-2,"",""
237,142358323,0,0,0,0,0,0,0,0,0,177,0,0,1025,149,0,73,53,-15,-1,207,-596,1954,227,107,430,340,1,8,0,1,1,-0.28938149618271375,-0.10668931112913133,4.386656309397987,0,0,0,96,0,0,0,-43,-15,-1,"",""
238,142359829,0,0,0,0,0,0,0,0,0,177,0,0,1025,149,0,73,53,-15,1,206,-596,1954,210,107,423,323,1,8,0,1,1,-0.28804432812573033,-0.10702633439047879,4.38651681196208,0,0,0,96,0,0,0,-43,-15,1,"",""
239,142361329,0,0,0,0,0,0,0,0,0,177,0,0,1025,149,0,73,53,-15,1,204,-595,1953,170,107,403,320,1,8,0,1,1,-0.286717608763008,-0.10735586701479284,4.3863781550025385,0,0,0,96,0,0,0,-43,-15,1,"",""
240,142362826,0,0,0,0,0,0,0,0,0,177,0,0,1025,149,0,73,53,-15,2,204,-593,1953,164,107,415,329,1,8,0,1,1,-0.28539811959252853,-0.10767614587258095,4.386214957262121,0,0,0,96,0,0,0,-43,-15,2,"",""
241,142364321,0,0,0,0,0,0,0,0,0,177,0,0,1025,149,0,73,53,-14,1,205,-589,1953,146,107,411,348,1,8,0,1,1,-0.28407395043572353,-0.10797978485691856,4.386085095463899,0,0,0,96,0,0,0,-43,-14,1,"",""
242,142365804,0,0,0,0,0,0,0,0,0,177,0,0,1025,149,0,73,53,-14,0,205,-585,1953,131,107,386,362,1,8,0,1,1,-0.2827550473997795,-0.10828693838843478,4.385981813141927,0,0,0,96,0,0,0,-43,-14,0,"",""
243,142367324,0,0,0,0,0,0,0,0,0,177,0,0,1025,149,0,73,53,-14,-1,205,-581,1952,158,107,399,369,1,8,0,1,1,-0.2813972789856342,-0.10860935090465997,4.385902181739895,0,0,0,96,0,0,0,-43,-14,-1,"",""
244,142368827,0,0,0,0,0,0,0,0,0,177,0,0,1025,149,0,73,53,-14,-2,204,-577,1952,175,107,394,359,1,8,0,1,1,-0.28004951015523577,-0.10893142823408629,4.38584936944714,0,0,0,96,0,0,0,-43,-14,-2,"",""
245,142370329,0,0,0,0,0,0,0,0,0,177,0,0,1025,149,0,73,54,-14,-1,204,-573,1951,177,107,383,346,1,8,0,1,1,-0.2786771410111321,-0.10924525774294257,4.385771810773538,0,0,0,96,0,0,0,-42,-14,-1,"",""
246,142371825,0,0,0,0,0,0,0,0,0,177,0,0,1025,149,0,73,54,-14,-1,203,-571,1951,195,107,390,324,1,8,0,1,1,-0.27731233678934997,-0.10955409608709886,4.385694957711434,0,0,0,96,0,0,0,-42,-14,-1,"",""
247,142373320,0,0,0,0,0,0,0,0,0,177,0,0,1025,150,0,73,55,-14,1,203,-569,1951,194,107,380,299,1,8,0,1,1,-0.27592993038762,-0.1098474430381545,4.385568042433334,0,0,0,96,0,0,0,-41,-14,1,"",""
248,142374803,0,0,0,0,0,0,0,0,0,177,0,0,1025,150,0,73,55,-14,1,203,-565,1952,166,107,370,301,1,8,0,1,1,-0.27455555584884983,-0.11013696946122174,4.385442726931932,0,0,0,96,0,0,0,-41,-14,1,"",""
249,142376295,0,0,0,0,0,0,0,0,0,177,0,0,1025,150,0,73,55,-14,1,205,-561,1953,161,107,391,321,1,8,0,1,1,-0.2731693260299136,-0.11043228982966236,4.385317255579833,0,0,0,96,0,0,0,-41,-14,1,"",""
250,142377796,0,0,0,0,0,0,0,0,0,177,0,0,1032,150,0,73,55,-14,1,208,-555,1954,151,107,402,344,1,8,0,1,1,-0.2717666793404444,-0.1107358742698063,4.385191829238531,0,0,0,96,0,0,0,-41,-14,1,"",""
251,142379293,0,0,0,0,0,0,0,0,0,177,0,0,1032,150,0,73,54,-13,0,210,-550,1956,133,107,392,364,1,8,0,1,1,-0.27038414565017566,-0.11102384540883659,4.385099814967392,0,0,0,96,0,0,0,-42,-13,0,"",""
252,142380790,0,0,0,0,0,0,0,0,0,177,0,0,1032,150,0,73,54,-13,0,213,-545,1956,147,107,403,369,1,8,0,1,1,-0.26899671762035543,-0.11131811278335935,4.385008449274059,0,0,0,96,0,0,0,-42,-13,0,"",""
253,142382296,0,0,0,0,0,0,0,0,0,177,0,0,1032,150,0,73,54,-13,0,215,-541,1956,153,107,386,353,1,8,0,1,1,-0.2675983603177365,-0.11161813999658225,4.3849170963906605,0,0,0,96,0,0,0,-42,-13,0,"",""
254,142383919,0,0,0,0,0,0,0,0,0,177,0,0,1032,150,0,73,55,-13,0,217,-539,1956,157,107,368,330,1,8,0,1,1,-0.26606495266876956,-0.11194727840998248,4.384819099805675,0,0,0,96,0,0,0,-41,-13,0,"",""
255,142385559,0,0,0,0,0,0,0,0,0,177,0,0,1032,150,0,73,56,-13,0,218,-538,1956,160,107,349,302,1,8,0,1,1,-0.26449194587951214,-0.11228118682009057,4.3847204151523576,0,0,0,96,0,0,0,-40,-13,0,"",""
256,142387064,0,0,0,0,0,0,0,0,0,177,0,0,1032,150,0,73,56,-13,0,219,-536,1957,128,73,305,251,1,8,0,1,1,-0.26305163556885114,-0.11258649781399661,4.384630182550798,0,0,0,96,0,0,0,-40,-13,0,"",""
257,142388605,0,0,0,0,0,0,0,0,0,177,0,0,1032,150,0,73,57,-13,1,219,-533,1957,121,73,306,259,1,8,0,1,1,-0.2615526768326033,-0.11289169916792978,4.384512154727182,0,0,0,96,0,0,0,-39,-13,1,"",""
258,142390101,0,0,0,0,0,0,0,0,0,177,0,0,1032,150,0,73,57,-13,1,220,-530,1957,122,73,330,281,1,8,0,1,1,-0.26009813814094346,-0.11318860227929943,4.384398003486737,0,0,0,96,0,0,0,-39,-13,1,"",""
259,142391594,0,0,0,0,0,0,0,0,0,177,0,0,1032,150,0,73,56,-13,0,220,-525,1958,118,73,349,305,1,8,0,1,1,-0.25866452597187256,-0.11349040919751284,4.384310117146961,0,0,0,96,0,0,0,-40,-13,0,"",""
260,142393092,0,0,0,0,0,0,0,0,0,177,0,0,1032,150,0,73,56,-13,1,221,-521,1958,114,73,372,325,1,8,0,1,1,-0.2572266380931373,-0.11378803929401464,4.3841970591249115,0,0,0,96,0,0,0,-40,-13,1,"",""
261,142394583,0,0,0,0,0,0,0,0,0,177,0,0,1032,150,0,73,55,-13,1,221,-517,1959,114,73,378,323,1,8,0,1,1,-0.2558185266038217,-0.11408301313619382,4.3840851100842855,0,0,0,96,0,0,0,-41,-13,1,"",""
262,142396086,0,0,0,0,0,0,0,0,0,177,0,0,1032,150,0,73,55,-13,1,221,-514,1959,101,73,359,314,1,8,0,1,1,-0.2543988839808131,-0.11437960661214071,4.383972724047711,0,0,0,96,0,0,0,-41,-13,1,"",""
263,142397584,0,0,0,0,0,0,0,0,0,177,0,0,1032,150,0,73,55,-12,1,223,-512,1959,100,73,345,297,1,8,0,1,1,-0.2529853471883876,-0.11465348320209351,4.383867649047616,0,0,0,96,0,0,0,-41,-12,1,"",""
264,142399073,0,0,0,0,0,0,0,0,0,177,0,0,1032,150,0,73,56,-12,1,225,-510,1960,97,73,317,273,1,8,0,1,1,-0.25155597369543264,-0.11492895247690905,4.383763543660161,0,0,0,96,0,0,0,-40,-12,1,"",""
265,142400569,0,0,0,0,0,0,0,0,0,177,0,0,1032,150,0,73,56,-12,1,228,-509,1961,92,73,295,267,1,8,0,1,1,-0.25012364380392316,-0.11521135156840169,4.38365918954061,0,0,0,96,0,0,0,-40,-12,1,"",""
266,142402059,0,0,0,0,0,0,0,0,0,177,0,0,1032,150,0,73,57,-12,0,231,-506,1961,106,73,304,277,1,8,0,1,1,-0.24866822102868671,-0.11550479997377056,4.383581042470202,0,0,0,96,0,0,0,-39,-12,0,"",""
267,142403551,0,0,0,0,0,0,0,0,0,177,0,0,1032,150,0,73,57,-12,-1,233,-503,1961,126,73,324,291,1,8,0,1,1,-0.24720791354686728,-0.115808481905185,4.383528641217323,0,0,0,96,0,0,0,-39,-12,-1,"",""
268,142405051,0,0,0,0,0,0,0,0,0,177,0,0,1042,150,0,73,56,-12,-1,235,-500,1961,132,73,346,313,1,8,0,1,1,-0.24576579199958132,-0.11611719702822938,4.383476406219035,0,0,0,96,0,0,0,-40,-12,-1,"",""
269,142406548,0,0,0,0,0,0,0,0,0,177,0,0,1042,150,0,73,56,-12,-1,236,-496,1960,135,73,378,332,1,8,0,1,1,-0.2443248503884577,-0.11642670658225895,4.38342479687144,0,0,0,96,0,0,0,-40,-12,-1,"",""
270,142408046,0,0,0,0,0,0,0,0,0,177,0,0,1042,150,0,73,55,-13,0,236,-493,1959,144,73,403,330,1,8,0,1,1,-0.24291312702485693,-0.11675452717050035,4.383341689699035,0,0,0,96,0,0,0,-41,-13,0,"",""
271,142409540,0,0,0,0,0,0,0,0,0,177,0,0,1042,150,0,73,55,-13,1,236,-489,1958,134,73,393,318,1,8,0,1,1,-0.24150629759507625,-0.11707439559354067,4.383233858846953,0,0,0,96,0,0,0,-41,-13,1,"",""
272,142411029,0,0,0,0,0,0,0,0,0,177,0,0,1042,150,0,73,55,-13,1,236,-486,1957,103,73,368,315,1,8,0,1,1,-0.24010451074812483,-0.11739233466683253,4.383126818239523,0,0,0,96,0,0,0,-41,-13,1,"",""
273,142412520,0,0,0,0,0,0,0,0,0,177,0,0,1042,150,0,73,55,-12,1,237,-483,1956,97,73,351,302,1,8,0,1,1,-0.23870037514614523,-0.11768691182580518,4.38302626143867,0,0,0,96,0,0,0,-41,-12,1,"",""
274,142414095,0,0,0,0,0,0,0,0,0,177,0,0,1042,149,0,73,55,-12,1,240,-480,1957,87,73,320,294,1,8,0,1,1,-0.2372158382634038,-0.11800355573139948,4.382920558099421,0,0,0,96,0,0,0,-41,-12,1,"",""
275,142415595,0,0,0,0,0,0,0,0,0,177,0,0,1042,149,0,73,55,-11,0,243,-476,1958,84,73,293,290,1,8,0,1,1,-0.23579606129501704,-0.11829136351722236,4.382852202362065,0,0,0,96,0,0,0,-41,-11,0,"",""
276,142417100,0,0,0,0,0,0,0,0,0,177,0,0,1042,149,0,73,55,-11,-1,246,-471,1959,103,73,305,306,1,8,0,1,1,-0.234363461539692,-0.11859159676464547,4.382809992074961,0,0,0,96,0,0,0,-41,-11,-1,"",""
277,142418731,0,0,0,0,0,0,0,0,0,177,0,0,1042,149,0,73,55,-11,-2,249,-466,1960,120,73,320,316,1,8,0,1,1,-0.23280259655521737,-0.11892760919733636,4.382792872700832,0,0,0,96,0,0,0,-41,-11,-2,"",""
278,142420376,0,0,0,0,0,0,0,0,0,177,0,0,1042,149,0,73,55,-12,-1,250,-461,1961,135,73,348,325,1,8,0,1,1,-0.23122810062202817,-0.11928831422263704,4.382741558052766,0,0,0,96,0,0,0,-41,-12,-1,"",""
279,142421880,0,0,0,0,0,0,0,0,0,177,0,0,1053,149,0,73,55,-12,0,250,-456,1963,144,73,364,312,1,8,0,1,1,-0.2297861006746445,-0.11961208461187821,4.382669630262508,0,0,0,96,0,0,0,-41,-12,0,"",""
280,142423380,0,0,0,0,0,0,0,0,0,177,0,0,1053,149,0,73,55,-12,1,250,-453,1965,137,78,372,303,1,8,0,1,1,-0.22834991588233108,-0.11992742607230604,4.382572707576816,0,0,0,96,0,0,0,-41,-12,1,"",""
281,142424876,0,0,0,0,0,0,0,0,0,177,0,0,1053,149,0,73,55,-12,3,250,-450,1967,117,78,378,298,1,8,0,1,1,-0.226922595020247,-0.12022863674557371,4.382425280272725,0,0,0,96,0,0,0,-41,-12,3,"",""
282,142426371,0,0,0,0,0,0,0,0,0,177,0,0,1053,149,0,73,55,-12,3,250,-448,1969,96,78,359,286,1,8,0,1,1,-0.2254972975391769,-0.12052810010117372,4.382278307752296,0,0,0,96,0,0,0,-41,-12,3,"",""
283,142427865,0,0,0,0,0,0,0,0,0,177,0,0,1053,149,0,70,55,-11,3,251,-446,1971,78,95,332,296,1,8,0,1,1,-0.2240733152451169,-0.12080267276551722,4.382137623051831,0,0,0,96,0,0,0,-41,-11,3,"",""
284,142429365,0,0,0,0,0,0,0,0,0,177,0,0,1053,149,0,70,55,-11,2,252,-444,1973,78,99,326,311,1,8,0,1,1,-0.22264164390393368,-0.12108475865593633,4.382022411429395,0,0,0,96,0,0,0,-41,-11,2,"",""
285,142430865,0,0,0,0,0,0,0,0,0,176,0,0,1053,149,0,70,55,-10,0,253,-441,1976,78,80,313,305,1,8,0,1,1,-0.22120157423996292,-0.12135328934631874,4.381964911192591,0,0,0,95,0,0,0,-40,-10,0,"",""
286,142432367,0,0,0,0,0,0,0,0,0,176,0,0,1053,149,0,70,55,-10,-1,253,-439,1978,84,78,299,308,1,8,0,1,1,-0.2197576235282884,-0.12162631981737852,4.381933418934859,0,0,0,95,0,0,0,-40,-10,-1,"",""
287,142433858,0,0,0,0,0,0,0,0,0,175,0,0,1053,150,0,70,55,-10,-1,253,-435,1979,118,78,318,305,1,8,0,1,1,-0.21832155116541782,-0.12189623076306966,4.381902675440131,0,0,0,95,0,0,0,-40,-10,-1,"",""
288,142435356,0,0,0,0,0,0,0,0,0,174,0,0,1053,150,0,70,56,-11,-1,252,-433,1980,128,61,319,275,1,8,0,1,1,-0.2168550462203002,-0.12218934672443937,4.381866414650485,0,0,0,94,0,0,0,-38,-11,-1,"",""
289,142436854,0,0,0,0,0,0,0,0,0,174,0,0,1053,150,0,70,56,-11,1,252,-431,1981,133,61,329,263,1,8,0,1,1,-0.21539650966738866,-0.12246994821324839,4.3817790193608595,0,0,0,94,0,0,0,-38,-11,1,"",""
290,142438419,0,0,0,0,0,0,0,0,0,173,0,0,1053,150,0,70,56,-12,2,252,-430,1983,136,61,340,247,1,8,0,1,1,-0.21388056431186572,-0.12278206425835483,4.3816552136394655,0,0,0,93,0,0,0,-37,-12,2,"",""
291,142439933,0,0,0,0,0,0,0,0,0,173,0,0,1053,150,0,70,56,-12,3,253,-427,1984,124,61,336,234,1,8,0,1,1,-0.2124167811932411,-0.12307944378858664,4.381509874277174,0,0,0,93,0,0,0,-37,-12,3,"",""
292,142441429,0,0,0,0,0,0,0,0,0,173,0,0,1053,150,0,70,56,-12,3,254,-424,1985,87,61,323,244,1,8,0,1,1,-0.210969931773747,-0.12337426864272696,4.381366704876881,0,0,0,93,0,0,0,-37,-12,3,"",""
293,142442923,0,0,0,0,0,0,0,0,0,172,0,0,1053,150,0,70,56,-12,3,256,-421,1986,79,61,325,258,1,8,0,1,1,-0.2095245643129068,-0.12367172414619446,4.381224165423849,0,0,0,92,0,0,0,-36,-12,3,"",""
294,142444418,0,0,0,0,0,0,0,0,0,172,0,0,1053,150,0,70,55,-12,1,259,-417,1987,80,61,318,273,1,8,0,1,1,-0.20809536227034742,-0.12398523631114304,4.381133533398188,0,0,0,92,0,0,0,-37,-12,1,"",""
295,142445911,0,0,0,0,0,0,0,0,0,172,0,0,1053,150,0,70,55,-11,0,261,-412,1988,77,61,298,289,1,8,0,1,1,-0.2066595573267112,-0.12428120553652622,4.381074797439096,0,0,0,92,0,0,0,-37,-11,0,"",""
296,142447407,0,0,0,0,0,0,0,0,0,172,0,0,1053,150,0,70,55,-11,-1,262,-408,1989,99,61,309,300,1,8,0,1,1,-0.20521516184832508,-0.12458384350932673,4.381042250773734,0,0,0,92,0,0,0,-37,-11,-1,"",""
297,142448903,0,0,0,0,0,0,0,0,0,171,0,0,1061,150,0,70,55,-11,-2,264,-405,1989,128,61,311,287,1,8,0,1,1,-0.2037675499826785,-0.12489475608903244,4.381035889007834,0,0,0,92,0,0,0,-37,-11,-2,"",""
298,142450413,0,0,0,0,0,0,0,0,0,171,0,0,1061,150,0,70,55,-12,-2,264,-402,1989,155,75,315,282,1,8,0,1,1,-0.2023072059837116,-0.12523288402778346,4.381024557949673,0,0,0,92,0,0,0,-37,-12,-2,"",""
299,142452046,0,0,0,0,0,0,0,0,0,171,0,0,1061,150,0,68,56,-12,-1,264,-401,1990,164,75,314,268,1,8,0,1,1,-0.200708247428118,-0.12558967208376037,4.380984416173581,0,0,0,92,0,0,0,-36,-12,-1,"",""
