"Product","Blackbox flight data recorder by Nicholas Sherlock"
"firmwareType",3
"firmware","3.3"
"firmwarePatch",3
"firmwareVersion","3.3.3"
"Firmware revision","Betaflight 3.3.3 (4cb38c175) MATEKF722"
"Firmware date","Oct 22 2020 11:55:21"
"Log start datetime","0000-01-01T00:00:00.000+00:00"
"Craft name","NEUROFLIGHT"
"frameIntervalI",32
"frameIntervalPNum",1
"frameIntervalPDenom",1
"minthrottle",1070
"maxthrottle",2000
"gyroScale",1.7453292519943295e-8
"motorOutput","68,2047"
"acc_1G",2048
"vbatscale",110
"vbatmincellvoltage",33
"vbatwarningcellvoltage",35
"vbatmaxcellvoltage",43
"vbatref",153
"currentMeterOffset",0
"currentMeterScale",179
"looptime",125
"gyro_sync_denom",1
"pid_process_denom",8
"thrMid",50
"thrExpo",0
"dynThrPID",10
"tpa_breakpoint",1650
"rc_rates","100,100,100"
"rc_expo","0,0,0"
"rates","70,70,70"
"rollPID","40,40,30"
"pitchPID","58,50,35"
"yawPID","70,45,20"
"altPID","50,0,0"
"posPID","15,0,0"
"posrPID","34,14,53"
"navrPID","25,33,83"
"levelPID","50,50,75"
"magPID","40,,"
"velPID","55,55,75"
"dterm_filter_type",1
"dterm_lpf_hz",100
"yaw_lpf_hz",0
"dterm_notch_hz",260
"dterm_notch_cutoff",160
"itermWindupPointPercent",50
"vbat_pid_compensation",0
"pidAtMinThrottle",1
"anti_gravity_threshold",350
"anti_gravity_gain",1000
"setpointRelaxRatio",100
"dtermSetpointWeight",0
"yawRateAccelLimit",0.1
"rateAccelLimit",0
"pidSumLimit",500
"pidSumLimitYaw",400
"deadband",0
"yaw_deadband",0
"gyro_lpf",0
"gyro_soft_type",0
"gyro_lowpass_hz",90
"gyro_notch_hz","400,200"
"gyro_notch_cutoff","300,100"
"acc_lpf_hz",1000
"acc_hardware",0
"baro_hardware",0
"mag_hardware",0
"gyro_cal_on_first_arm",0
"rc_interpolation",2
"rc_interpolation_interval",19
"airmode_activate_throttle",32
"serialrx_provider",2
"unsynced_fast_pwm",0
"fast_pwm_protocol",7
"motor_pwm_rate",480
"digitalIdleOffset",100
"debug_mode",0
"features",263192
"loopIteration","time","axisP[0]","axisP[1]","axisP[2]","axisI[0]","axisI[1]","axisI[2]","axisD[0]","axisD[1]","axisD[2]","rcCommand[0]","rcCommand[1]","rcCommand[2]","rcCommand[3]","vbatLatest","amperageLatest","BaroAlt","gyroADC[0]","gyroADC[1]","gyroADC[2]","accSmooth[0]","accSmooth[1]","accSmooth[2]","motor[0]","motor[1]","motor[2]","motor[3]","flightModeFlags","stateFlags","failsafePhase","rxSignalReceived","rxFlightChannelsValid","heading[0]","heading[1]","heading[2]","axisSum[0]","axisSum[1]","axisSum[2]","rcCommands[0]","rcCommands[1]","rcCommands[2]","rcCommands[3]","axisError[0]","axisError[1]","axisError[2]"
0,138612363,0,0,0,0,0,0,0,0,0,0,0,0,1000,153,0,34,0,0,0,12,118,2106,68,61,62,69,"","","","","",0.0559718655427657,-0.005689021154357916,4.396484385773716,0,0,0,0,0,0,0,0,0,0,"",""
1,138613829,0,0,0,0,0,0,0,0,0,0,0,0,1000,153,0,34,0,0,0,12,118,2106,70,61,63,66,1,8,0,1,1,0.0559718655427657,-0.005689021154357915,4.396484385773716,0,0,0,0,0,0,0,0,0,0,"",""
2,138615426,0,0,0,0,0,0,0,0,0,0,0,0,1000,153,0,34,0,0,0,12,118,2106,71,61,65,67,1,8,0,1,1,0.0559718655427657,-0.005689021154357915,4.396484385773716,0,0,0,0,0,0,0,0,0,0,"",""
3,138617020,0,0,0,0,0,0,0,0,0,0,0,0,1000,153,0,34,0,0,0,12,118,2106,69,61,64,68,1,8,0,1,1,0.055971865542765696,-0.005689021154357916,4.396484385773716,0,0,0,0,0,0,0,0,0,0,"",""
4,138618458,0,0,0,0,0,0,0,0,0,0,0,0,1000,153,0,34,0,0,0,12,118,2106,70,61,65,67,1,8,0,1,1,0.05597186554276569,-0.005689021154357916,4.396484385773716,0,0,0,0,0,0,0,0,0,0,"",""
5,138619921,0,0,0,0,0,0,0,0,0,0,0,0,1000,153,0,34,0,0,0,12,118,2106,71,61,67,67,1,8,0,1,1,0.055971865542765696,-0.005689021154357915,4.396484385773716,0,0,0,0,0,0,0,0,0,0,"",""
6,138621390,0,0,0,0,0,0,0,0,0,0,0,0,1000,153,0,34,0,0,0,12,118,2106,69,61,65,66,1,8,0,1,1,0.05597186554276569,-0.005689021154357914,4.396484385773716,0,0,0,0,0,0,0,0,0,0,"",""
7,138622845,0,0,0,0,0,0,0,0,0,0,0,0,1000,153,0,34,0,0,0,12,118,2106,67,61,64,68,1,8,0,1,1,0.0559718655427657,-0.005689021154357915,4.396484385773716,0,0,0,0,0,0,0,0,0,0,"",""
8,138624296,0,0,0,0,0,0,0,0,0,0,0,0,1000,153,0,34,0,0,0,12,118,2106,69,61,66,68,1,8,0,1,1,0.0559718655427657,-0.005689021154357916,4.396484385773716,0,0,0,0,0,0,0,0,0,0,"",""
9,138625748,0,0,0,0,0,0,0,0,0,0,0,0,1000,153,0,34,0,0,0,12,117,2106,68,61,65,68,1,8,0,1,1,0.055924175135390136,-0.005689036349262795,4.396484385773716,0,0,0,0,0,0,0,0,0,0,"",""
10,138627193,0,0,0,0,0,0,0,0,0,0,0,0,1000,153,0,34,0,0,0,12,117,2106,67,61,62,68,1,8,0,1,1,0.055885155702098406,-0.0056890487718367425,4.396484385773716,0,0,0,0,0,0,0,0,0,0,"",""
11,138628660,0,0,0,0,0,0,0,0,0,0,0,0,1000,153,0,34,0,0,0,12,117,2106,67,61,62,69,1,8,0,1,1,0.055852639542870765,-0.005689059117354096,4.396484385773716,0,0,0,0,0,0,0,0,0,0,"",""
12,138630127,0,0,0,0,0,0,0,0,0,0,0,0,1000,153,0,34,0,0,0,12,117,2106,69,61,63,67,1,8,0,1,1,0.05582512592992919,-0.0056890678665362,4.396484385773716,0,0,0,0,0,0,0,0,0,0,"",""
13,138631582,0,0,0,0,0,0,0,0,0,0,0,0,1000,153,0,34,0,0,0,12,117,2106,68,61,62,68,1,8,0,1,1,0.05580154290747822,-0.005689075362383875,4.396484385773716,0,0,0,0,0,0,0,0,0,0,"",""
14,138633034,0,0,0,0,0,0,0,0,0,0,0,0,1000,153,0,34,0,0,0,12,117,2106,69,61,62,66,1,8,0,1,1,0.055781104370011436,-0.0056890818561998535,4.396484385773716,0,0,0,0,0,0,0,0,0,0,"",""
15,138634493,0,0,0,0,0,0,0,0,0,0,0,0,1000,153,0,34,0,0,0,12,117,2106,70,61,64,66,1,8,0,1,1,0.055763220735442855,-0.005689087536312165,4.396484385773716,0,0,0,0,0,0,0,0,0,0,"",""
16,138635943,0,0,0,0,0,0,0,0,0,0,0,0,1000,153,0,34,0,0,0,12,118,2106,70,61,65,68,1,8,0,1,1,0.055775658282669484,-0.005689083586152081,4.396484385773716,0,0,0,0,0,0,0,0,0,0,"",""
17,138637402,0,0,0,0,0,0,0,0,0,0,0,0,1000,153,0,34,0,0,0,12,118,2106,69,61,66,69,1,8,0,1,1,0.05578671377883753,-0.005689080074192078,4.396484385773716,0,0,0,0,0,0,0,0,0,0,"",""
18,138638862,0,0,0,0,0,0,0,0,0,0,0,0,1000,153,0,34,0,0,0,12,118,2106,70,61,66,69,1,8,0,1,1,0.05579660544470318,-0.005689076931352509,4.396484385773716,0,0,0,0,0,0,0,0,0,0,"",""
19,138640315,0,0,0,0,0,0,0,0,0,0,0,0,1000,153,0,34,0,0,0,12,118,2106,71,61,66,69,1,8,0,1,1,0.0558055078564601,-0.005689074102348789,4.396484385773716,0,0,0,0,0,0,0,0,0,0,"",""
20,138641765,0,0,0,0,0,0,0,0,0,0,0,0,1000,153,0,34,0,0,0,12,118,2106,70,61,66,70,1,8,0,1,1,0.05581356233739506,-0.005689071542411583,4.396484385773716,0,0,0,0,0,0,0,0,0,0,"",""
21,138643215,0,0,0,0,0,0,0,0,0,0,0,0,1000,153,0,34,0,0,0,12,118,2106,70,61,64,69,1,8,0,1,1,0.055820884515431546,-0.005689069214900267,4.396484385773716,0,0,0,0,0,0,0,0,0,0,"",""
22,138644667,0,0,0,0,0,0,0,0,0,0,0,0,1000,153,0,34,0,0,0,11,118,2106,70,61,63,70,1,8,0,1,1,0.05582756990912406,-0.0056680751969099856,4.396484385773716,0,0,0,0,0,0,0,0,0,0,"",""
23,138646116,0,0,0,0,0,0,0,0,0,0,0,0,1000,153,0,34,0,0,0,11,118,2106,70,61,64,69,1,8,0,1,1,0.0558336981171429,-0.005648830894158803,4.396484385773716,0,0,0,0,0,0,0,0,0,0,"",""
24,138647583,0,0,0,0,0,0,0,0,0,0,0,0,1000,153,0,34,0,0,0,11,118,2106,69,61,63,70,1,8,0,1,1,0.05583933600227495,-0.005631126339773534,4.396484385773716,0,0,0,0,0,0,0,0,0,0,"",""
25,138649051,0,0,0,0,0,0,0,0,0,0,0,0,1000,153,0,34,0,0,0,11,118,2106,69,61,63,68,1,8,0,1,1,0.055844540140649906,-0.005614783869628832,4.396484385773716,0,0,0,0,0,0,0,0,0,0,"",""
26,138650642,0,0,0,0,0,0,0,0,0,0,0,0,1000,153,0,34,0,0,0,11,118,2106,68,61,62,68,1,8,0,1,1,0.05584935872669,-0.005599652140330073,4.396484385773716,0,0,0,0,0,0,0,0,0,0,"",""
27,138652232,0,0,0,0,0,0,0,0,0,0,0,0,1000,153,0,34,0,0,0,11,118,2106,69,61,62,67,1,8,0,1,1,0.05585383306985363,-0.0055856014290625354,4.396484385773716,0,0,0,0,0,0,0,0,0,0,"",""
28,138653684,0,0,0,0,0,0,0,0,0,0,0,0,1000,153,0,34,0,0,0,11,118,2106,69,61,63,67,1,8,0,1,1,0.05585799878170576,-0.005572519905889574,4.396484385773716,0,0,0,0,0,0,0,0,0,0,"",""
29,138655138,0,0,0,0,0,0,0,0,0,0,0,0,1000,153,0,34,0,0,0,11,118,2106,70,61,63,67,1,8,0,1,1,0.05586188672557284,-0.005560310651594147,4.396484385773716,0,0,0,0,0,0,0,0,0,0,"",""
30,138656592,0,0,0,0,0,0,0,0,0,0,0,0,1000,153,0,34,0,0,0,11,118,2106,70,61,65,67,1,8,0,1,1,0.055865523782392366,-0.0055488892527145615,4.396484385773716,0,0,0,0,0,0,0,0,0,0,"",""
31,138658051,0,0,0,0,0,0,0,0,0,0,0,0,1000,153,0,34,0,0,0,11,118,2106,69,61,64,67,1,8,0,1,1,0.055868933472964837,-0.005538181847512706,4.396484385773716,0,0,0,0,0,0,0,0,0,0,"",""
32,138659499,0,0,0,0,0,0,0,0,0,0,0,0,1000,153,0,34,0,0,0,11,118,2106,68,59,64,66,1,8,0,1,1,0.055872136467068345,-0.0055281235272221065,4.396484385773716,0,0,0,0,0,0,0,0,0,0,"",""
33,138660950,0,0,0,0,0,0,0,0,0,0,0,0,1000,153,0,34,0,0,0,11,118,2106,69,59,64,65,1,8,0,1,1,0.05587515100272889,-0.005518657019429674,4.396484385773716,0,0,0,0,0,0,0,0,0,0,"",""
34,138662406,0,0,0,0,0,0,0,0,0,0,0,0,1000,153,0,34,0,0,0,11,118,2106,68,59,63,66,1,8,0,1,1,0.05587799323361539,-0.0055097315971642325,4.396484385773716,0,0,0,0,0,0,0,0,0,0,"",""
35,138663855,0,0,0,0,0,0,0,0,0,0,0,0,1000,153,0,34,0,0,0,11,118,2106,68,59,64,67,1,8,0,1,1,0.05588067751853531,-0.005501302169804242,4.396484385773716,0,0,0,0,0,0,0,0,0,0,"",""
36,138665312,0,0,0,0,0,0,0,0,0,0,0,0,1000,153,0,34,0,0,0,11,118,2106,69,59,63,65,1,8,0,1,1,0.055883216663984644,-0.0054933285214063855,4.396484385773716,0,0,0,0,0,0,0,0,0,0,"",""
37,138666770,0,0,0,0,0,0,0,0,0,0,0,0,1000,153,0,34,0,0,0,11,118,2106,68,59,63,66,1,8,0,1,1,0.05588562212840052,-0.005485774669298431,4.396484385773716,0,0,0,0,0,0,0,0,0,0,"",""
38,138668221,0,0,0,0,0,0,0,0,0,0,0,0,1000,153,0,34,0,0,0,11,118,2106,67,59,64,67,1,8,0,1,1,0.05588790419499009,-0.0054786083213504465,4.396484385773716,0,0,0,0,0,0,0,0,0,0,"",""
39,138669670,0,0,0,0,0,0,0,0,0,0,0,0,1000,153,0,34,0,0,0,11,118,2106,65,59,61,67,1,8,0,1,1,0.05589007211863491,-0.005471800414655582,4.396484385773716,0,0,0,0,0,0,0,0,0,0,"",""
40,138671121,0,0,0,0,0,0,0,0,0,0,0,0,1000,153,0,34,0,0,0,11,118,2106,65,59,59,66,1,8,0,1,1,0.05589213425129716,-0.005465324721721168,4.396484385773716,0,0,0,0,0,0,0,0,0,0,"",""
41,138672571,0,0,0,0,0,0,0,0,0,0,0,0,1000,153,0,34,0,0,0,11,118,2106,65,59,61,67,1,8,0,1,1,0.05589409814951045,-0.005459157512918412,4.396484385773716,0,0,0,0,0,0,0,0,0,0,"",""
42,138674030,0,0,0,0,0,0,0,0,0,0,0,0,1000,153,0,34,0,0,0,11,118,2106,65,59,61,67,1,8,0,1,1,0.055895970666871984,-0.005453277266032266,4.396484385773716,0,0,0,0,0,0,0,0,0,0,"",""
43,138675509,0,0,0,0,0,0,0,0,0,0,0,0,1000,153,0,34,0,0,0,11,118,2106,65,59,59,66,1,8,0,1,1,0.055897758033922,-0.005447664415418238,4.396484385773716,0,0,0,0,0,0,0,0,0,0,"",""
44,138676965,0,0,0,0,0,0,0,0,0,0,0,0,1000,153,0,34,0,0,0,11,118,2106,66,59,61,66,1,8,0,1,1,0.05589946592737265,-0.00544230113460506,4.396484385773716,0,0,0,0,0,0,0,0,0,0,"",""
45,138678418,0,0,0,0,0,0,0,0,0,0,0,0,1000,153,0,34,0,0,0,11,118,2106,67,59,62,66,1,8,0,1,1,0.05590109953030694,-0.005437171147253609,4.396484385773716,0,0,0,0,0,0,0,0,0,0,"",""
46,138679867,0,0,0,0,0,0,0,0,0,0,0,0,1000,153,0,34,0,0,0,11,118,2106,67,59,62,67,1,8,0,1,1,0.055902663584692626,-0.005432259562248781,4.396484385773716,0,0,0,0,0,0,0,0,0,0,"",""
47,138681339,0,0,0,0,0,0,0,0,0,0,0,0,1000,153,0,34,0,0,0,11,118,2106,66,59,60,65,1,8,0,1,1,0.05590416243733198,-0.005427552729404957,4.396484385773716,0,0,0,0,0,0,0,0,0,0,"",""
48,138682803,0,0,0,0,0,0,0,0,0,0,0,0,1000,153,0,34,0,0,0,11,118,2106,67,59,63,66,1,8,0,1,1,0.05590560008018492,-0.00542303811284021,4.396484385773716,0,0,0,0,0,0,0,0,0,0,"",""
49,138684275,0,0,0,0,0,0,0,0,0,0,0,0,1000,153,0,34,0,0,0,11,118,2106,68,59,64,65,1,8,0,1,1,0.05590698018585337,-0.005418704179545659,4.396484385773716,0,0,0,0,0,0,0,0,0,0,"",""
50,138685865,0,0,0,0,0,0,0,0,0,0,0,0,1000,153,0,34,0,0,0,11,118,2106,68,59,62,64,1,8,0,1,1,0.05590830613889099,-0.005414540301064339,4.396484385773716,0,0,0,0,0,0,0,0,0,0,"",""
51,138687452,0,0,0,0,0,0,0,0,0,0,0,0,1000,153,0,34,0,0,0,11,118,2106,67,59,63,65,1,8,0,1,1,0.05590958106350024,-0.0054105366665148456,4.396484385773716,0,0,0,0,0,0,0,0,0,0,"",""
52,138688902,0,0,0,0,0,0,0,0,0,0,0,0,1000,153,0,34,0,0,0,11,118,2106,67,59,63,66,1,8,0,1,1,0.05591080784809389,-0.005406684205461378,4.396484385773716,0,0,0,0,0,0,0,0,0,0,"",""
53,138690346,0,0,0,0,0,0,0,0,0,0,0,0,1000,153,0,34,0,0,0,11,119,2106,67,59,63,66,1,8,0,1,1,0.05592114733026045,-0.005402971749695438,4.396484385773716,0,0,0,0,0,0,0,0,0,0,"",""
54,138691808,0,0,0,0,0,0,0,0,0,0,0,0,1000,153,0,34,0,0,0,11,119,2106,65,59,61,67,1,8,0,1,1,0.05593111057129736,-0.005399394384973883,4.396484385773716,0,0,0,0,0,0,0,0,0,0,"",""
55,138693268,0,0,0,0,0,0,0,0,0,0,0,0,1000,153,0,34,0,0,0,11,119,2106,64,59,61,67,1,8,0,1,1,0.055940717727581545,-0.005395944874096918,4.396484385773716,0,0,0,0,0,0,0,0,0,0,"",""
56,138694723,0,0,0,0,0,0,0,0,0,0,0,0,1000,153,0,34,0,0,0,11,119,2106,65,59,60,64,1,8,0,1,1,0.055949987540966584,-0.005392616487750499,4.396484385773716,0,0,0,0,0,0,0,0,0,0,"",""
57,138696177,0,0,0,0,0,0,0,0,0,0,0,0,1000,153,0,34,0,0,0,11,119,2106,66,59,61,64,1,8,0,1,1,0.05595893746072786,-0.005389402960722051,4.396484385773716,0,0,0,0,0,0,0,0,0,0,"",""
58,138697626,0,0,0,0,0,0,0,0,0,0,0,0,1000,153,0,34,0,0,0,11,119,2106,66,59,63,66,1,8,0,1,1,0.05596758375310609,-0.005386298452568929,4.396484385773716,0,0,0,0,0,0,0,0,0,0,"",""
59,138699069,0,0,0,0,0,0,0,0,0,0,0,0,1000,153,0,34,0,0,0,11,119,2106,68,59,63,65,1,8,0,1,1,0.05597594159989629,-0.0053832975122201365,4.396484385773716,0,0,0,0,0,0,0,0,0,0,"",""
60,138700526,0,0,0,0,0,0,0,0,0,0,0,0,1000,153,0,34,0,0,0,11,119,2106,70,59,65,65,1,8,0,1,1,0.05598402518733915,-0.005380395046059893,4.396484385773716,0,0,0,0,0,0,0,0,0,0,"",""
61,138701995,0,0,0,0,0,0,0,0,0,0,0,0,1000,153,0,34,0,0,0,11,119,2106,68,59,64,69,1,8,0,1,1,0.05599184778640977,-0.005377586289099984,4.396484385773716,0,0,0,0,0,0,0,0,0,0,"",""
62,138703450,0,0,0,0,0,0,0,0,0,0,0,0,1000,153,0,34,0,0,0,11,119,2106,69,59,64,69,1,8,0,1,1,0.05599942182545974,-0.0053748667788976355,4.396484385773716,0,0,0,0,0,0,0,0,0,0,"",""
63,138704901,0,0,0,0,0,0,0,0,0,0,0,0,1000,153,0,34,0,0,0,11,119,2106,70,59,62,67,1,8,0,1,1,0.05600675895604876,-0.005372232331918658,4.396484385773716,0,0,0,0,0,0,0,0,0,0,"",""
64,138706353,0,0,0,0,0,0,0,0,0,0,0,0,1000,153,0,34,0,0,0,11,119,2106,68,56,59,63,1,8,0,1,1,0.05601387011269935,-0.005369679022082487,4.396484385773716,0,0,0,0,0,0,0,0,0,0,"",""
65,138707800,0,0,0,0,0,0,0,0,0,0,0,0,1000,153,0,34,0,0,0,11,119,2106,69,56,61,63,1,8,0,1,1,0.05602076556721925,-0.00536720316125772,4.396484385773716,0,0,0,0,0,0,0,0,0,0,"",""
66,138709252,0,0,0,0,0,0,0,0,0,0,0,0,1000,153,0,34,0,0,0,11,119,2106,69,56,61,63,1,8,0,1,1,0.05602745497815896,-0.005364801281504357,4.396484385773716,0,0,0,0,0,0,0,0,0,0,"",""
67,138710728,0,0,0,0,0,0,0,0,0,0,0,0,1000,153,0,34,0,0,0,11,119,2106,68,56,62,65,1,8,0,1,1,0.056033947435905264,-0.005362470118882935,4.396484385773716,0,0,0,0,0,0,0,0,0,0,"",""
68,138712181,0,0,0,0,0,0,0,0,0,0,0,0,1000,153,0,34,0,0,0,11,118,2106,68,56,63,66,1,8,0,1,1,0.056032995812603056,-0.005360208780290861,4.396484385773716,0,0,0,0,0,0,0,0,0,0,"",""
69,138713633,0,0,0,0,0,0,0,0,0,0,0,0,1000,153,0,34,0,0,0,11,118,2106,66,56,61,67,1,8,0,1,1,0.05603207140791521,-0.0053580121211245285,4.396484385773716,0,0,0,0,0,0,0,0,0,0,"",""
70,138715085,0,0,0,0,0,0,0,0,0,0,0,0,1000,153,0,34,0,0,0,11,118,2106,64,56,60,66,1,8,0,1,1,0.05603117307176237,-0.005355877408459859,4.396484385773716,0,0,0,0,0,0,0,0,0,0,"",""
71,138716538,0,0,0,0,0,0,0,0,0,0,0,0,1000,153,0,34,0,0,0,11,118,2106,65,56,60,64,1,8,0,1,1,0.05603029971795825,-0.005353802061201186,4.396484385773716,0,0,0,0,0,0,0,0,0,0,"",""
72,138717996,0,0,0,0,0,0,0,0,0,0,0,0,1000,153,0,34,0,0,0,11,118,2106,65,56,59,62,1,8,0,1,1,0.0560294503198334,-0.005351783639682099,4.396484385773716,0,0,0,0,0,0,0,0,0,0,"",""
73,138719592,0,0,0,0,0,0,0,0,0,0,0,0,1000,153,0,34,0,0,0,11,118,2106,63,56,58,63,1,8,0,1,1,0.05602862390621377,-0.005349819836109449,4.396484385773716,0,0,0,0,0,0,0,0,0,0,"",""
74,138721184,0,0,0,0,0,0,0,0,0,0,0,0,1000,153,0,34,0,0,0,11,118,2106,64,56,60,63,1,8,0,1,1,0.056027819557721126,-0.00534790846577184,4.396484385773716,0,0,0,0,0,0,0,0,0,0,"",""
75,138722637,0,0,0,0,0,0,0,0,0,0,0,0,1000,153,0,34,0,0,0,11,118,2106,63,56,60,64,1,8,0,1,1,0.05602703640336537,-0.0053460474589421755,4.396484385773716,0,0,0,0,0,0,0,0,0,0,"",""
76,138724090,0,0,0,0,0,0,0,0,0,0,0,0,1000,153,0,34,0,0,0,11,118,2106,63,56,58,63,1,8,0,1,1,0.05602627361740248,-0.005344234853411174,4.396484385773716,0,0,0,0,0,0,0,0,0,0,"",""
77,138725543,0,0,0,0,0,0,0,0,0,0,0,0,1000,153,0,34,0,0,0,11,118,2106,64,56,59,63,1,8,0,1,1,0.05602553041643412,-0.005342468787595235,4.396484385773716,0,0,0,0,0,0,0,0,0,0,"",""
78,138726986,0,0,0,0,0,0,0,0,0,0,0,0,1000,153,0,34,0,0,0,12,118,2106,66,56,61,63,1,8,0,1,1,0.05602480605672755,-0.005347146503719379,4.396484385773716,0,0,0,0,0,0,0,0,0,0,"",""
79,138728472,0,0,0,0,0,0,0,0,0,0,0,0,1000,153,0,34,0,0,0,12,117,2106,64,56,58,63,1,8,0,1,1,0.056017785401729234,-0.005351709005662581,4.396484385773716,0,0,0,0,0,0,0,0,0,0,"",""
80,138729931,0,0,0,0,0,0,0,0,0,0,0,0,1000,153,0,34,0,0,0,12,117,2106,64,56,60,63,1,8,0,1,1,0.05601093834401473,-0.005356158691745228,4.396484385773716,0,0,0,0,0,0,0,0,0,0,"",""
81,138731389,0,0,0,0,0,0,0,0,0,0,0,0,1000,153,0,34,0,0,0,12,117,2106,65,56,61,62,1,8,0,1,1,0.05600425853264637,-0.0053604996892749,4.396484385773716,0,0,0,0,0,0,0,0,0,0,"",""
82,138732840,0,0,0,0,0,0,0,0,0,0,0,0,1000,153,0,34,0,0,0,12,117,2106,64,56,60,63,1,8,0,1,1,0.05599773992274637,-0.005364735926658109,4.396484385773716,0,0,0,0,0,0,0,0,0,0,"",""
83,138734292,0,0,0,0,0,0,0,0,0,0,0,0,1000,153,0,34,0,0,0,12,117,2106,63,56,60,63,1,8,0,1,1,0.055991376757279554,-0.005368871145239342,4.396484385773716,0,0,0,0,0,0,0,0,0,0,"",""
84,138735742,0,0,0,0,0,0,0,0,0,0,0,0,1000,153,0,34,0,0,0,12,117,2106,64,56,61,63,1,8,0,1,1,0.05598516355012188,-0.005372908910304424,4.396484385773716,0,0,0,0,0,0,0,0,0,0,"",""
85,138737191,0,0,0,0,0,0,0,0,0,0,0,0,1000,153,0,34,0,0,0,12,117,2106,63,56,58,63,1,8,0,1,1,0.05597909507031038,-0.005376852621316226,4.396484385773716,0,0,0,0,0,0,0,0,0,0,"",""
86,138738654,0,0,0,0,0,0,0,0,0,0,0,0,1000,153,0,34,0,0,0,12,117,2106,63,56,58,63,1,8,0,1,1,0.055973166327379,-0.0053807055214444765,4.396484385773716,0,0,0,0,0,0,0,0,0,0,"",""
87,138740109,0,0,0,0,0,0,0,0,0,0,0,0,1000,153,0,34,0,0,0,11,117,2106,64,56,59,64,1,8,0,1,1,0.0559673725576945,-0.005378683919425327,4.396484385773716,0,0,0,0,0,0,0,0,0,0,"",""
88,138741560,0,0,0,0,0,0,0,0,0,0,0,0,1000,153,0,34,0,0,0,11,117,2106,65,56,59,64,1,8,0,1,1,0.055961709211713354,-0.005376707825525974,4.396484385773716,0,0,0,0,0,0,0,0,0,0,"",""
89,138743008,0,0,0,0,0,0,0,0,0,0,0,0,1000,153,0,34,0,0,0,11,117,2106,64,56,58,64,1,8,0,1,1,0.055956171942088226,-0.00537477572285453,4.396484385773716,0,0,0,0,0,0,0,0,0,0,"",""
90,138744446,0,0,0,0,0,0,0,0,0,0,0,0,1000,153,0,34,0,0,0,11,117,2106,64,56,60,64,1,8,0,1,1,0.055950756592558576,-0.0053728861611934756,4.396484385773716,0,0,0,0,0,0,0,0,0,0,"",""
91,138745893,0,0,0,0,0,0,0,0,0,0,0,0,1000,153,0,34,0,0,0,11,117,2106,65,56,61,65,1,8,0,1,1,0.05594545918756582,-0.005371037753376174,4.396484385773716,0,0,0,0,0,0,0,0,0,0,"",""
92,138747384,0,0,0,0,0,0,0,0,0,0,0,0,1000,153,0,34,0,0,0,11,117,2106,65,56,61,64,1,8,0,1,1,0.05594027592253837,-0.00536922917189714,4.396484385773716,0,0,0,0,0,0,0,0,0,0,"",""
93,138748836,0,0,0,0,0,0,0,0,0,0,0,0,1000,153,0,34,0,0,0,11,117,2106,66,56,62,65,1,8,0,1,1,0.055935203154796956,-0.00536745914573868,4.396484385773716,0,0,0,0,0,0,0,0,0,0,"",""
94,138750287,0,0,0,0,0,0,0,0,0,0,0,0,1000,153,0,34,0,0,0,11,117,2106,65,56,58,63,1,8,0,1,1,0.05593023739503404,-0.005365726457397933,4.396484385773716,0,0,0,0,0,0,0,0,0,0,"",""
95,138751739,0,0,0,0,0,0,0,0,0,0,0,0,1000,153,0,34,0,0,0,11,116,2106,65,56,59,63,1,8,0,1,1,0.05592004437889924,-0.005364031540860374,4.396484385773716,0,0,0,0,0,0,0,0,0,0,"",""
96,138753189,0,0,0,0,0,0,0,0,0,0,0,0,1000,153,0,34,0,0,0,11,116,2106,68,59,62,66,1,8,0,1,1,0.055910061959517046,-0.00536237164223153,4.396484385773716,0,0,0,0,0,0,0,0,0,0,"",""
97,138754801,0,0,0,0,0,0,0,0,0,0,0,0,1000,153,0,34,0,0,0,11,116,2106,67,59,60,65,1,8,0,1,1,0.05590028369036964,-0.005360745689605583,4.396484385773716,0,0,0,0,0,0,0,0,0,0,"",""
98,138756410,0,0,0,0,0,0,0,0,0,0,0,0,1000,153,0,34,0,0,0,11,116,2106,67,59,61,67,1,8,0,1,1,0.055890703385390414,-0.005359152654382984,4.396484385773716,0,0,0,0,0,0,0,0,0,0,"",""
99,138757867,0,0,0,0,0,0,0,0,0,0,0,0,1000,153,0,34,0,0,0,11,116,2106,67,59,63,67,1,8,0,1,1,0.05588131510594221,-0.005357591549105294,4.396484385773716,0,0,0,0,0,0,0,0,0,0,"",""
100,138759320,0,0,0,0,0,0,0,0,0,0,0,0,1000,153,0,34,0,0,0,11,116,2106,68,59,63,66,1,8,0,1,1,0.05587211314856884,-0.005356061425418637,4.396484385773716,0,0,0,0,0,0,0,0,0,0,"",""
101,138760764,0,0,0,0,0,0,0,0,0,0,0,0,1000,153,0,34,0,0,0,11,116,2106,66,59,63,67,1,8,0,1,1,0.05586309203346733,-0.005354561372156933,4.396484385773716,0,0,0,0,0,0,0,0,0,0,"",""
102,138762213,0,0,0,0,0,0,0,0,0,0,0,0,1000,153,0,34,0,0,0,11,116,2106,66,59,61,66,1,8,0,1,1,0.05585424649363146,-0.005353090513536792,4.396484385773716,0,0,0,0,0,0,0,0,0,0,"",""
103,138763670,0,0,0,0,0,0,0,0,0,0,0,0,1000,153,0,34,0,0,0,11,116,2106,67,59,61,64,1,8,0,1,1,0.05584557146462169,-0.005351648007456533,4.396484385773716,0,0,0,0,0,0,0,0,0,0,"",""
104,138765140,0,0,0,0,0,0,0,0,0,0,0,0,1000,153,0,34,0,0,0,11,116,2106,67,59,62,65,1,8,0,1,1,0.05583706207491961,-0.005350233043892406,4.396484385773716,0,0,0,0,0,0,0,0,0,0,"",""
105,138766594,0,0,0,0,0,0,0,0,0,0,0,0,1000,153,0,34,0,0,0,11,116,2106,66,59,60,66,1,8,0,1,1,0.05582871363682834,-0.005348844843385567,4.396484385773716,0,0,0,0,0,0,0,0,0,0,"",""
106,138768043,0,0,0,0,0,0,0,0,0,0,0,0,1000,153,0,34,0,0,0,11,117,2106,69,59,62,65,1,8,0,1,1,0.05582534733676227,-0.005347481213613547,4.396484385773716,0,0,0,0,0,0,0,0,0,0,"",""
107,138769488,0,0,0,0,0,0,0,0,0,0,0,0,1000,153,0,34,0,0,0,11,117,2106,67,59,61,66,1,8,0,1,1,0.05582204353766046,-0.005346142901819888,4.396484385773716,0,0,0,0,0,0,0,0,0,0,"",""
108,138770940,0,0,0,0,0,0,0,0,0,0,0,0,1000,153,0,34,0,0,0,11,117,2106,66,59,60,66,1,8,0,1,1,0.0558188005193371,-0.005344829211191457,4.396484385773716,0,0,0,0,0,0,0,0,0,0,"",""
109,138772399,0,0,0,0,0,0,0,0,0,0,0,0,1000,153,0,34,0,0,0,11,117,2106,67,59,61,65,1,8,0,1,1,0.05581561662415722,-0.005343539470253178,4.396484385773716,0,0,0,0,0,0,0,0,0,0,"",""
110,138773984,0,0,0,0,0,0,0,0,0,0,0,0,1000,153,0,34,0,0,0,11,117,2106,66,59,60,66,1,8,0,1,1,0.05581249025421928,-0.0053422730317266905,4.396484385773716,0,0,0,0,0,0,0,0,0,0,"",""
111,138775444,0,0,0,0,0,0,0,0,0,0,0,0,1000,153,0,34,0,0,0,11,117,2106,67,59,62,67,1,8,0,1,1,0.055809419868688384,-0.0053410292714501754,4.396484385773716,0,0,0,0,0,0,0,0,0,0,"",""
112,138776897,0,0,0,0,0,0,0,0,0,0,0,0,1000,153,0,34,0,0,0,11,117,2106,67,59,63,68,1,8,0,1,1,0.05580640398127141,-0.00533980758735551,4.396484385773716,0,0,0,0,0,0,0,0,0,0,"",""
113,138778349,0,0,0,0,0,0,0,0,0,0,0,0,1000,153,0,34,0,0,0,11,117,2106,68,59,63,67,1,8,0,1,1,0.055803441157824776,-0.005338607398499281,4.396484385773716,0,0,0,0,0,0,0,0,0,0,"",""
114,138779802,0,0,0,0,0,0,0,0,0,0,0,0,1000,153,0,34,0,0,0,11,117,2106,68,59,63,68,1,8,0,1,1,0.05580053001408713,-0.005337428144144323,4.396484385773716,0,0,0,0,0,0,0,0,0,0,"",""
115,138781259,0,0,0,0,0,0,0,0,0,0,0,0,1000,153,0,34,0,0,0,11,117,2106,68,59,64,69,1,8,0,1,1,0.05579766921352932,-0.005336269282888794,4.396484385773716,0,0,0,0,0,0,0,0,0,0,"",""
116,138782749,0,0,0,0,0,0,0,0,0,0,0,0,1000,153,0,34,0,0,0,11,117,2106,68,59,63,68,1,8,0,1,1,0.055794857465314596,-0.005335130291839882,4.396484385773716,0,0,0,0,0,0,0,0,0,0,"",""
117,138784206,0,0,0,0,0,0,0,0,0,0,0,0,1000,153,0,34,0,0,0,11,117,2106,68,59,62,68,1,8,0,1,1,0.05579209352236247,-0.005334010665829555,4.396484385773716,0,0,0,0,0,0,0,0,0,0,"",""
118,138785656,0,0,0,0,0,0,0,0,0,0,0,0,1000,153,0,34,0,0,0,11,117,2106,69,59,63,68,1,8,0,1,1,0.055789376179510276,-0.005332909916669827,4.396484385773716,0,0,0,0,0,0,0,0,0,0,"",""
119,138787107,0,0,0,0,0,0,0,0,0,0,0,0,1000,153,0,34,0,0,0,11,118,2106,69,59,63,67,1,8,0,1,1,0.05579105255019412,-0.0053318262777019496,4.396484385773716,0,0,0,0,0,0,0,0,0,0,"",""
120,138788566,0,0,0,0,0,0,0,0,0,0,0,0,1000,153,0,34,0,0,0,11,118,2106,68,59,64,67,1,8,0,1,1,0.0557927011205889,-0.005330760609360654,4.396484385773716,0,0,0,0,0,0,0,0,0,0,"",""
121,138790158,0,0,0,0,0,0,0,0,0,0,0,0,1000,153,0,34,0,0,0,11,118,2106,67,59,63,68,1,8,0,1,1,0.055794322574321854,-0.005329712469737182,4.396484385773716,0,0,0,0,0,0,0,0,0,0,"",""
122,138791749,0,0,0,0,0,0,0,0,0,0,0,0,1000,153,0,34,0,0,0,11,118,2106,68,59,64,66,1,8,0,1,1,0.055795917572788234,-0.005328681431293901,4.396484385773716,0,0,0,0,0,0,0,0,0,0,"",""
123,138793208,0,0,0,0,0,0,0,0,0,0,0,0,1000,153,0,34,0,0,0,11,118,2106,67,59,63,67,1,8,0,1,1,0.05579748675604777,-0.005327667080284805,4.396484385773716,0,0,0,0,0,0,0,0,0,0,"",""
124,138794657,0,0,0,0,0,0,0,0,0,0,0,0,1000,153,0,34,0,0,0,11,118,2106,67,59,61,66,1,8,0,1,1,0.05579903074367813,-0.005326669016203859,4.396484385773716,0,0,0,0,0,0,0,0,0,0,"",""
125,138796111,0,0,0,0,0,0,0,0,0,0,0,0,1000,153,0,34,0,0,0,11,118,2106,67,59,60,65,1,8,0,1,1,0.055800550135587684,-0.005325686851259585,4.396484385773716,0,0,0,0,0,0,0,0,0,0,"",""
126,138797563,0,0,0,0,0,0,0,0,0,0,0,0,1000,153,0,34,0,0,0,11,118,2106,68,59,62,64,1,8,0,1,1,0.05580204551278988,-0.005324720209874489,4.396484385773716,0,0,0,0,0,0,0,0,0,0,"",""
127,138799019,0,0,0,0,0,0,0,0,0,0,0,0,1000,153,0,34,0,0,0,11,118,2106,68,59,62,65,1,8,0,1,1,0.05580351743814139,-0.005323768728207955,4.396484385773716,0,0,0,0,0,0,0,0,0,0,"",""
128,138800472,0,0,0,0,0,0,0,0,0,0,0,0,1000,153,0,34,0,0,0,11,118,2106,68,60,64,67,1,8,0,1,1,0.055804966457045774,-0.005322832053701313,4.396484385773716,0,0,0,0,0,0,0,0,0,0,"",""
129,138801932,0,0,0,0,0,0,0,0,0,0,0,0,1000,153,0,34,0,0,0,11,118,2106,67,60,63,68,1,8,0,1,1,0.05580639309812487,-0.0053219098446439135,4.396484385773716,0,0,0,0,0,0,0,0,0,0,"",""
130,138803389,0,0,0,0,0,0,0,0,0,0,0,0,1000,153,0,34,0,0,0,11,118,2106,69,60,66,68,1,8,0,1,1,0.055807797873859255,-0.005321001769759091,4.396484385773716,0,0,0,0,0,0,0,0,0,0,"",""
131,138804838,0,0,0,0,0,0,0,0,0,0,0,0,1000,153,0,34,0,0,0,11,118,2106,68,60,64,69,1,8,0,1,1,0.05580918128119969,-0.005320107507808922,4.396484385773716,0,0,0,0,0,0,0,0,0,0,"",""
132,138806294,0,0,0,0,0,0,0,0,0,0,0,0,1000,153,0,34,0,0,0,11,118,2106,69,60,64,68,1,8,0,1,1,0.05581054380215091,-0.005319226747216827,4.396484385773716,0,0,0,0,0,0,0,0,0,0,"",""
133,138807741,0,0,0,0,0,0,0,0,0,0,0,0,1000,153,0,34,0,0,0,11,118,2106,70,60,64,67,1,8,0,1,1,0.055811885904329395,-0.005318359185707071,4.396484385773716,0,0,0,0,0,0,0,0,0,0,"",""
134,138809196,0,0,0,0,0,0,0,0,0,0,0,0,1000,153,0,34,0,0,0,11,118,2106,71,60,66,67,1,8,0,1,1,0.05581320804149619,-0.005317504529960285,4.396484385773716,0,0,0,0,0,0,0,0,0,0,"",""
135,138810665,0,0,0,0,0,0,0,0,0,0,0,0,1000,153,0,34,0,0,0,11,118,2106,69,60,64,68,1,8,0,1,1,0.055814510654066375,-0.005316662495284186,4.396484385773716,0,0,0,0,0,0,0,0,0,0,"",""
136,138812117,0,0,0,0,0,0,0,0,0,0,0,0,1000,153,0,34,0,0,0,11,118,2106,68,60,64,68,1,8,0,1,1,0.0558157941695961,-0.005315832805298714,4.396484385773716,0,0,0,0,0,0,0,0,0,0,"",""
137,138813570,0,0,0,0,0,0,0,0,0,0,0,0,1000,153,0,34,0,0,0,11,118,2106,68,60,65,70,1,8,0,1,1,0.05581705900324849,-0.005315015191634865,4.396484385773716,0,0,0,0,0,0,0,0,0,0,"",""
138,138815019,0,0,0,0,0,0,0,0,0,0,0,0,1000,153,0,34,0,0,0,11,118,2106,68,60,62,68,1,8,0,1,1,0.05581830555823947,-0.005314209393646522,4.396484385773716,0,0,0,0,0,0,0,0,0,0,"",""
139,138816472,0,0,0,0,0,0,0,0,0,0,0,0,1000,153,0,34,0,0,0,11,118,2106,69,60,61,67,1,8,0,1,1,0.05581953422626445,-0.005313415158134629,4.396484385773716,0,0,0,0,0,0,0,0,0,0,"",""
140,138817932,0,0,0,0,0,0,0,0,0,0,0,0,1000,153,0,34,0,0,0,10,118,2106,69,60,63,68,1,8,0,1,1,0.055820745387906844,-0.0053088629308462015,4.396484385773716,0,0,0,0,0,0,0,0,0,0,"",""
141,138819402,0,0,0,0,0,0,0,0,0,0,0,0,1000,153,0,34,0,0,0,10,118,2106,70,60,63,66,1,8,0,1,1,0.055821939413029355,-0.005304375112023686,4.396484385773716,0,0,0,0,0,0,0,0,0,0,"",""
142,138820875,0,0,0,0,0,0,0,0,0,0,0,0,1000,153,0,34,0,0,0,10,118,2105,70,60,63,66,1,8,0,1,1,0.05582332436367376,-0.005299970049216501,4.396484385773716,0,0,0,0,0,0,0,0,0,0,"",""
143,138822336,0,0,0,0,0,0,0,0,0,0,0,0,1000,153,0,34,0,0,0,10,119,2105,69,60,64,68,1,8,0,1,1,0.055828384011895424,-0.005295625329750943,4.396484385773716,0,0,0,0,0,0,0,0,0,0,"",""
144,138823927,0,0,0,0,0,0,0,0,0,0,0,0,1000,153,0,34,0,0,0,10,119,2105,70,60,64,68,1,8,0,1,1,0.05583337357372216,-0.005291340793137763,4.396484385773716,0,0,0,0,0,0,0,0,0,0,"",""
145,138825507,0,0,0,0,0,0,0,0,0,0,0,0,1000,153,0,34,0,0,0,10,119,2105,70,60,64,66,1,8,0,1,1,0.05583829448861889,-0.005287115203322308,4.396484385773716,0,0,0,0,0,0,0,0,0,0,"",""
146,138826965,0,0,0,0,0,0,0,0,0,0,0,0,1000,153,0,34,0,0,0,10,119,2105,69,60,63,67,1,8,0,1,1,0.055843148156900384,-0.005282947357867641,4.396484385773716,0,0,0,0,0,0,0,0,0,0,"",""
147,138828429,0,0,0,0,0,0,0,0,0,0,0,0,1000,153,0,34,0,0,0,10,119,2105,69,60,64,68,1,8,0,1,1,0.05584793594105315,-0.0052788360868193515,4.396484385773716,0,0,0,0,0,0,0,0,0,0,"",""
148,138829883,0,0,0,0,0,0,0,0,0,0,0,0,1000,153,0,34,0,0,0,10,119,2105,69,60,65,68,1,8,0,1,1,0.055852659167004375,-0.005274780251616052,4.396484385773716,0,0,0,0,0,0,0,0,0,0,"",""
149,138831333,0,0,0,0,0,0,0,0,0,0,0,0,1000,153,0,34,0,0,0,10,119,2105,69,60,65,68,1,8,0,1,1,0.05585731912533984,-0.005270778744043452,4.396484385773716,0,0,0,0,0,0,0,0,0,0,"",""
150,138832783,0,0,0,0,0,0,0,0,0,0,0,0,1000,153,0,34,0,0,0,10,119,2105,69,60,64,68,1,8,0,1,1,0.05586191707247379,-0.005266830485229951,4.396484385773716,0,0,0,0,0,0,0,0,0,0,"",""
151,138834224,0,0,0,0,0,0,0,0,0,0,0,0,1000,153,0,34,0,0,0,10,119,2105,68,60,63,68,1,8,0,1,1,0.05586645423177233,-0.005262934424681874,4.396484385773716,0,0,0,0,0,0,0,0,0,0,"",""
152,138835697,0,0,0,0,0,0,0,0,0,0,0,0,1000,153,0,34,0,0,0,10,119,2105,68,60,62,67,1,8,0,1,1,0.05587093179463304,-0.005259089539356522,4.396484385773716,0,0,0,0,0,0,0,0,0,0,"",""
153,138837158,0,0,0,0,0,0,0,0,0,0,0,0,1000,153,0,34,0,0,0,10,119,2105,68,60,62,67,1,8,0,1,1,0.05587535092152237,-0.005255294832771316,4.396484385773716,0,0,0,0,0,0,0,0,0,0,"",""
154,138838615,0,0,0,0,0,0,0,0,0,0,0,0,1000,153,0,34,0,0,0,10,119,2105,68,60,62,68,1,8,0,1,1,0.05587971274297301,-0.005251549334147413,4.396484385773716,0,0,0,0,0,0,0,0,0,0,"",""
155,138840068,0,0,0,0,0,0,0,0,0,0,0,0,1000,153,0,34,0,0,0,10,119,2105,69,60,63,68,1,8,0,1,1,0.05588401836054283,-0.005247852097586242,4.396484385773716,0,0,0,0,0,0,0,0,0,0,"",""
156,138841519,0,0,0,0,0,0,0,0,0,0,0,0,1000,153,0,34,0,0,0,10,119,2105,70,60,65,69,1,8,0,1,1,0.055888268847737295,-0.005244202201277502,4.396484385773716,0,0,0,0,0,0,0,0,0,0,"",""
157,138842966,0,0,0,0,0,0,0,0,0,0,0,0,1000,153,0,34,0,0,0,10,119,2105,69,60,63,69,1,8,0,1,1,0.05589246525089674,-0.005240598746737217,4.396484385773716,0,0,0,0,0,0,0,0,0,0,"",""
158,138844419,0,0,0,0,0,0,0,0,0,0,0,0,1000,153,0,34,0,0,0,10,119,2105,69,60,63,68,1,8,0,1,1,0.055896608590050294,-0.005237040858074529,4.396484385773716,0,0,0,0,0,0,0,0,0,0,"",""
159,138845896,0,0,0,0,0,0,0,0,0,0,0,0,1000,153,0,34,0,0,0,10,119,2105,69,60,65,69,1,8,0,1,1,0.05590069985973768,-0.00523352768128598,4.396484385773716,0,0,0,0,0,0,0,0,0,0,"",""
160,138847352,0,0,0,0,0,0,0,0,0,0,0,0,1000,153,0,34,0,0,0,10,119,2105,68,61,64,71,1,8,0,1,1,0.05590474002980055,-0.005230058383576079,4.396484385773716,0,0,0,0,0,0,0,0,0,0,"",""
161,138848803,0,0,0,0,0,0,0,0,0,0,0,0,1000,153,0,34,0,0,0,10,119,2105,69,61,63,68,1,8,0,1,1,0.05590873004614434,-0.005226632152703024,4.396484385773716,0,0,0,0,0,0,0,0,0,0,"",""
162,138850252,0,0,0,0,0,0,0,0,0,0,0,0,1000,153,22,34,0,0,0,11,119,2105,69,61,63,69,1,8,0,1,1,0.05591267083147233,-0.00522656669248304,4.396484385773716,0,0,0,0,0,0,0,0,0,0,"",""
163,138851704,0,0,0,0,0,0,0,0,0,0,0,0,1000,153,22,34,0,0,0,11,119,2105,70,61,64,68,1,8,0,1,1,0.055916563285992565,-0.005226502035004357,4.396484385773716,0,0,0,0,0,0,0,0,0,0,"",""
164,138853162,0,0,0,0,0,0,0,0,0,0,0,0,1000,153,22,34,0,0,0,11,119,2105,71,61,65,69,1,8,0,1,1,0.05592040828809936,-0.005226438165678909,4.396484385773716,0,0,0,0,0,0,0,0,0,0,"",""
165,138854611,0,0,0,0,0,0,0,0,0,0,0,0,1000,153,22,34,0,0,0,11,119,2105,72,61,64,67,1,8,0,1,1,0.055924206695029996,-0.005226375070269969,4.396484385773716,0,0,0,0,0,0,0,0,0,0,"",""
166,138856076,0,0,0,0,0,0,0,0,0,0,0,0,1000,153,22,34,0,0,0,11,119,2105,71,61,64,68,1,8,0,1,1,0.05592795934349791,-0.005226312734881625,4.396484385773716,0,0,0,0,0,0,0,0,0,0,"",""
167,138857669,0,0,0,0,0,0,0,0,0,0,0,0,1000,153,22,34,0,0,0,11,119,2105,71,61,66,69,1,8,0,1,1,0.05593166705030331,-0.005226251145948648,4.396484385773716,0,0,0,0,0,0,0,0,0,0,"",""
168,138859258,0,0,0,0,0,0,0,0,0,0,0,0,1000,153,22,34,0,0,0,11,119,2105,70,61,65,68,1,8,0,1,1,0.05593533061292204,-0.005226190290226714,4.396484385773716,0,0,0,0,0,0,0,0,0,0,"",""
169,138860716,0,0,0,0,0,0,0,0,0,0,0,0,1000,153,22,34,0,0,0,11,119,2105,69,61,64,68,1,8,0,1,1,0.05593895081007368,-0.005226130154782966,4.396484385773716,0,0,0,0,0,0,0,0,0,0,"",""
170,138862171,0,0,0,0,0,0,0,0,0,0,0,0,1000,153,22,34,0,0,0,11,119,2105,69,61,66,70,1,8,0,1,1,0.055942528402269834,-0.0052260707269869144,4.396484385773716,0,0,0,0,0,0,0,0,0,0,"",""
171,138863620,0,0,0,0,0,0,0,0,0,0,0,0,1000,153,22,34,0,0,0,11,119,2105,69,61,66,70,1,8,0,1,1,0.05594606413234311,-0.005226011994501653,4.396484385773716,0,0,0,0,0,0,0,0,0,0,"",""
172,138865078,0,0,0,0,0,0,0,0,0,0,0,0,1000,153,22,34,0,0,0,11,119,2105,69,61,65,69,1,8,0,1,1,0.05594955872595795,-0.005225953945275374,4.396484385773716,0,0,0,0,0,0,0,0,0,0,"",""
173,138866530,0,0,0,0,0,0,0,0,0,0,0,0,1000,153,22,34,0,0,0,11,119,2105,70,61,65,68,1,8,0,1,1,0.05595301289210375,-0.005225896567533184,4.396484385773716,0,0,0,0,0,0,0,0,0,0,"",""
174,138868014,0,0,0,0,0,0,0,0,0,0,0,0,1000,153,22,34,0,0,0,11,119,2105,68,61,64,69,1,8,0,1,1,0.05595642732357108,-0.005225839849769196,4.396484385773716,0,0,0,0,0,0,0,0,0,0,"",""
175,138869465,0,0,0,0,0,0,0,0,0,0,0,0,1000,153,22,34,0,0,0,11,119,2106,68,61,63,68,1,8,0,1,1,0.05595962900931497,-0.005225767578174677,4.396484385773716,0,0,0,0,0,0,0,0,0,0,"",""
176,138870921,0,0,0,0,0,0,0,0,0,0,0,0,1000,153,0,34,0,0,0,11,119,2106,69,61,65,69,1,8,0,1,1,0.055962794255426176,-0.00522569612907862,4.396484385773716,0,0,0,0,0,0,0,0,0,0,"",""
177,138872368,0,0,0,0,0,0,0,0,0,0,0,0,1000,153,0,34,0,0,0,11,119,2106,70,61,65,68,1,8,0,1,1,0.05596592367617031,-0.005225625488617001,4.396484385773716,0,0,0,0,0,0,0,0,0,0,"",""
178,138873977,0,0,0,0,0,0,0,0,0,0,0,0,1000,153,0,34,0,0,0,11,119,2106,70,61,67,69,1,8,0,1,1,0.05596901787208458,-0.0052255556432356355,4.396484385773716,0,0,0,0,0,0,0,0,0,0,"",""
179,138875433,0,0,0,0,0,0,0,0,0,0,0,0,1000,153,0,34,0,0,0,11,119,2106,72,61,68,68,1,8,0,1,1,0.055972077430359084,-0.005225486579681553,4.396484385773716,0,0,0,0,0,0,0,0,0,0,"",""
180,138876883,0,0,0,0,0,0,0,0,0,0,0,0,1000,153,0,34,0,0,0,11,119,2106,72,61,67,67,1,8,0,1,1,0.05597510292520565,-0.005225418284994695,4.396484385773716,0,0,0,0,0,0,0,0,0,0,"",""
181,138878335,0,0,0,0,0,0,0,0,0,0,0,0,1000,153,0,34,0,0,0,11,119,2106,71,61,67,68,1,8,0,1,1,0.055978094918214406,-0.0052253507464998595,4.396484385773716,0,0,0,0,0,0,0,0,0,0,"",""
182,138879784,0,0,0,0,0,0,0,0,0,0,0,0,1000,153,0,34,0,0,0,11,119,2106,69,61,66,69,1,8,0,1,1,0.055981053958698665,-0.005225283951798912,4.396484385773716,0,0,0,0,0,0,0,0,0,0,"",""
183,138881231,0,0,0,0,0,0,0,0,0,0,0,0,1000,153,0,34,0,0,0,11,118,2106,69,61,65,68,1,8,0,1,1,0.055980996023705584,-0.005225218762706298,4.396484385773716,0,0,0,0,0,0,0,0,0,0,"",""
184,138882699,0,0,0,0,0,0,0,0,0,0,0,0,1000,153,0,34,0,0,0,11,118,2106,69,61,65,68,1,8,0,1,1,0.055980938719970834,-0.005225154283912457,4.396484385773716,0,0,0,0,0,0,0,0,0,0,"",""
185,138884154,0,0,0,0,0,0,0,0,0,0,0,0,1000,153,0,34,0,0,0,11,118,2106,67,61,64,69,1,8,0,1,1,0.05598088203731124,-0.005225090503959153,4.396484385773716,0,0,0,0,0,0,0,0,0,0,"",""
186,138885605,0,0,0,0,0,0,0,0,0,0,0,0,1000,153,0,34,0,0,0,11,118,2106,68,61,64,69,1,8,0,1,1,0.055980825965761434,-0.005225027411633266,4.396484385773716,0,0,0,0,0,0,0,0,0,0,"",""
187,138887056,0,0,0,0,0,0,0,0,0,0,0,0,1000,153,0,34,0,0,0,11,118,2106,69,61,64,68,1,8,0,1,1,0.05598077049556813,-0.00522496499596028,4.396484385773716,0,0,0,0,0,0,0,0,0,0,"",""
188,138888497,0,0,0,0,0,0,0,0,0,0,0,0,1000,153,0,34,0,0,0,11,118,2106,67,61,63,69,1,8,0,1,1,0.05598071561718446,-0.005224903246197962,4.396484385773716,0,0,0,0,0,0,0,0,0,0,"",""
189,138889979,0,0,0,0,0,0,0,0,0,0,0,0,1000,153,0,34,0,0,0,11,118,2106,68,61,63,68,1,8,0,1,1,0.055980661321264565,-0.005224842151830258,4.396484385773716,0,0,0,0,0,0,0,0,0,0,"",""
190,138891454,0,0,0,0,0,0,0,0,0,0,0,0,1000,153,0,34,0,0,0,11,118,2106,69,61,63,67,1,8,0,1,1,0.05598060759865834,-0.00522478170256136,4.396484385773716,0,0,0,0,0,0,0,0,0,0,"",""
191,138893055,0,0,0,0,0,0,0,0,0,0,0,0,1000,153,0,34,0,0,0,11,118,2106,68,61,63,67,1,8,0,1,1,0.05598055444040632,-0.005224721888309981,4.396484385773716,0,0,0,0,0,0,0,0,0,0,"",""
192,138894646,0,0,0,0,0,0,0,0,0,0,0,0,1000,153,0,34,0,0,0,11,118,2106,68,60,63,66,1,8,0,1,1,0.055980501837734724,-0.005224662699203787,4.396484385773716,0,0,0,0,0,0,0,0,0,0,"",""
193,138896103,0,0,0,0,0,0,0,0,0,0,0,0,1000,153,0,34,0,0,0,11,118,2106,69,60,64,66,1,8,0,1,1,0.05598044978205074,-0.005224604125574019,4.396484385773716,0,0,0,0,0,0,0,0,0,0,"",""
194,138897541,0,0,0,0,0,0,0,0,0,0,0,0,1000,153,0,34,0,0,0,11,118,2106,66,60,62,68,1,8,0,1,1,0.05598039826493778,-0.005224546157950269,4.396484385773716,0,0,0,0,0,0,0,0,0,0,"",""
195,138899004,0,0,0,0,0,0,0,0,0,0,0,0,1000,153,0,34,0,0,0,11,118,2106,66,60,62,68,1,8,0,1,1,0.055980347278151085,-0.005224488787055419,4.396484385773716,0,0,0,0,0,0,0,0,0,0,"",""
196,138900467,0,0,0,0,0,0,0,0,0,0,0,0,1000,153,0,34,0,0,0,11,118,2106,66,60,61,67,1,8,0,1,1,0.055980296813613266,-0.005224432003800737,4.396484385773716,0,0,0,0,0,0,0,0,0,0,"",""
197,138901919,0,0,0,0,0,0,0,0,0,0,0,0,1000,153,0,34,0,0,0,11,118,2107,65,60,61,68,1,8,0,1,1,0.05598008971429431,-0.005224361148875566,4.396484385773716,0,0,0,0,0,0,0,0,0,0,"",""
198,138903371,0,0,0,0,0,0,0,0,0,0,0,0,1000,153,0,34,0,0,0,11,118,2107,66,60,61,66,1,8,0,1,1,0.05597988471645709,-0.005224291012930426,4.396484385773716,0,0,0,0,0,0,0,0,0,0,"",""
199,138904823,0,0,0,0,0,0,0,0,0,0,0,0,1000,153,0,34,0,0,0,11,118,2107,68,60,62,65,1,8,0,1,1,0.05597968178855676,-0.0052242215851728765,4.396484385773716,0,0,0,0,0,0,0,0,0,0,"",""
200,138906265,0,0,0,0,0,0,0,0,0,0,0,0,1000,153,0,34,0,0,0,11,118,2107,67,60,62,66,1,8,0,1,1,0.055979480899676574,-0.0052241528550253866,4.396484385773716,0,0,0,0,0,0,0,0,0,0,"",""
201,138907751,0,0,0,0,0,0,0,0,0,0,0,0,1000,153,0,34,0,0,0,11,118,2107,70,60,64,65,1,8,0,1,1,0.05597928201951245,-0.005224084812120014,4.396484385773716,0,0,0,0,0,0,0,0,0,0,"",""
202,138909211,0,0,0,0,0,0,0,0,0,0,0,0,1000,153,0,34,0,0,0,11,118,2107,69,60,63,66,1,8,0,1,1,0.05597908511835779,-0.005224017446293236,4.396484385773716,0,0,0,0,0,0,0,0,0,0,"",""
203,138910661,0,0,0,0,0,0,0,0,0,0,0,0,1000,153,0,34,0,0,0,11,118,2107,69,60,64,68,1,8,0,1,1,0.05597889016708878,-0.005223950747580945,4.396484385773716,0,0,0,0,0,0,0,0,0,0,"",""
204,138912114,0,0,0,0,0,0,0,0,0,0,0,0,1000,153,0,34,0,0,0,11,118,2107,68,60,62,67,1,8,0,1,1,0.055978697137150334,-0.0052238847062135675,4.396484385773716,0,0,0,0,0,0,0,0,0,0,"",""
205,138913568,0,0,0,0,0,0,0,0,0,0,0,0,1000,153,0,34,0,0,0,11,118,2107,69,60,63,67,1,8,0,1,1,0.055978506000542085,-0.005223819312611355,4.396484385773716,0,0,0,0,0,0,0,0,0,0,"",""
206,138915027,0,0,0,0,0,0,0,0,0,0,0,0,1000,153,0,34,0,0,0,11,119,2107,69,60,63,67,1,8,0,1,1,0.055981018059238226,-0.005223753766634376,4.396484385773716,0,0,0,0,0,0,0,0,0,0,"",""
207,138916476,0,0,0,0,0,0,0,0,0,0,0,0,1000,153,0,34,0,0,0,11,119,2107,68,60,62,66,1,8,0,1,1,0.05598350571020526,-0.00522368885748437,4.396484385773716,0,0,0,0,0,0,0,0,0,0,"",""
208,138917940,0,0,0,0,0,0,0,0,0,0,0,0,1000,153,0,34,0,0,0,11,119,2107,68,60,62,66,1,8,0,1,1,0.05598596930405041,-0.005223624576014048,4.396484385773716,0,0,0,0,0,0,0,0,0,0,"",""
209,138919397,0,0,0,0,0,0,0,0,0,0,0,0,1000,153,0,34,0,0,0,11,119,2107,68,60,63,66,1,8,0,1,1,0.05598840918469841,-0.005223560913250457,4.396484385773716,0,0,0,0,0,0,0,0,0,0,"",""
210,138920848,0,0,0,0,0,0,0,0,0,0,0,0,1000,153,0,34,0,0,0,11,119,2107,68,60,63,66,1,8,0,1,1,0.055990825689550015,-0.005223497860390844,4.396484385773716,0,0,0,0,0,0,0,0,0,0,"",""
211,138922299,0,0,0,0,0,0,0,0,0,0,0,0,1000,153,0,34,0,0,0,11,119,2107,67,60,63,67,1,8,0,1,1,0.05599321914963592,-0.005223435408798645,4.396484385773716,0,0,0,0,0,0,0,0,0,0,"",""
212,138923759,0,0,0,0,0,0,0,0,0,0,0,0,1000,153,0,34,0,0,0,11,119,2107,69,60,63,66,1,8,0,1,1,0.055995589889766384,-0.005223373549999575,4.396484385773716,0,0,0,0,0,0,0,0,0,0,"",""
213,138925212,0,0,0,0,0,0,0,0,0,0,0,0,1000,153,0,34,0,0,0,11,119,2107,68,60,62,67,1,8,0,1,1,0.05599793822867672,-0.005223312275677837,4.396484385773716,0,0,0,0,0,0,0,0,0,0,"",""
214,138926671,0,0,0,0,0,0,0,0,0,0,0,0,1000,153,0,34,0,0,0,11,119,2107,67,60,62,68,1,8,0,1,1,0.056000264479168595,-0.005223251577672436,4.396484385773716,0,0,0,0,0,0,0,0,0,0,"",""
215,138928267,0,0,0,0,0,0,0,0,0,0,0,0,1000,153,0,34,0,0,0,11,119,2108,69,60,64,68,1,8,0,1,1,0.05600242279559294,-0.005223177831255409,4.396484385773716,0,0,0,0,0,0,0,0,0,0,"",""
216,138929859,0,0,0,0,0,0,0,0,0,0,0,0,1000,153,0,34,0,0,0,11,119,2108,70,60,64,67,1,8,0,1,1,0.056004560983146705,-0.005223104772587483,4.396484385773716,0,0,0,0,0,0,0,0,0,0,"",""
217,138931314,0,0,0,0,0,0,0,0,0,0,0,0,1000,153,0,34,0,0,0,11,119,2108,70,60,65,68,1,8,0,1,1,0.05600667931918781,-0.005223032392192426,4.396484385773716,0,0,0,0,0,0,0,0,0,0,"",""
218,138932766,0,0,0,0,0,0,0,0,0,0,0,0,1000,153,0,34,0,0,0,11,119,2108,70,60,66,70,1,8,0,1,1,0.05600877807600241,-0.005222960680767282,4.396484385773716,0,0,0,0,0,0,0,0,0,0,"",""
219,138934220,0,0,0,0,0,0,0,0,0,0,0,0,1000,153,0,34,0,0,0,11,119,2108,71,60,65,67,1,8,0,1,1,0.05601085752092024,-0.005222889629178426,4.396484385773716,0,0,0,0,0,0,0,0,0,0,"",""
220,138935682,0,0,0,0,0,0,0,0,0,0,0,0,1000,153,0,34,0,0,0,11,119,2108,71,60,65,67,1,8,0,1,1,0.05601291791642694,-0.005222819228457737,4.396484385773716,0,0,0,0,0,0,0,0,0,0,"",""
221,138937138,0,0,0,0,0,0,0,0,0,0,0,0,1000,153,0,34,0,0,0,11,119,2108,70,60,66,69,1,8,0,1,1,0.05601495952027323,-0.005222749469798857,4.396484385773716,0,0,0,0,0,0,0,0,0,0,"",""
222,138938594,0,0,0,0,0,0,0,0,0,0,0,0,1000,153,0,34,0,0,0,11,119,2108,70,60,64,68,1,8,0,1,1,0.056016982585581285,-0.005222680344553571,4.396484385773716,0,0,0,0,0,0,0,0,0,0,"",""
223,138940048,0,0,0,0,0,0,0,0,0,0,0,0,1000,153,0,34,0,0,0,11,119,2108,70,60,64,66,1,8,0,1,1,0.05601898736094809,-0.005222611844228255,4.396484385773716,0,0,0,0,0,0,0,0,0,0,"",""
224,138941499,0,0,0,0,0,0,0,0,0,0,0,0,1000,153,0,34,0,0,0,11,118,2108,68,58,62,64,1,8,0,1,1,0.05601845380134934,-0.005222544698588841,4.396484385773716,0,0,0,0,0,0,0,0,0,0,"",""
225,138942950,0,0,0,0,0,0,0,0,0,0,0,0,1000,153,0,34,0,0,0,11,118,2108,66,58,61,66,1,8,0,1,1,0.05601792502359175,-0.0052224781547172095,4.396484385773716,0,0,0,0,0,0,0,0,0,0,"",""
226,138944401,0,0,0,0,0,0,0,0,0,0,0,0,1000,153,0,34,0,0,0,11,118,2108,66,58,61,66,1,8,0,1,1,0.056017400964402164,-0.005222412204650803,4.396484385773716,0,0,0,0,0,0,0,0,0,0,"",""
227,138945858,0,0,0,0,0,0,0,0,0,0,0,0,1000,153,0,34,0,0,0,11,118,2108,66,58,61,66,1,8,0,1,1,0.056016881561618624,-0.005222346840566915,4.396484385773716,0,0,0,0,0,0,0,0,0,0,"",""
228,138947308,0,0,0,0,0,0,0,0,0,0,0,0,1000,153,0,34,0,0,0,11,118,2108,66,58,62,67,1,8,0,1,1,0.056016366754166165,-0.005222282054779622,4.396484385773716,0,0,0,0,0,0,0,0,0,0,"",""
229,138948759,0,0,0,0,0,0,0,0,0,0,0,0,1000,153,0,34,0,0,0,11,118,2107,66,58,62,67,1,8,0,1,1,0.056015995271182006,-0.005222230764930079,4.396484385773716,0,0,0,0,0,0,0,0,0,0,"",""
230,138950210,0,0,0,0,0,0,0,0,0,0,0,0,1000,153,0,34,0,0,0,11,118,2107,66,58,61,67,1,8,0,1,1,0.05601562704520718,-0.005222179924768008,4.396484385773716,0,0,0,0,0,0,0,0,0,0,"",""
231,138951660,0,0,0,0,0,0,0,0,0,0,0,0,1000,153,0,34,0,0,0,11,118,2107,65,58,60,67,1,8,0,1,1,0.05601526203409837,-0.005222129528474793,4.396484385773716,0,0,0,0,0,0,0,0,0,0,"",""
232,138953107,0,0,0,0,0,0,0,0,0,0,0,0,1000,153,0,34,0,0,0,11,118,2107,66,58,61,66,1,8,0,1,1,0.05601490019643614,-0.005222079570331761,4.396484385773716,0,0,0,0,0,0,0,0,0,0,"",""
233,138954577,0,0,0,0,0,0,0,0,0,0,0,0,1000,153,0,34,0,0,0,11,118,2107,65,58,61,67,1,8,0,1,1,0.05601454149150937,-0.005222030044718035,4.396484385773716,0,0,0,0,0,0,0,0,0,0,"",""
234,138956034,0,0,0,0,0,0,0,0,0,0,0,0,1000,153,0,34,0,0,0,11,118,2107,64,58,59,66,1,8,0,1,1,0.05601418587930027,-0.0052219809461084635,4.396484385773716,0,0,0,0,0,0,0,0,0,0,"",""
235,138957543,0,0,0,0,0,0,0,0,0,0,0,0,1000,153,0,34,0,0,0,12,118,2107,67,58,60,63,1,8,0,1,1,0.05601383332046965,-0.00522435943608026,4.396484385773716,0,0,0,0,0,0,0,0,0,0,"",""
236,138958994,0,0,0,0,0,0,0,0,0,0,0,0,1000,153,0,34,0,0,0,12,118,2107,67,58,60,63,1,8,0,1,1,0.05601348377634254,-0.005226717587707737,4.396484385773716,0,0,0,0,0,0,0,0,0,0,"",""
237,138960470,0,0,0,0,0,0,0,0,0,0,0,0,1000,153,0,34,0,0,0,12,118,2107,66,58,60,65,1,8,0,1,1,0.05601313720889432,-0.005229055657520356,4.396484385773716,0,0,0,0,0,0,0,0,0,0,"",""
238,138962084,0,0,0,0,0,0,0,0,0,0,0,0,1000,153,0,34,0,0,0,12,118,2107,66,58,59,64,1,8,0,1,1,0.05601279358073705,-0.00523137389775216,4.396484385773716,0,0,0,0,0,0,0,0,0,0,"",""
239,138963686,0,0,0,0,0,0,0,0,0,0,0,0,1000,153,0,34,0,0,0,12,118,2107,67,58,61,65,1,8,0,1,1,0.05601245285510621,-0.0052336725564313055,4.396484385773716,0,0,0,0,0,0,0,0,0,0,"",""
240,138965145,0,0,0,0,0,0,0,0,0,0,0,0,1000,153,0,34,0,0,0,12,118,2107,65,58,61,67,1,8,0,1,1,0.0560121149958478,-0.005235951877467369,4.396484385773716,0,0,0,0,0,0,0,0,0,0,"",""
241,138966596,0,0,0,0,0,0,0,0,0,0,0,0,1000,153,0,34,0,0,0,12,118,2107,66,58,60,65,1,8,0,1,1,0.05601177996740563,-0.005238212100736476,4.396484385773716,0,0,0,0,0,0,0,0,0,0,"",""
242,138968049,0,0,0,0,0,0,0,0,0,0,0,0,1000,153,0,34,0,0,0,12,118,2107,67,58,61,65,1,8,0,1,1,0.05601144773480911,-0.0052404534621643475,4.396484385773716,0,0,0,0,0,0,0,0,0,0,"",""
243,138969489,0,0,0,0,0,0,0,0,0,0,0,0,1000,153,0,34,0,0,0,12,118,2107,66,58,62,66,1,8,0,1,1,0.05601111826366118,-0.005242676193807274,4.396484385773716,0,0,0,0,0,0,0,0,0,0,"",""
244,138970947,0,0,0,0,0,0,0,0,0,0,0,0,1000,153,0,34,0,0,0,12,118,2107,68,58,63,65,1,8,0,1,1,0.056010791520126633,-0.00524488052393114,4.396484385773716,0,0,0,0,0,0,0,0,0,0,"",""
245,138972442,0,0,0,0,0,0,0,0,0,0,0,0,1000,153,0,34,0,0,0,12,118,2107,69,58,62,64,1,8,0,1,1,0.05601046747092066,-0.005247066677088489,4.396484385773716,0,0,0,0,0,0,0,0,0,0,"",""
246,138973899,0,0,0,0,0,0,0,0,0,0,0,0,1000,153,0,34,0,0,0,12,118,2107,67,58,60,64,1,8,0,1,1,0.05601014608329775,-0.005249234874193741,4.396484385773716,0,0,0,0,0,0,0,0,0,0,"",""
247,138975352,0,0,0,0,0,0,0,0,0,0,0,0,1000,153,0,34,0,0,0,12,118,2107,67,58,61,65,1,8,0,1,1,0.056009827325040756,-0.005251385332596563,4.396484385773716,0,0,0,0,0,0,0,0,0,0,"",""
248,138976802,0,0,0,0,0,0,0,0,0,0,0,0,1000,153,0,34,0,0,0,12,118,2107,66,58,59,64,1,8,0,1,1,0.056009511164450305,-0.0052535182661535,4.396484385773716,0,0,0,0,0,0,0,0,0,0,"",""
249,138978247,0,0,0,0,0,0,0,0,0,0,0,0,1000,153,0,34,0,0,0,12,118,2107,66,58,60,65,1,8,0,1,1,0.05600919757033446,-0.005255633885297861,4.396484385773716,0,0,0,0,0,0,0,0,0,0,"",""
250,138979699,0,0,0,0,0,0,0,0,0,0,0,0,1000,153,0,34,0,0,0,12,118,2107,66,58,60,66,1,8,0,1,1,0.05600888651199858,-0.0052577323971079466,4.396484385773716,0,0,0,0,0,0,0,0,0,0,"",""
251,138981199,0,0,0,0,0,0,0,0,0,0,0,0,1000,153,0,34,0,0,0,12,118,2107,66,58,61,66,1,8,0,1,1,0.056008577959235445,-0.005259814005373654,4.396484385773716,0,0,0,0,0,0,0,0,0,0,"",""
252,138982654,0,0,0,0,0,0,0,0,0,0,0,0,1000,153,0,34,0,0,0,12,118,2107,66,58,62,67,1,8,0,1,1,0.056008271882315636,-0.005261878910661485,4.396484385773716,0,0,0,0,0,0,0,0,0,0,"",""
253,138984106,0,0,0,0,0,0,0,0,0,0,0,0,1000,153,0,34,0,0,0,12,118,2107,67,58,61,66,1,8,0,1,1,0.05600796825197811,-0.005263927310378042,4.396484385773716,0,0,0,0,0,0,0,0,0,0,"",""
254,138985554,0,0,0,0,0,0,0,0,0,0,0,0,1000,153,0,34,0,0,0,12,118,2106,66,58,61,65,1,8,0,1,1,0.056007794651624185,-0.005265971384431465,4.396484385773716,0,0,0,0,0,0,0,0,0,0,"",""
255,138987010,0,0,0,0,0,0,0,0,0,0,0,0,1000,153,0,34,0,0,0,12,118,2106,65,58,61,67,1,8,0,1,1,0.056007622427608865,-0.005267999252609836,4.396484385773716,0,0,0,0,0,0,0,0,0,0,"",""
256,138988457,0,0,0,0,0,0,0,0,0,0,0,0,1000,153,0,34,0,0,0,12,118,2106,68,61,63,69,1,8,0,1,1,0.05600745156386496,-0.005270011104099283,4.396484385773716,0,0,0,0,0,0,0,0,0,0,"",""
257,138989945,0,0,0,0,0,0,0,0,0,0,0,0,1000,153,0,34,0,0,0,11,118,2106,70,61,65,68,1,8,0,1,1,0.05600728204457429,-0.005269748788845043,4.396484385773716,0,0,0,0,0,0,0,0,0,0,"",""
258,138991397,0,0,0,0,0,0,0,0,0,0,0,0,1000,153,0,34,0,0,0,11,118,2106,69,61,64,69,1,8,0,1,1,0.056007113854162946,-0.0052694885299064635,4.396484385773716,0,0,0,0,0,0,0,0,0,0,"",""
259,138992849,0,0,0,0,0,0,0,0,0,0,0,0,1000,153,0,34,0,0,0,11,118,2106,69,61,64,69,1,8,0,1,1,0.0560069469772966,-0.005269230303555103,4.396484385773716,0,0,0,0,0,0,0,0,0,0,"",""
260,138994300,0,0,0,0,0,0,0,0,0,0,0,0,1000,153,0,34,0,0,0,11,118,2106,72,61,64,66,1,8,0,1,1,0.05600678139887586,-0.005268974086426119,4.396484385773716,0,0,0,0,0,0,0,0,0,0,"",""
261,138995764,0,0,0,0,0,0,0,0,0,0,0,0,1000,153,0,34,0,0,0,11,118,2106,71,61,65,67,1,8,0,1,1,0.05600661710403185,-0.005268719855511324,4.396484385773716,0,0,0,0,0,0,0,0,0,0,"",""
262,138997356,0,0,0,0,0,0,0,0,0,0,0,0,1000,153,0,34,0,0,0,11,118,2106,69,61,65,68,1,8,0,1,1,0.056006454078121805,-0.005268467588152409,4.396484385773716,0,0,0,0,0,0,0,0,0,0,"",""
263,138998947,0,0,0,0,0,0,0,0,0,0,0,0,1000,153,0,34,0,0,0,11,118,2106,69,61,66,69,1,8,0,1,1,0.05600629230672477,-0.005268217262034324,4.396484385773716,0,0,0,0,0,0,0,0,0,0,"",""
264,139000406,0,0,0,0,0,0,0,0,0,0,0,0,1000,153,0,34,0,0,0,11,118,2106,69,61,66,69,1,8,0,1,1,0.05600613177563743,-0.005267968855178793,4.396484385773716,0,0,0,0,0,0,0,0,0,0,"",""
265,139001861,0,0,0,0,0,0,0,0,0,0,0,0,1000,153,0,34,0,0,0,11,118,2106,68,61,66,71,1,8,0,1,1,0.056005972470870025,-0.005267722345937987,4.396484385773716,0,0,0,0,0,0,0,0,0,0,"",""
266,139003313,0,0,0,0,0,0,0,0,0,0,0,0,1000,153,0,34,0,0,0,11,118,2106,67,61,62,69,1,8,0,1,1,0.05600581437864236,-0.00526747771298834,4.396484385773716,0,0,0,0,0,0,0,0,0,0,"",""
267,139004764,0,0,0,0,0,0,0,0,0,0,0,0,1000,153,0,34,0,0,0,11,118,2106,70,61,65,69,1,8,0,1,1,0.05600565748537986,-0.005267234935324497,4.396484385773716,0,0,0,0,0,0,0,0,0,0,"",""
268,139006213,0,0,0,0,0,0,0,0,0,0,0,0,1000,153,0,34,0,0,0,11,118,2106,71,61,65,68,1,8,0,1,1,0.05600550177770977,-0.0052669939922534,4.396484385773716,0,0,0,0,0,0,0,0,0,0,"",""
269,139007669,0,0,0,0,0,0,0,0,0,0,0,0,1000,153,0,34,0,0,0,11,118,2106,70,61,64,68,1,8,0,1,1,0.05600534724245743,-0.0052667548633885015,4.396484385773716,0,0,0,0,0,0,0,0,0,0,"",""
270,139009193,0,0,0,0,0,0,0,0,0,0,0,0,1000,153,0,34,0,0,0,11,118,2106,71,61,67,69,1,8,0,1,1,0.056005193866642634,-0.005266517528644125,4.396484385773716,0,0,0,0,0,0,0,0,0,0,"",""
271,139010646,0,0,0,0,0,0,0,0,0,0,0,0,1000,153,0,34,0,0,0,11,118,2106,72,61,67,69,1,8,0,1,1,0.056005041637475966,-0.005266281968229915,4.396484385773716,0,0,0,0,0,0,0,0,0,0,"",""
272,139012097,0,0,0,0,0,0,0,0,0,0,0,0,1000,153,0,34,0,0,0,11,118,2106,71,61,65,67,1,8,0,1,1,0.056004890542355426,-0.005266048162645439,4.396484385773716,0,0,0,0,0,0,0,0,0,0,"",""
273,139013549,0,0,0,0,0,0,0,0,0,0,0,0,1000,153,0,34,0,0,0,11,118,2106,71,61,64,67,1,8,0,1,1,0.05600474056886292,-0.0052658160926749,4.396484385773716,0,0,0,0,0,0,0,0,0,0,"",""
274,139015000,0,0,0,0,0,0,0,0,0,0,0,0,1000,153,0,34,0,0,0,11,118,2105,70,61,65,67,1,8,0,1,1,0.05600471187097478,-0.005265597025459045,4.396484385773716,0,0,0,0,0,0,0,0,0,0,"",""
275,139016455,0,0,0,0,0,0,0,0,0,0,0,0,1000,153,0,34,0,0,0,11,118,2105,70,61,64,67,1,8,0,1,1,0.05600468338450735,-0.00526537957213656,4.396484385773716,0,0,0,0,0,0,0,0,0,0,"",""
276,139017912,0,0,0,0,0,0,0,0,0,0,0,0,1000,153,0,34,0,0,0,11,118,2105,71,61,66,67,1,8,0,1,1,0.05600465510717192,-0.005265163715236493,4.396484385773716,0,0,0,0,0,0,0,0,0,0,"",""
277,139019369,0,0,0,0,0,0,0,0,0,0,0,0,1000,153,0,34,0,0,0,11,118,2105,69,61,66,69,1,8,0,1,1,0.056004627036712704,-0.005264949437539086,4.396484385773716,0,0,0,0,0,0,0,0,0,0,"",""
278,139020820,0,0,0,0,0,0,0,0,0,0,0,0,1000,153,0,34,0,0,0,11,118,2105,69,61,65,70,1,8,0,1,1,0.056004599170906215,-0.005264736722071276,4.396484385773716,0,0,0,0,0,0,0,0,0,0,"",""
279,139022274,0,0,0,0,0,0,0,0,0,0,0,0,1000,153,0,34,0,0,0,11,118,2105,70,61,63,68,1,8,0,1,1,0.05600457150756072,-0.0052645255521022866,4.396484385773716,0,0,0,0,0,0,0,0,0,0,"",""
280,139023720,0,0,0,0,0,0,0,0,0,0,0,0,1000,153,0,34,0,0,0,11,118,2105,70,61,63,69,1,8,0,1,1,0.05600454404451565,-0.005264315911139322,4.396484385773716,0,0,0,0,0,0,0,0,0,0,"",""
281,139025176,0,0,0,0,0,0,0,0,0,0,0,0,1000,153,0,34,0,0,0,11,118,2105,70,61,64,70,1,8,0,1,1,0.05600451677964108,-0.0052641077829233595,4.396484385773716,0,0,0,0,0,0,0,0,0,0,"",""
282,139026642,0,0,0,0,0,0,0,0,0,0,0,0,1000,153,0,34,0,0,0,11,118,2105,72,61,66,69,1,8,0,1,1,0.05600448971083713,-0.005263901151425006,4.396484385773716,0,0,0,0,0,0,0,0,0,0,"",""
283,139028098,0,0,0,0,0,0,0,0,0,0,0,0,1000,153,0,34,0,0,0,11,118,2105,72,61,66,69,1,8,0,1,1,0.05600446283603349,-0.005263696000840469,4.396484385773716,0,0,0,0,0,0,0,0,0,0,"",""
284,139029552,0,0,0,0,0,0,0,0,0,0,0,0,1000,153,0,34,0,0,0,11,118,2105,70,61,65,69,1,8,0,1,1,0.05600443615318893,-0.005263492315587604,4.396484385773716,0,0,0,0,0,0,0,0,0,0,"",""
285,139031012,0,0,0,0,0,0,0,0,0,0,0,0,1000,153,0,34,0,0,0,11,118,2105,69,61,64,69,1,8,0,1,1,0.05600440966029068,-0.005263290080302028,4.396484385773716,0,0,0,0,0,0,0,0,0,0,"",""
286,139032595,0,0,0,0,0,0,0,0,0,0,0,0,1000,153,0,34,0,0,0,11,118,2105,69,61,63,68,1,8,0,1,1,0.05600438335535403,-0.005263089279833349,4.396484385773716,0,0,0,0,0,0,0,0,0,0,"",""
287,139034192,0,0,0,0,0,0,0,0,0,0,0,0,1000,153,0,34,0,0,0,11,118,2105,68,61,64,68,1,8,0,1,1,0.05600435723642183,-0.00526288989924143,4.396484385773716,0,0,0,0,0,0,0,0,0,0,"",""
288,139035662,0,0,0,0,0,0,0,0,0,0,0,0,1000,153,0,34,0,0,0,11,118,2105,68,62,64,70,1,8,0,1,1,0.05600433130156397,-0.005262691923792772,4.396484385773716,0,0,0,0,0,0,0,0,0,0,"",""
289,139037120,0,0,0,0,0,0,0,0,0,0,0,0,1000,153,0,34,0,0,0,11,118,2105,70,62,66,69,1,8,0,1,1,0.05600430554887698,-0.005262495338956948,4.396484385773716,0,0,0,0,0,0,0,0,0,0,"",""
290,139038571,0,0,0,0,0,0,0,0,0,0,0,0,1000,153,0,34,0,0,0,11,118,2105,71,62,67,69,1,8,0,1,1,0.05600427997648349,-0.005262300130403112,4.396484385773716,0,0,0,0,0,0,0,0,0,0,"",""
291,139040022,0,0,0,0,0,0,0,0,0,0,0,0,1000,153,0,34,0,0,0,11,118,2105,72,62,69,71,1,8,0,1,1,0.05600425458253186,-0.005262106283996587,4.396484385773716,0,0,0,0,0,0,0,0,0,0,"",""
292,139041458,0,0,0,0,0,0,0,0,0,0,0,0,1000,153,0,34,0,0,0,11,118,2105,73,62,69,70,1,8,0,1,1,0.0560042293651957,-0.005261913785795526,4.396484385773716,0,0,0,0,0,0,0,0,0,0,"",""
293,139042971,0,0,0,0,0,0,0,0,0,0,0,0,1000,153,0,34,0,0,0,11,118,2105,72,62,69,71,1,8,0,1,1,0.056004204322673445,-0.00526172262204762,4.396484385773716,0,0,0,0,0,0,0,0,0,0,"",""
294,139044464,0,0,0,0,0,0,0,0,0,0,0,0,1000,153,0,34,0,0,0,10,118,2105,70,62,67,73,1,8,0,1,1,0.05600417945318797,-0.00525950057622331,4.396484385773716,0,0,0,0,0,0,0,0,0,0,"",""
295,139045919,0,0,0,0,0,0,0,0,0,0,0,0,1000,153,0,34,0,0,0,10,118,2105,69,62,65,72,1,8,0,1,1,0.056004154754986095,-0.005257293834244425,4.396484385773716,0,0,0,0,0,0,0,0,0,0,"",""
296,139047372,0,0,0,0,0,0,0,0,0,0,0,0,1000,153,0,34,0,0,0,10,118,2105,69,62,64,70,1,8,0,1,1,0.05600413022633828,-0.005255102241579216,4.396484385773716,0,0,0,0,0,0,0,0,0,0,"",""
297,139048819,0,0,0,0,0,0,0,0,0,0,0,0,1000,153,0,34,0,0,0,11,118,2105,69,62,63,69,1,8,0,1,1,0.05600410586553817,-0.005254942022112824,4.396484385773716,0,0,0,0,0,0,0,0,0,0,"",""
298,139050264,0,0,0,0,0,0,0,0,0,0,0,0,1000,153,0,34,0,0,0,11,118,2105,70,62,64,69,1,8,0,1,1,0.05600408167090221,-0.0052547828954974726,4.396484385773716,0,0,0,0,0,0,0,0,0,0,"",""
299,139051716,0,0,0,0,0,0,0,0,0,0,0,0,1000,153,0,34,0,0,0,11,118,2105,71,62,66,69,1,8,0,1,1,0.0560040576407693,-0.005254624850808119,4.396484385773716,0,0,0,0,0,0,0,0,0,0,"",""
300,139053199,0,0,0,0,0,0,0,0,0,0,0,0,1000,153,0,34,0,0,0,10,118,2105,72,62,66,69,1,8,0,1,1,0.05600403377350038,-0.0052524670060043075,4.396484385773716,0,0,0,0,0,0,0,0,0,0,"",""
301,139054654,0,0,0,0,0,0,0,0,0,0,0,0,1000,153,0,34,0,0,0,10,118,2105,71,62,65,70,1,8,0,1,1,0.056004010067478065,-0.005250323739493107,4.396484385773716,0,0,0,0,0,0,0,0,0,0,"",""
302,139056119,0,0,0,0,0,0,0,0,0,0,0,0,1000,153,0,34,0,0,0,10,119,2105,72,62,66,70,1,8,0,1,1,0.0560059741632,-0.00524819432215981,4.396484385773716,0,0,0,0,0,0,0,0,0,0,"",""
303,139057573,0,0,0,0,0,0,0,0,0,0,0,0,1000,153,0,34,0,0,0,10,119,2105,74,62,67,70,1,8,0,1,1,0.056007925072783196,-0.00524607920080006,4.396484385773716,0,0,0,0,0,0,0,0,0,0,"",""
304,139059018,0,0,0,0,0,0,0,0,0,0,0,0,1000,153,0,34,0,0,0,10,119,2105,70,62,63,70,1,8,0,1,1,0.05600986292589494,-0.00524397823483361,4.396484385773716,0,0,0,0,0,0,0,0,0,0,"",""
305,139060484,0,0,0,0,0,0,0,0,0,0,0,0,1000,153,0,34,0,0,0,10,119,2105,71,62,64,70,1,8,0,1,1,0.056011787850508664,-0.005241891285516602,4.396484385773716,0,0,0,0,0,0,0,0,0,0,"",""
306,139061947,0,0,0,0,0,0,0,0,0,0,0,0,1000,153,0,34,0,0,0,10,119,2105,70,62,65,71,1,8,0,1,1,0.056013699972931534,-0.005239818215911673,4.396484385773716,0,0,0,0,0,0,0,0,0,0,"",""
307,139063406,0,0,0,0,0,0,0,0,0,0,0,0,1000,153,0,34,0,0,0,10,119,2105,68,62,64,71,1,8,0,1,1,0.0560155994178315,-0.005237758890858655,4.396484385773716,0,0,0,0,0,0,0,0,0,0,"",""
308,139064865,0,0,0,0,0,0,0,0,0,0,0,0,1000,153,0,34,0,0,0,10,119,2105,68,62,64,70,1,8,0,1,1,0.056017486308263746,-0.00523571317694582,4.396484385773716,0,0,0,0,0,0,0,0,0,0,"",""
309,139066453,0,0,0,0,0,0,0,0,0,0,0,0,1000,153,0,34,0,0,0,10,119,2105,69,62,65,69,1,8,0,1,1,0.05601936076569674,-0.005233680942481713,4.396484385773716,0,0,0,0,0,0,0,0,0,0,"",""
310,139068038,0,0,0,0,0,0,0,0,0,0,0,0,1000,153,0,34,0,0,0,10,119,2105,69,62,64,68,1,8,0,1,1,0.05602122291003773,-0.0052316620574674975,4.396484385773716,0,0,0,0,0,0,0,0,0,0,"",""
311,139069493,0,0,0,0,0,0,0,0,0,0,0,0,1000,153,0,34,0,0,0,10,119,2105,71,62,65,67,1,8,0,1,1,0.05602307285965769,-0.005229656393569862,4.396484385773716,0,0,0,0,0,0,0,0,0,0,"",""
312,139070950,0,0,0,0,0,0,0,0,0,0,0,0,1000,153,0,34,0,0,0,10,119,2105,70,62,66,69,1,8,0,1,1,0.05602491073141595,-0.0052276638240944095,4.396484385773716,0,0,0,0,0,0,0,0,0,0,"",""
313,139072410,0,0,0,0,0,0,0,0,0,0,0,0,1000,153,0,34,0,0,0,10,119,2105,69,62,66,70,1,8,0,1,1,0.05602673664068413,-0.005225684223959595,4.396484385773716,0,0,0,0,0,0,0,0,0,0,"",""
314,139073861,0,0,0,0,0,0,0,0,0,0,0,0,1000,153,0,34,0,0,0,10,119,2105,71,62,67,69,1,8,0,1,1,0.05602855070136985,-0.005223717469671128,4.396484385773716,0,0,0,0,0,0,0,0,0,0,"",""
315,139075313,0,0,0,0,0,0,0,0,0,0,0,0,1000,153,0,34,0,0,0,10,119,2105,71,62,68,69,1,8,0,1,1,0.056030353025939776,-0.005221763439296875,4.396484385773716,0,0,0,0,0,0,0,0,0,0,"",""
316,139076763,0,0,0,0,0,0,0,0,0,0,0,0,1000,153,0,34,0,0,0,11,119,2105,70,62,67,70,1,8,0,1,1,0.05603214372544245,-0.005221745243130094,4.396484385773716,0,0,0,0,0,0,0,0,0,0,"",""
317,139078210,0,0,0,0,0,0,0,0,0,0,0,0,1000,153,0,34,0,0,0,11,119,2104,70,62,67,69,1,8,0,1,1,0.056034030365511626,-0.0052217371669768245,4.396484385773716,0,0,0,0,0,0,0,0,0,0,"",""
318,139079662,0,0,0,0,0,0,0,0,0,0,0,0,1000,153,0,34,0,0,0,11,119,2104,71,62,67,69,1,8,0,1,1,0.056035904916656006,-0.00522172914255429,4.396484385773716,0,0,0,0,0,0,0,0,0,0,"",""
319,139081116,0,0,0,0,0,0,0,0,0,0,0,0,1000,153,0,34,0,0,0,11,119,2104,71,62,68,71,1,8,0,1,1,0.056037767492122505,-0.005221721169378067,4.396484385773716,0,0,0,0,0,0,0,0,0,0,"",""
320,139082569,0,0,0,0,0,0,0,0,0,0,0,0,1000,153,0,34,0,0,0,11,119,2104,68,60,64,69,1,8,0,1,1,0.05603961820374867,-0.005221713246969757,4.396484385773716,0,0,0,0,0,0,0,0,0,0,"",""
321,139084024,0,0,0,0,0,0,0,0,0,0,0,0,1000,153,0,34,0,0,0,11,119,2104,68,60,63,68,1,8,0,1,1,0.05604145716198454,-0.005221705374856896,4.396484385773716,0,0,0,0,0,0,0,0,0,0,"",""
322,139085495,0,0,0,0,0,0,0,0,0,0,0,0,1000,153,0,34,0,0,0,11,119,2104,68,60,63,68,1,8,0,1,1,0.05604328447591414,-0.00522169755257286,4.396484385773716,0,0,0,0,0,0,0,0,0,0,"",""
