"Product","Blackbox flight data recorder by Nicholas Sherlock"
"firmwareType",3
"firmware","3.3"
"firmwarePatch",3
"firmwareVersion","3.3.3"
"Firmware revision","Betaflight 3.3.3 (4dd6907a9) MATEKF722"
"Firmware date","Jun 11 2022 14:50:31"
"Log start datetime","0000-01-01T00:00:00.000+00:00"
"Craft name","NEUROFLIGHT"
"frameIntervalI",32
"frameIntervalPNum",1
"frameIntervalPDenom",1
"minthrottle",1070
"maxthrottle",2000
"gyroScale",1.7453292519943295e-8
"motorOutput","128,2047"
"acc_1G",2048
"vbatscale",110
"vbatmincellvoltage",33
"vbatwarningcellvoltage",35
"vbatmaxcellvoltage",43
"vbatref",151
"currentMeterOffset",0
"currentMeterScale",179
"looptime",125
"gyro_sync_denom",1
"pid_process_denom",8
"thrMid",50
"thrExpo",0
"dynThrPID",10
"tpa_breakpoint",1650
"rc_rates","100,100,100"
"rc_expo","0,0,0"
"rates","70,70,70"
"rollPID","40,40,30"
"pitchPID","58,50,35"
"yawPID","70,45,20"
"altPID","50,0,0"
"posPID","15,0,0"
"posrPID","34,14,53"
"navrPID","25,33,83"
"levelPID","50,50,75"
"magPID","40,,"
"velPID","55,55,75"
"dterm_filter_type",1
"dterm_lpf_hz",100
"yaw_lpf_hz",0
"dterm_notch_hz",260
"dterm_notch_cutoff",160
"itermWindupPointPercent",50
"vbat_pid_compensation",0
"pidAtMinThrottle",1
"anti_gravity_threshold",350
"anti_gravity_gain",1000
"setpointRelaxRatio",100
"dtermSetpointWeight",0
"yawRateAccelLimit",0.1
"rateAccelLimit",0
"pidSumLimit",500
"pidSumLimitYaw",400
"deadband",0
"yaw_deadband",0
"gyro_lpf",0
"gyro_soft_type",0
"gyro_lowpass_hz",90
"gyro_notch_hz","400,200"
"gyro_notch_cutoff","300,100"
"acc_lpf_hz",1000
"acc_hardware",0
"baro_hardware",0
"mag_hardware",0
"gyro_cal_on_first_arm",0
"rc_interpolation",2
"rc_interpolation_interval",19
"airmode_activate_throttle",32
"serialrx_provider",2
"unsynced_fast_pwm",0
"fast_pwm_protocol",7
"motor_pwm_rate",480
"digitalIdleOffset",400
"debug_mode",0
"features",263176
"loopIteration","time","axisP[0]","axisP[1]","axisP[2]","axisI[0]","axisI[1]","axisI[2]","axisD[0]","axisD[1]","axisD[2]","rcCommand[0]","rcCommand[1]","rcCommand[2]","rcCommand[3]","vbatLatest","amperageLatest","BaroAlt","gyroADC[0]","gyroADC[1]","gyroADC[2]","accSmooth[0]","accSmooth[1]","accSmooth[2]","motor[0]","motor[1]","motor[2]","motor[3]","flightModeFlags","stateFlags","failsafePhase","rxSignalReceived","rxFlightChannelsValid","heading[0]","heading[1]","heading[2]","axisSum[0]","axisSum[1]","axisSum[2]","rcCommands[0]","rcCommands[1]","rcCommands[2]","rcCommands[3]","axisError[0]","axisError[1]","axisError[2]"
0,257128516,0,0,0,0,0,0,0,0,0,9,-1,0,1000,151,0,-26,4,4,-1,-236,-58,2102,128,114,349,331,"","","","","",-0.02758576930383286,0.11176362123893412,4.396484405267597,0,0,0,3,-1,0,0,1,5,-1,"",""
1,257130026,0,0,0,0,0,0,0,0,0,9,-1,0,1000,151,0,-26,3,4,-3,-235,-57,2102,159,114,376,381,1,8,0,1,1,-0.027312980048558998,0.11158088141798647,4.396566829722751,0,0,0,3,-1,0,0,0,5,-3,"",""
2,257131526,0,0,0,0,0,0,0,0,0,9,-1,0,1000,151,0,-26,3,4,-4,-236,-56,2102,172,114,332,395,1,8,0,1,1,-0.02704232528648293,0.11171068424646297,4.396674994858043,0,0,0,3,-1,0,0,0,5,-4,"",""
3,257133009,0,0,0,0,0,0,0,0,0,9,-1,0,1000,151,0,-26,4,4,-4,-236,-55,2102,168,114,285,298,1,8,0,1,1,-0.026752447437708094,0.11180048961754274,4.396781885393592,0,0,0,3,-1,0,0,1,5,-4,"",""
4,257134346,0,0,0,0,0,0,0,0,0,9,-1,0,1000,151,0,-26,5,4,-3,-236,-56,2101,164,114,285,286,1,8,0,1,1,-0.026644666851233467,0.11187734170616756,4.396854807318567,0,0,0,3,-1,0,0,2,5,-3,"",""
5,257135689,0,0,0,0,0,0,0,0,0,9,-1,0,1000,150,0,-26,5,3,-2,-236,-57,2101,164,114,294,231,1,8,0,1,1,-0.026631717523646268,0.11192487661844767,4.396903887821454,0,0,0,3,-1,0,0,2,4,-2,"",""
6,257137050,0,0,0,0,0,0,0,0,0,9,-1,0,1000,150,0,-26,6,3,-1,-234,-59,2101,151,114,299,238,1,8,0,1,1,-0.02671921740154913,0.1118346921106837,4.396929797180655,0,0,0,3,-1,0,0,3,4,-1,"",""
7,257138407,0,0,0,0,0,0,0,0,0,9,-1,0,1000,150,0,-26,6,3,1,-232,-60,2101,142,114,319,236,1,8,0,1,1,-0.02682298942678562,0.11165842795804727,4.39690801275247,0,0,0,3,-1,0,0,3,4,1,"",""
8,257139769,0,0,0,0,0,0,0,0,0,9,-1,0,1000,150,0,-26,6,3,1,-228,-60,2101,141,114,351,267,1,8,0,1,1,-0.02688728463937644,0.11131925970274723,4.3968861400706905,0,0,0,3,-1,0,0,3,4,1,"",""
9,257141115,0,0,0,0,0,0,0,0,0,9,-1,0,1000,150,0,-26,6,3,2,-225,-59,2101,143,114,387,269,1,8,0,1,1,-0.02687559233283034,0.11091295558942023,4.396840858949717,0,0,0,3,-1,0,0,3,4,2,"",""
10,257142449,0,0,0,0,0,0,0,0,0,9,-1,0,1000,150,0,-26,5,3,2,-222,-58,2101,142,114,452,278,1,8,0,1,1,-0.02683162111630444,0.1104572604570741,4.396795948495713,0,0,0,3,-1,0,0,2,4,2,"",""
11,257143781,0,0,0,0,0,0,0,0,0,9,-1,0,1000,150,0,-26,5,3,2,-220,-57,2101,134,114,487,296,1,8,0,1,1,-0.026745146987350994,0.11000429743385617,4.396751074473019,0,0,0,3,-1,0,0,2,4,2,"",""
12,257145125,0,0,0,0,0,0,0,0,0,9,-1,0,1000,150,0,-26,4,2,2,-218,-56,2101,128,114,537,306,1,8,0,1,1,-0.026646382130018596,0.10953240053246228,4.396705136590242,0,0,0,3,-1,0,0,1,3,2,"",""
13,257146478,0,0,0,0,0,0,0,0,0,9,-1,0,1000,150,0,-26,3,2,2,-218,-54,2101,130,114,577,304,1,8,0,1,1,-0.026507377660393905,0.1091317622883068,4.396658830920776,0,0,0,3,-1,0,0,0,3,2,"",""
14,257147848,0,0,0,0,0,0,0,0,0,9,-1,0,1000,150,0,-26,2,2,1,-218,-53,2101,127,114,528,323,1,8,0,1,1,-0.026373697674107157,0.1087877614345828,4.396635964301978,0,0,0,3,-1,0,0,-1,3,1,"",""
15,257149215,0,0,0,0,0,0,0,0,0,9,-1,0,1000,150,0,-26,2,2,1,-219,-52,2100,124,114,460,308,1,8,0,1,1,-0.026224423626597354,0.10852269833470077,4.396613122767783,0,0,0,3,-1,0,0,-1,3,1,"",""
16,257150557,0,0,0,0,0,0,0,0,0,9,-1,0,1000,150,0,-26,3,2,0,-220,-52,2099,123,114,377,282,1,8,0,1,1,-0.026071771409194835,0.10832125683748081,4.396614257458444,0,0,0,3,-1,0,0,0,3,0,"",""
17,257151887,0,0,0,0,0,0,0,0,0,9,-1,0,1000,150,0,-26,3,3,-1,-221,-52,2100,118,114,294,289,1,8,0,1,1,-0.025934568021367142,0.10818928551598951,4.396639332304624,0,0,0,3,-1,0,0,0,4,-1,"",""
18,257153223,0,0,0,0,0,0,0,0,0,9,-1,0,1000,150,0,-26,4,3,-2,-220,-52,2100,132,114,270,308,1,8,0,1,1,-0.0257883690147661,0.1080493724795952,4.396687965573226,0,0,0,3,-1,0,0,1,4,-2,"",""
19,257154557,0,0,0,0,0,0,0,0,0,9,-1,0,1000,150,0,-26,4,4,-4,-219,-51,2101,152,114,279,340,1,8,0,1,1,-0.025632650026136374,0.10792127436849874,4.396783912445872,0,0,0,3,-1,0,0,1,5,-4,"",""
20,257155926,0,0,0,0,0,0,0,0,0,9,-1,0,1000,151,0,-26,5,4,-5,-218,-49,2102,170,114,276,358,1,8,0,1,1,-0.0254188868157278,0.10778620880404619,4.396906326273148,0,0,0,3,-1,0,0,2,5,-5,"",""
21,257157290,0,0,0,0,0,0,0,0,0,9,-1,0,1000,151,0,-26,5,4,-6,-217,-46,2102,187,114,287,384,1,8,0,1,1,-0.02515662324839802,0.10764510275012147,4.397052114882051,0,0,0,3,-1,0,0,2,5,-6,"",""
22,257158635,0,0,0,0,0,0,0,0,0,9,-1,0,1000,151,0,-26,5,4,-6,-215,-43,2102,198,114,304,423,1,8,0,1,1,-0.024850929170148774,0.10747750288453281,4.397195749443499,0,0,0,3,-1,0,0,2,5,-6,"",""
23,257159971,0,0,0,0,0,0,0,0,0,9,-1,0,1000,151,0,-26,5,4,-5,-213,-40,2102,200,114,352,324,1,8,0,1,1,-0.024504165244589687,0.10728777558041366,4.397314852573269,0,0,0,3,-1,0,0,2,5,-5,"",""
24,257161334,0,0,0,0,0,0,0,0,0,9,-1,0,1000,151,0,-26,5,3,-3,-210,-38,2103,196,114,390,341,1,8,0,1,1,-0.02413478022758304,0.10703730684131756,4.397387863627027,0,0,0,3,-1,0,0,2,4,-3,"",""
25,257162809,0,0,0,0,0,0,0,0,0,9,-1,0,1000,151,0,-26,5,3,0,-208,-37,2104,179,114,407,334,1,8,0,1,1,-0.023753759081111523,0.10677714974310379,4.397389219842128,0,0,0,3,-1,0,0,2,4,0,"",""
26,257164295,0,0,0,0,0,0,0,0,0,9,-1,0,1000,151,0,-26,4,2,2,-205,-37,2104,149,114,482,276,1,8,0,1,1,-0.023414948710178168,0.10646244497167455,4.397337821232955,0,0,0,3,-1,0,0,1,3,2,"",""
27,257165658,0,0,0,0,0,0,0,0,0,9,-1,0,1000,151,0,-26,4,2,4,-201,-38,2104,133,114,494,284,1,8,0,1,1,-0.0231177439009927,0.10610012717772398,4.39724285064762,0,0,0,3,-1,0,0,1,3,4,"",""
28,257167013,0,0,0,0,0,0,0,0,0,9,-1,0,1000,151,0,-26,4,2,5,-196,-39,2105,114,121,444,258,1,8,0,1,1,-0.022852112859954306,0.10567987200461405,4.397124707028053,0,0,0,3,-1,0,0,1,3,5,"",""
29,257168344,0,0,0,0,0,0,0,0,0,9,-1,0,1000,151,0,-26,4,2,5,-190,-40,2105,114,119,456,252,1,8,0,1,1,-0.02261884777357923,0.10519196405555466,4.3970086997600974,0,0,0,3,-1,0,0,1,3,5,"",""
30,257169680,0,0,0,0,0,0,0,0,0,9,-1,0,1000,151,0,-26,4,3,4,-183,-40,2106,114,138,410,268,1,8,0,1,1,-0.02239909676661597,0.10464871656566505,4.396916238549438,0,0,0,3,-1,0,0,1,4,4,"",""
31,257171012,0,0,0,0,0,0,0,0,0,9,-1,0,1000,151,0,-26,3,3,3,-177,-40,2106,114,128,388,279,1,8,0,1,1,-0.02221517864305362,0.10405037668192833,4.396847430425349,0,0,0,3,-1,0,0,0,4,3,"",""
32,257172335,0,0,0,0,0,0,0,0,0,9,-1,0,1000,151,0,-26,3,3,0,-171,-40,2106,128,120,401,296,1,8,0,1,1,-0.022047709890990894,0.10340058176264454,4.396848719626198,0,0,0,3,-1,0,0,0,4,0,"",""
33,257173691,0,0,0,0,0,0,0,0,0,9,-1,0,1000,151,0,-26,3,4,-1,-166,-39,2105,143,120,383,344,1,8,0,1,1,-0.021874834216799224,0.10274547164978955,4.396874319237046,0,0,0,3,-1,0,0,0,5,-1,"",""
34,257175058,0,0,0,0,0,0,0,0,0,9,-1,0,1000,151,0,-26,3,4,-2,-163,-39,2105,162,120,375,373,1,8,0,1,1,-0.021711784928325224,0.10208911815411385,4.396924096433788,0,0,0,3,-1,0,0,0,5,-2,"",""
35,257176398,0,0,0,0,0,0,0,0,0,9,-1,0,1000,151,0,-26,3,4,-3,-161,-39,2105,166,120,337,344,1,8,0,1,1,-0.021559583315626237,0.10144252009524712,4.396996376310551,0,0,0,3,-1,0,0,0,5,-3,"",""
36,257177725,0,0,0,0,0,0,0,0,0,9,-1,0,1000,151,0,-26,4,3,-2,-159,-39,2104,164,120,300,254,1,8,0,1,1,-0.021389942697041444,0.10078547227008236,4.397044168176859,0,0,0,3,-1,0,0,1,4,-2,"",""
37,257179058,0,0,0,0,0,0,0,0,0,9,-1,0,1000,151,0,-26,5,3,-1,-158,-41,2102,166,120,307,201,1,8,0,1,1,-0.02122800766547879,0.10015522598301405,4.397068868155317,0,0,0,3,-1,0,0,2,4,-1,"",""
38,257180391,0,0,0,0,0,0,0,0,0,9,-1,0,1000,151,0,-26,6,3,0,-158,-43,2101,137,120,293,243,1,8,0,1,1,-0.021072036323642206,0.09956061354616362,4.3970702632842755,0,0,0,3,-1,0,0,3,4,0,"",""
39,257181722,0,0,0,0,0,0,0,0,0,9,-1,0,1000,151,0,-26,6,3,1,-157,-45,2101,138,120,325,213,1,8,0,1,1,-0.020942984906668568,0.09898549570706187,4.397048388853103,0,0,0,3,-1,0,0,3,4,1,"",""
40,257183082,0,0,0,0,0,0,0,0,0,9,-1,0,1000,151,0,-26,6,3,2,-156,-46,2101,140,120,354,227,1,8,0,1,1,-0.020823584932173293,0.09843007825083186,4.397002230455531,0,0,0,3,-1,0,0,3,4,2,"",""
41,257184445,0,0,0,0,0,0,0,0,0,9,-1,0,1000,151,0,-26,6,3,2,-155,-46,2101,131,120,357,270,1,8,0,1,1,-0.02070619846241812,0.09789124442027347,4.396955976643563,0,0,0,3,-1,0,0,3,4,2,"",""
42,257185780,0,0,0,0,0,0,0,0,0,9,-1,0,1000,151,0,-26,6,3,2,-155,-44,2101,146,120,397,305,1,8,0,1,1,-0.02057104257534914,0.09737761997044307,4.396910610496647,0,0,0,3,-1,0,0,3,4,2,"",""
43,257187111,0,0,0,0,0,0,0,0,0,9,-1,0,1000,151,0,-26,5,3,1,-154,-42,2100,148,120,482,308,1,8,0,1,1,-0.02044204440813675,0.09687818386592444,4.396888651077095,0,0,0,3,-1,0,0,2,4,1,"",""
44,257188444,0,0,0,0,0,0,0,0,0,9,-1,0,1000,151,0,-26,4,3,1,-155,-39,2101,151,120,488,328,1,8,0,1,1,-0.020305709605599728,0.09641235403989415,4.39686655613276,0,0,0,3,-1,0,0,1,4,1,"",""
45,257189779,0,0,0,0,0,0,0,0,0,9,-1,0,1000,151,0,-26,3,3,0,-155,-36,2101,144,120,553,343,1,8,0,1,1,-0.020165967037399906,0.09596789978021304,4.396867728616493,0,0,0,3,-1,0,0,0,4,0,"",""
46,257191119,0,0,0,0,0,0,0,0,0,9,-1,0,1000,151,0,-26,2,2,0,-156,-35,2102,150,120,569,353,1,8,0,1,1,-0.020042590945117532,0.09553057115152637,4.39686840093386,0,0,0,3,-1,0,0,-1,3,0,"",""
47,257192486,0,0,0,0,0,0,0,0,0,9,-1,0,1000,151,0,-26,2,2,0,-157,-34,2102,154,120,475,351,1,8,0,1,1,-0.01991220098043316,0.09512351991270324,4.3968690631907705,0,0,0,3,-1,0,0,-1,3,0,"",""
48,257193984,0,0,0,0,0,0,0,0,0,9,-1,0,1000,151,0,-26,2,2,0,-157,-34,2101,159,120,445,357,1,8,0,1,1,-0.019781933353909015,0.09473941643886193,4.396869822630127,0,0,0,3,-1,0,0,-1,3,0,"",""
49,257195460,0,0,0,0,0,0,0,0,0,9,-1,0,1000,151,0,-26,3,3,-1,-157,-34,2101,129,120,301,297,1,8,0,1,1,-0.019633845205086077,0.09439561992652183,4.3968969508279745,0,0,0,3,-1,0,0,0,4,-1,"",""
50,257196794,0,0,0,0,0,0,0,0,0,9,-1,0,1000,151,0,-26,4,3,-2,-155,-34,2102,139,120,260,283,1,8,0,1,1,-0.019476354063972613,0.09403886485473144,4.396944822116615,0,0,0,3,-1,0,0,1,4,-2,"",""
51,257198124,0,0,0,0,0,0,0,0,0,9,-1,0,1000,151,0,-26,5,4,-4,-153,-34,2103,154,120,271,320,1,8,0,1,1,-0.019304938852530127,0.09369894243854639,4.397039616762631,0,0,0,3,-1,0,0,2,5,-4,"",""
52,257199452,0,0,0,0,0,0,0,0,0,9,-1,0,1000,151,0,-26,5,4,-5,-150,-33,2104,163,120,276,358,1,8,0,1,1,-0.019130777611075907,0.0933442055790573,4.397157495609167,0,0,0,3,-1,0,0,2,5,-5,"",""
53,257200807,0,0,0,0,0,0,0,0,0,9,-1,0,1000,151,0,-26,5,4,-5,-148,-32,2105,188,120,305,377,1,8,0,1,1,-0.01894970878540015,0.09298694229810386,4.3972777269372685,0,0,0,3,-1,0,0,2,5,-5,"",""
54,257202167,0,0,0,0,0,0,0,0,0,9,-1,0,1000,151,0,-26,5,4,-5,-146,-30,2105,201,120,321,389,1,8,0,1,1,-0.018754861281243963,0.09262672695668789,4.397398317650569,0,0,0,3,-1,0,0,2,5,-5,"",""
55,257203512,0,0,0,0,0,0,0,0,0,9,-1,0,1000,151,0,-26,5,4,-3,-145,-28,2105,204,120,389,375,1,8,0,1,1,-0.018544212972855235,0.09227204775976404,4.397470347401075,0,0,0,3,-1,0,0,2,5,-3,"",""
56,257204841,0,0,0,0,0,0,0,0,0,9,-1,0,1000,151,0,-26,5,3,-1,-145,-27,2104,187,120,431,323,1,8,0,1,1,-0.018327546249952514,0.09190917822632162,4.397494464047057,0,0,0,3,-1,0,0,2,4,-1,"",""
57,257206181,0,0,0,0,0,0,0,0,0,9,-1,0,1000,151,0,-26,5,2,1,-146,-28,2104,166,120,404,256,1,8,0,1,1,-0.018119878163707255,0.09154689912461683,4.3974714324548305,0,0,0,3,-1,0,0,2,3,1,"",""
58,257207530,0,0,0,0,0,0,0,0,0,9,-1,0,1000,151,0,-26,5,2,4,-147,-29,2103,156,120,496,271,1,8,0,1,1,-0.01791879578763948,0.09120834944486368,4.397377379643936,0,0,0,3,-1,0,0,2,3,4,"",""
59,257208870,0,0,0,0,0,0,0,0,0,9,-1,0,1000,151,0,-26,4,2,5,-147,-32,2103,126,120,480,276,1,8,0,1,1,-0.017769118823826896,0.09088187974510414,4.3972605907741675,0,0,0,3,-1,0,0,1,3,5,"",""
60,257210228,0,0,0,0,0,0,0,0,0,9,-1,0,1000,151,0,-26,4,2,6,-147,-34,2102,120,126,479,264,1,8,0,1,1,-0.017635797656389115,0.09056861614892345,4.397118524602901,0,0,0,3,-1,0,0,1,3,6,"",""
61,257211615,0,0,0,0,0,0,0,0,0,9,-1,0,1000,151,0,-26,4,2,6,-148,-36,2102,120,134,498,275,1,8,0,1,1,-0.017519046815203502,0.09027521434673831,4.39697351074692,0,0,0,3,-1,0,0,1,3,6,"",""
62,257212949,0,0,0,0,0,0,0,0,0,9,-1,0,1000,151,0,-26,3,2,4,-148,-37,2102,120,142,453,272,1,8,0,1,1,-0.0174435055288552,0.0899891456690995,4.396880829192225,0,0,0,3,-1,0,0,0,3,4,"",""
63,257214281,0,0,0,0,0,0,0,0,0,9,-1,0,1000,151,0,-26,3,3,2,-149,-37,2103,120,120,451,277,1,8,0,1,1,-0.017373335926053873,0.08974177801302305,4.396835374882929,0,0,0,3,-1,0,0,0,4,2,"",""
64,257215615,0,0,0,0,0,0,0,0,0,9,-1,0,1000,150,0,-26,3,3,0,-150,-35,2103,128,116,412,307,1,8,0,1,1,-0.017292851288914758,0.08951003086404516,4.396836530410036,0,0,0,3,-1,0,0,0,4,0,"",""
65,257216945,0,0,0,0,0,0,0,0,0,9,-1,0,1000,150,0,-26,3,3,-2,-152,-31,2103,142,116,369,352,1,8,0,1,1,-0.01718770506837929,0.08930044495512034,4.396884147221473,0,0,0,3,-1,0,0,0,4,-2,"",""
66,257218291,0,0,0,0,0,0,0,0,0,9,-1,0,1000,150,0,-26,3,3,-3,-155,-28,2102,182,116,386,402,1,8,0,1,1,-0.017063707441920224,0.08912151814469019,4.3969558160118,0,0,0,3,-1,0,0,0,4,-3,"",""
67,257219645,0,0,0,0,0,0,0,0,0,9,-1,0,1000,150,0,-26,3,3,-4,-159,-26,2102,172,116,327,342,1,8,0,1,1,-0.01692937889639618,0.08897818830675738,4.397051563544533,0,0,0,3,-1,0,0,0,4,-4,"",""
68,257221007,0,0,0,0,0,0,0,0,0,9,-1,0,1000,150,0,-26,4,3,-3,-163,-25,2102,159,116,317,356,1,8,0,1,1,-0.016764929996910836,0.08886971578821737,4.397123980943289,0,0,0,3,-1,0,0,1,4,-3,"",""
69,257222345,0,0,0,0,0,0,0,0,0,9,-1,0,1000,150,0,-26,4,3,-2,-166,-25,2102,164,116,302,258,1,8,0,1,1,-0.016603467820802693,0.088785872583811,4.397171674496073,0,0,0,3,-1,0,0,1,4,-2,"",""
70,257223677,0,0,0,0,0,0,0,0,0,9,-1,0,1000,150,0,-26,5,3,-1,-169,-25,2101,158,116,283,206,1,8,0,1,1,-0.016420938795616086,0.08872714107005988,4.397195818058285,0,0,0,3,-1,0,0,2,4,-1,"",""
71,257225141,0,0,0,0,0,0,0,0,0,9,-1,0,1000,150,0,-26,6,3,0,-171,-26,2101,143,116,310,269,1,8,0,1,1,-0.016210437723682424,0.08869202193725127,4.39719677439663,0,0,0,3,-1,0,0,3,4,0,"",""
72,257226613,0,0,0,0,0,0,0,0,0,9,-1,0,1000,150,0,-26,6,3,1,-171,-27,2100,144,116,341,250,1,8,0,1,1,-0.016007677744386474,0.08866027027111018,4.397171983293158,0,0,0,3,-1,0,0,3,4,1,"",""
73,257227975,0,0,0,0,0,0,0,0,0,9,-1,0,1000,150,0,-26,6,3,1,-171,-28,2100,155,116,380,292,1,8,0,1,1,-0.01582675403524307,0.08862463790832915,4.397149062559362,0,0,0,3,-1,0,0,3,4,1,"",""
74,257229339,0,0,0,0,0,0,0,0,0,9,-1,0,1000,150,0,-26,5,3,1,-170,-28,2099,149,116,408,321,1,8,0,1,1,-0.015672211050609557,0.08858485685399478,4.397126109226754,0,0,0,3,-1,0,0,2,4,1,"",""
75,257230681,0,0,0,0,0,0,0,0,0,9,-1,0,1000,150,0,-26,4,2,1,-169,-29,2097,147,116,499,320,1,8,0,1,1,-0.015552094543345253,0.08851732619431765,4.397103194533141,0,0,0,3,-1,0,0,1,3,1,"",""
76,257232016,0,0,0,0,0,0,0,0,0,9,-1,0,1000,150,0,-26,3,2,1,-168,-30,2095,131,116,580,327,1,8,0,1,1,-0.015464183937210767,0.08844649635234067,4.3970804382051485,0,0,0,3,-1,0,0,0,3,1,"",""
77,257233340,0,0,0,0,0,0,0,0,0,9,-1,0,1000,150,0,-26,3,2,1,-167,-31,2093,137,116,538,336,1,8,0,1,1,-0.015384945760225394,0.08837234102850335,4.397057907682782,0,0,0,3,-1,0,0,0,3,1,"",""
78,257234670,0,0,0,0,0,0,0,0,0,9,-1,0,1000,150,0,-26,2,2,1,-166,-34,2091,144,116,509,312,1,8,0,1,1,-0.015348911822302679,0.08829554163962922,4.397035383228595,0,0,0,3,-1,0,0,-1,3,1,"",""
79,257236011,0,0,0,0,0,0,0,0,0,9,-1,0,1000,146,0,-26,2,2,1,-165,-37,2089,140,116,489,311,1,8,0,1,1,-0.015332054487512972,0.08821636773624877,4.3970127787251245,0,0,0,3,-1,0,0,-1,3,1,"",""
80,257237366,0,0,0,0,0,0,0,0,0,9,-1,0,1000,146,0,-26,3,2,1,-164,-40,2087,116,120,335,280,1,8,0,1,1,-0.015310226638414328,0.08813501181770131,4.3969900427129165,0,0,0,3,-1,0,0,0,3,1,"",""
81,257238729,0,0,0,0,0,0,0,0,0,9,-1,0,1000,146,0,-26,3,3,-1,-164,-44,2086,118,116,285,290,1,8,0,1,1,-0.0153167730192584,0.08807971597285377,4.397015433068627,0,0,0,3,-1,0,0,0,4,-1,"",""
82,257240062,0,0,0,0,0,0,0,0,0,9,-1,0,1000,146,0,-26,4,4,-2,-163,-46,2085,135,116,277,309,1,8,0,1,1,-0.015315350044762727,0.0880420410116419,4.397064054548586,0,0,0,3,-1,0,0,1,5,-2,"",""
83,257241388,0,0,0,0,0,0,0,0,0,9,-1,0,1000,146,0,-26,4,4,-4,-163,-46,2084,149,116,285,346,1,8,0,1,1,-0.01531757302686969,0.08800562865572428,4.397158885979066,0,0,0,3,-1,0,0,1,5,-4,"",""
84,257242718,0,0,0,0,0,0,0,0,0,9,-1,0,1000,146,0,-26,5,4,-5,-162,-45,2084,167,116,310,380,1,8,0,1,1,-0.015291675332694729,0.0879650334826348,4.397277267203261,0,0,0,3,-1,0,0,2,5,-5,"",""
85,257244049,0,0,0,0,0,0,0,0,0,9,-1,0,1000,146,0,-26,5,4,-5,-163,-44,2084,180,116,287,341,1,8,0,1,1,-0.015259222328479614,0.0879323221640509,4.397395702177635,0,0,0,3,-1,0,0,2,5,-5,"",""
86,257245392,0,0,0,0,0,0,0,0,0,9,-1,0,1000,146,0,-26,5,4,-4,-164,-42,2084,193,116,341,330,1,8,0,1,1,-0.015211653205470013,0.08790833416465954,4.397491602453016,0,0,0,3,-1,0,0,2,5,-4,"",""
87,257246753,0,0,0,0,0,0,0,0,0,9,-1,0,1000,146,0,-26,5,3,-2,-165,-41,2083,189,116,360,364,1,8,0,1,1,-0.015152679437128301,0.08787060993716443,4.397540700831628,0,0,0,3,-1,0,0,2,4,-2,"",""
88,257248139,0,0,0,0,0,0,0,0,0,9,-1,0,1000,146,0,-26,5,3,0,-165,-40,2083,171,116,372,278,1,8,0,1,1,-0.015081792407604683,0.0878364655078771,4.397542097396182,0,0,0,3,-1,0,0,2,4,0,"",""
89,257249469,0,0,0,0,0,0,0,0,0,9,-1,0,1000,146,0,-26,5,2,2,-165,-40,2082,156,116,460,268,1,8,0,1,1,-0.015012074348019837,0.08777916688396836,4.397496501470794,0,0,0,3,-1,0,0,2,3,2,"",""
90,257250807,0,0,0,0,0,0,0,0,0,9,-1,0,1000,146,0,-26,4,2,4,-163,-41,2081,131,116,437,291,1,8,0,1,1,-0.014966690343699462,0.08771385657161278,4.397403786181211,0,0,0,3,-1,0,0,1,3,4,"",""
91,257252139,0,0,0,0,0,0,0,0,0,9,-1,0,1000,146,0,-26,4,2,5,-160,-44,2080,126,116,473,277,1,8,0,1,1,-0.01493653212816618,0.0876344086163581,4.397288261366279,0,0,0,3,-1,0,0,1,3,5,"",""
92,257253489,0,0,0,0,0,0,0,0,0,9,-1,0,1000,146,0,-26,4,2,4,-155,-47,2080,116,119,479,274,1,8,0,1,1,-0.014923256258984923,0.08752998434104191,4.397194925625997,0,0,0,3,-1,0,0,1,3,4,"",""
93,257254843,0,0,0,0,0,0,0,0,0,9,-1,0,1000,146,0,-26,4,3,4,-150,-49,2079,116,135,408,268,1,8,0,1,1,-0.014920026071036334,0.08742504573333873,4.397101736701841,0,0,0,3,-1,0,0,1,4,4,"",""
94,257256209,0,0,0,0,0,0,0,0,0,9,-1,0,1000,153,0,-26,3,3,2,-145,-49,2078,120,116,429,275,1,8,0,1,1,-0.014942773803085223,0.08729650504943855,4.397055578067288,0,0,0,3,-1,0,0,0,4,2,"",""
95,257257695,0,0,0,0,0,0,0,0,0,9,-1,0,1000,153,0,-26,3,3,0,-141,-49,2077,120,116,385,305,1,8,0,1,1,-0.014962343937410845,0.08715597020982087,4.397057374228264,0,0,0,3,-1,0,0,0,4,0,"",""
96,257259171,0,0,0,0,0,0,0,0,0,9,-1,0,1000,153,0,-26,3,3,-1,-137,-49,2075,128,88,390,330,1,8,0,1,1,-0.014983688459675154,0.0869979465248079,4.397085020150639,0,0,0,3,-1,0,0,0,4,-1,"",""
97,257260512,0,0,0,0,0,0,0,0,0,9,-1,0,1000,153,0,-26,3,3,-2,-134,-49,2074,138,88,364,342,1,8,0,1,1,-0.015012780208389611,0.08682129087912475,4.397133685878879,0,0,0,3,-1,0,0,0,4,-2,"",""
98,257261845,0,0,0,0,0,0,0,0,0,9,-1,0,1000,153,0,-26,3,4,-2,-133,-49,2073,117,88,294,298,1,8,0,1,1,-0.015041175366958157,0.08666666784345237,4.397182415590767,0,0,0,3,-1,0,0,0,5,-2,"",""
99,257263191,0,0,0,0,0,0,0,0,0,9,-1,0,1000,153,0,-26,4,3,-1,-132,-49,2071,126,88,282,231,1,8,0,1,1,-0.01504263620570957,0.08648969294730569,4.397207684548226,0,0,0,3,-1,0,0,1,4,-1,"",""
100,257264551,0,0,0,0,0,0,0,0,0,9,-1,0,1000,153,0,-26,5,3,0,-131,-50,2070,116,88,262,192,1,8,0,1,1,-0.015021976450195606,0.08631322323162642,4.39720942381334,0,0,0,3,-1,0,0,2,4,0,"",""
101,257265911,0,0,0,0,0,0,0,0,0,9,-1,0,1000,153,0,-26,6,3,1,-130,-52,2068,106,88,260,176,1,8,0,1,1,-0.014985458164182435,0.08613696264533537,4.397187415071718,0,0,0,3,-1,0,0,3,4,1,"",""
102,257267248,0,0,0,0,0,0,0,0,0,9,-1,0,1000,153,0,-26,6,3,1,-130,-52,2068,101,88,270,157,1,8,0,1,1,-0.014950795182589691,0.08596350470224999,4.39716579321101,0,0,0,3,-1,0,0,3,4,1,"",""
103,257268587,0,0,0,0,0,0,0,0,0,9,-1,0,1000,153,0,-26,6,3,2,-130,-51,2067,97,88,297,216,1,8,0,1,1,-0.014908440925929406,0.08579482429584458,4.3971206508127745,0,0,0,3,-1,0,0,3,4,2,"",""
104,257269915,0,0,0,0,0,0,0,0,0,9,-1,0,1000,153,0,-26,6,3,2,-130,-49,2067,118,88,374,259,1,8,0,1,1,-0.014856927254200673,0.0856293532959901,4.397075815643473,0,0,0,3,-1,0,0,3,4,2,"",""
105,257271250,0,0,0,0,0,0,0,0,0,9,-1,0,1000,153,0,-26,5,3,1,-132,-46,2066,115,88,424,281,1,8,0,1,1,-0.014814816144234936,0.08547776213652933,4.3970540185607705,0,0,0,3,-1,0,0,2,4,1,"",""
106,257272601,0,0,0,0,0,0,0,0,0,9,-1,0,1000,153,0,-26,4,3,1,-133,-43,2066,114,88,451,288,1,8,0,1,1,-0.014779829188175872,0.0853352364075961,4.397031846816232,0,0,0,3,-1,0,0,1,4,1,"",""
107,257273963,0,0,0,0,0,0,0,0,0,9,-1,0,1000,153,0,-26,3,3,1,-135,-40,2066,110,88,523,282,1,8,0,1,1,-0.014752965690601002,0.08520607733920328,4.397009383987494,0,0,0,3,-1,0,0,0,4,1,"",""
108,257275310,0,0,0,0,0,0,0,0,0,9,-1,0,1000,153,0,-26,3,3,1,-137,-37,2067,112,88,505,309,1,8,0,1,1,-0.014712358698631169,0.08508817998801849,4.396987064494825,0,0,0,3,-1,0,0,0,4,1,"",""
109,257276677,0,0,0,0,0,0,0,0,0,9,-1,0,1000,152,0,-26,3,2,1,-139,-36,2068,123,88,460,289,1,8,0,1,1,-0.01466598203627752,0.08495942606246423,4.396964023558653,0,0,0,3,-1,0,0,0,3,1,"",""
110,257278021,0,0,0,0,0,0,0,0,0,9,-1,0,1000,152,0,-26,3,2,1,-139,-37,2069,131,88,420,289,1,8,0,1,1,-0.014625705347450906,0.08483214700861014,4.396941410772056,0,0,0,3,-1,0,0,0,3,1,"",""
111,257279351,0,0,0,0,0,0,0,0,0,9,-1,0,1000,152,0,-26,3,3,0,-139,-37,2071,88,92,298,287,1,8,0,1,1,-0.014588157984534982,0.08472886880050756,4.3969426698561245,0,0,0,3,-1,0,0,0,4,0,"",""
112,257280684,0,0,0,0,0,0,0,0,0,9,-1,0,1000,152,0,-26,4,3,-1,-137,-38,2072,97,88,259,272,1,8,0,1,1,-0.014534043896032436,0.08461817592019821,4.39696731341025,0,0,0,3,-1,0,0,1,4,-1,"",""
113,257282048,0,0,0,0,0,0,0,0,0,9,-1,0,1000,152,0,-26,4,4,-3,-134,-38,2074,115,88,260,276,1,8,0,1,1,-0.014481956494394533,0.084519981630055,4.3970406457767695,0,0,0,3,-1,0,0,1,5,-3,"",""
114,257283407,0,0,0,0,0,0,0,0,0,9,-1,0,1000,152,0,-26,5,4,-4,-132,-36,2076,123,88,250,315,1,8,0,1,1,-0.01439963301305901,0.08441372657154592,4.397137435259849,0,0,0,3,-1,0,0,2,5,-4,"",""
115,257284746,0,0,0,0,0,0,0,0,0,9,-1,0,1000,152,0,-26,5,4,-5,-131,-34,2077,144,88,267,319,1,8,0,1,1,-0.014312308793345654,0.0843034631545479,4.397256177507685,0,0,0,3,-1,0,0,2,5,-5,"",""
116,257286083,0,0,0,0,0,0,0,0,0,9,-1,0,1000,152,33,-26,5,4,-5,-131,-30,2079,163,88,278,346,1,8,0,1,1,-0.014207701295433613,0.08419491825404542,4.397374590916646,0,0,0,3,-1,0,0,2,5,-5,"",""
117,257287447,0,0,0,0,0,0,0,0,0,9,-1,0,1000,152,33,-26,5,4,-4,-132,-27,2080,162,88,303,279,1,8,0,1,1,-0.014086472581715316,0.08409514754714102,4.397471391903644,0,0,0,3,-1,0,0,2,5,-4,"",""
118,257288917,0,0,0,0,0,0,0,0,0,9,-1,0,1000,152,33,-26,5,3,-2,-135,-24,2081,164,88,377,305,1,8,0,1,1,-0.013940236341671111,0.08399310967649881,4.397523758948066,0,0,0,3,-1,0,0,2,4,-2,"",""
119,257290403,0,0,0,0,0,0,0,0,0,9,-1,0,1000,152,33,-26,5,3,0,-140,-22,2082,146,88,373,318,1,8,0,1,1,-0.013780989601272628,0.08391631751503753,4.3975245749060266,0,0,0,3,-1,0,0,2,4,0,"",""
120,257291765,0,0,0,0,0,0,0,0,0,9,-1,0,1000,152,33,-26,5,2,3,-143,-22,2082,127,88,434,237,1,8,0,1,1,-0.01362814829990226,0.08382532763666803,4.3974534190237655,0,0,0,3,-1,0,0,2,3,3,"",""
121,257293152,0,0,0,0,0,0,0,0,0,9,-1,0,1000,152,33,-26,4,2,4,-147,-23,2083,108,88,455,243,1,8,0,1,1,-0.013500865907571144,0.08375419608393596,4.39735671403349,0,0,0,3,-1,0,0,1,3,4,"",""
122,257294487,0,0,0,0,0,0,0,0,0,9,-1,0,1000,152,33,-26,4,2,6,-150,-24,2084,88,98,416,232,1,8,0,1,1,-0.013379147434977747,0.08369577146393256,4.397216910081115,0,0,0,3,-1,0,0,1,3,6,"",""
123,257295830,0,0,0,0,0,0,0,0,0,9,-1,0,1000,150,33,-26,4,2,6,-154,-24,2085,88,94,442,230,1,8,0,1,1,-0.01325796032038236,0.08365548854332219,4.397076275014948,0,0,0,3,-1,0,0,1,3,6,"",""
124,257297161,0,0,0,0,0,0,0,0,0,9,-1,0,1000,150,33,-26,4,3,4,-157,-24,2086,88,105,416,233,1,8,0,1,1,-0.013142725739197432,0.08365042594697619,4.39698382595818,0,0,0,3,-1,0,0,1,4,4,"",""
125,257298493,0,0,0,0,0,0,0,0,0,9,-1,0,1000,150,33,-26,3,3,3,-160,-23,2087,88,101,386,254,1,8,0,1,1,-0.013049250493198517,0.0836578660677188,4.396914598800149,0,0,0,3,-1,0,0,0,4,3,"",""
126,257299872,0,0,0,0,0,0,0,0,0,9,-1,0,1000,150,33,-26,3,3,1,-164,-20,2087,94,88,426,281,1,8,0,1,1,-0.012945559205720734,0.08368412197558096,4.396891125624473,0,0,0,3,-1,0,0,0,4,1,"",""
127,257301235,0,0,0,0,0,0,0,0,0,9,-1,0,1000,150,33,-26,3,4,-1,-168,-17,2088,111,88,379,308,1,8,0,1,1,-0.012835324134280079,0.08374873966951782,4.396915858262369,0,0,0,3,-1,0,0,0,5,-1,"",""
128,257302575,0,0,0,0,0,0,0,0,0,9,-1,0,1000,150,33,-26,3,3,-2,-173,-15,2089,128,65,371,333,1,8,0,1,1,-0.012721120166614468,0.08380804449981313,4.396963259516016,0,0,0,3,-1,0,0,0,4,-2,"",""
129,257303911,0,0,0,0,0,0,0,0,0,9,-1,0,1000,150,33,-26,3,3,-2,-178,-14,2090,112,65,292,291,1,8,0,1,1,-0.012604281608675513,0.08388666695605052,4.397010481938308,0,0,0,3,-1,0,0,0,4,-2,"",""
130,257305240,0,0,0,0,0,0,0,0,0,9,-1,0,1000,150,33,-26,4,3,-2,-184,-13,2091,102,65,242,214,1,8,0,1,1,-0.012462019123100158,0.08398805236507981,4.397057419086011,0,0,0,3,-1,0,0,1,4,-2,"",""
131,257306574,0,0,0,0,0,0,0,0,0,9,-1,0,1000,150,0,-26,4,3,-1,-188,-13,2091,107,65,255,189,1,8,0,1,1,-0.012319045559728282,0.08410492460880398,4.397081173318165,0,0,0,3,-1,0,0,1,4,-1,"",""
132,257307929,0,0,0,0,0,0,0,0,0,9,-1,0,1000,150,0,-26,5,3,-1,-191,-12,2092,90,65,235,206,1,8,0,1,1,-0.012148693366945448,0.08423318542693195,4.397105272860659,0,0,0,3,-1,0,0,2,4,-1,"",""
133,257309282,0,0,0,0,0,0,0,0,0,9,-1,0,1000,150,0,-26,6,3,0,-194,-12,2093,90,65,259,192,1,8,0,1,1,-0.01195484761630783,0.08437169000302445,4.397105640683906,0,0,0,3,-1,0,0,3,4,0,"",""
134,257310650,0,0,0,0,0,0,0,0,0,9,-1,0,1000,150,0,-26,6,3,0,-195,-12,2095,89,65,277,234,1,8,0,1,1,-0.011761299338996962,0.08451263695675587,4.397106017887615,0,0,0,3,-1,0,0,3,4,0,"",""
135,257311989,0,0,0,0,0,0,0,0,0,9,-1,0,1000,150,0,-26,6,3,0,-195,-12,2095,98,65,304,259,1,8,0,1,1,-0.011572682784230539,0.08465046161455032,4.397106378115668,0,0,0,3,-1,0,0,3,4,0,"",""
136,257313320,0,0,0,0,0,0,0,0,0,9,-1,0,1000,150,0,-26,5,3,0,-195,-11,2096,105,65,391,256,1,8,0,1,1,-0.011405848921521567,0.08478597647358378,4.397106696617864,0,0,0,3,-1,0,0,2,4,0,"",""
137,257314645,0,0,0,0,0,0,0,0,0,9,-1,0,1000,150,0,-26,4,3,0,-194,-10,2096,100,65,431,279,1,8,0,1,1,-0.011260279611616355,0.08491580871515236,4.397106974779939,0,0,0,3,-1,0,0,1,4,0,"",""
138,257315981,0,0,0,0,0,0,0,0,0,9,-1,0,1000,149,0,-26,4,2,1,-194,-9,2095,98,65,471,260,1,8,0,1,1,-0.011109665076526614,0.0850222349136926,4.397083562698655,0,0,0,3,-1,0,0,1,3,1,"",""
139,257317328,0,0,0,0,0,0,0,0,0,9,-1,0,1000,149,0,-26,3,2,1,-194,-10,2095,89,65,520,270,1,8,0,1,1,-0.010986975461144799,0.08512780464757448,4.397060003844106,0,0,0,3,-1,0,0,0,3,1,"",""
140,257318695,0,0,0,0,0,0,0,0,0,9,-1,0,1000,149,0,-26,3,2,1,-194,-11,2095,90,65,464,263,1,8,0,1,1,-0.01086830976993736,0.08523285450190919,4.397036143609872,0,0,0,3,-1,0,0,0,3,1,"",""
141,257320184,0,0,0,0,0,0,0,0,0,9,-2,0,1000,149,0,-26,2,2,2,-193,-12,2094,79,65,409,252,1,8,0,1,1,-0.010771744467533866,0.08533780582345565,4.396984151907165,0,0,0,3,-1,0,0,-1,3,2,"",""
142,257321713,0,0,0,0,0,0,0,0,0,9,-2,0,1000,149,0,-26,3,2,1,-191,-14,2093,65,74,290,230,1,8,0,1,1,-0.01065801659039056,0.0854355752482873,4.396957633092645,0,0,0,3,-1,0,0,0,3,1,"",""
143,257323047,0,0,0,0,0,0,0,0,0,9,-2,0,1000,149,0,-26,3,3,-1,-189,-16,2092,65,65,239,233,1,8,0,1,1,-0.01056726226937712,0.08554103090447894,4.396981514669284,0,0,0,3,-1,0,0,0,4,-1,"",""
144,257324380,0,0,0,0,0,0,0,0,0,9,-2,0,1000,149,0,-26,4,4,-2,-185,-17,2092,84,65,237,255,1,8,0,1,1,-0.010460030444090627,0.08565351371877121,4.397029009347623,0,0,0,3,-1,0,0,1,5,-2,"",""
145,257325706,0,0,0,0,0,0,0,0,0,9,-2,0,1000,149,0,-26,5,4,-4,-182,-16,2092,98,65,219,277,1,8,0,1,1,-0.010331501273920882,0.08575308343982435,4.397122667889749,0,0,0,3,-1,0,0,2,5,-4,"",""
146,257327064,0,0,0,0,0,0,0,0,0,9,-2,0,1000,149,0,-26,5,4,-5,-178,-14,2092,119,65,243,303,1,8,0,1,1,-0.010196209472083096,0.08583926710205733,4.39724230178315,0,0,0,3,-1,0,0,2,5,-5,"",""
147,257328422,0,0,0,0,0,0,0,0,0,9,-2,0,1000,149,0,-26,5,4,-5,-176,-12,2091,138,65,250,316,1,8,0,1,1,-0.010054872137537444,0.0859179416274351,4.397361858171509,0,0,0,3,-1,0,0,2,5,-5,"",""
148,257329773,0,0,0,0,0,0,0,0,0,9,-3,0,1000,149,0,-26,5,4,-4,-174,-11,2090,139,65,261,303,1,8,0,1,1,-0.00990976028134581,0.0859890046085911,4.397457090634679,0,0,0,3,-1,0,0,2,5,-4,"",""
149,257331104,0,0,0,0,0,0,0,0,0,9,-3,0,1000,149,0,-26,5,3,-2,-173,-10,2088,137,65,311,273,1,8,0,1,1,-0.009760036382100549,0.08603274904717538,4.397504009584164,0,0,0,3,-1,0,0,2,4,-2,"",""
150,257332433,0,0,0,0,0,0,0,0,0,9,-4,0,1000,149,0,-26,5,3,0,-173,-10,2088,116,65,297,230,1,8,0,1,1,-0.009607844045505565,0.08607666235650334,4.397504297852014,0,0,0,3,-2,0,0,2,5,0,"",""
151,257333759,0,0,0,0,0,0,0,0,0,9,-5,0,1000,149,0,-26,6,2,3,-173,-11,2088,103,65,324,194,1,8,0,1,1,-0.009431868270338765,0.08609792066757176,4.397434720777975,0,0,0,3,-2,0,0,3,4,3,"",""
152,257335097,0,0,0,0,0,0,0,0,0,9,-5,0,1000,149,0,-26,6,2,5,-172,-12,2088,79,65,345,193,1,8,0,1,1,-0.009255601243849242,0.08611649462536197,4.397317684084098,0,0,0,3,-2,0,0,3,4,5,"",""
153,257336452,0,0,0,0,0,0,0,0,0,9,-6,0,1000,150,0,-26,6,2,6,-171,-14,2088,65,67,347,189,1,8,0,1,1,-0.009083886528199461,0.08613239695638657,4.397175508776964,0,0,0,3,-3,0,0,3,5,6,"",""
154,257337814,0,0,0,0,0,0,0,0,0,9,-7,0,1000,150,0,-26,5,2,6,-169,-15,2089,65,80,358,199,1,8,0,1,1,-0.00893979549289035,0.08614135047644873,4.397032641728283,0,0,0,3,-3,0,0,2,5,6,"",""
155,257339147,0,0,0,0,0,0,0,0,0,9,-9,0,1000,150,0,-26,5,2,5,-166,-17,2089,65,90,351,204,1,8,0,1,1,-0.008808544772927479,0.08613884637209816,4.396916244060074,0,0,0,3,-4,0,0,2,6,5,"",""
156,257340480,0,0,0,0,0,0,0,0,0,9,-10,0,1000,150,0,-26,5,3,4,-163,-17,2089,65,88,382,226,1,8,0,1,1,-0.00868028007539891,0.08614922151946186,4.396823404177215,0,0,0,3,-4,0,0,2,7,4,"",""
157,257341808,0,0,0,0,0,0,0,0,0,9,-12,0,1000,150,0,-26,4,3,3,-160,-17,2088,65,81,378,240,1,8,0,1,1,-0.008578449967429794,0.0861494385315549,4.396754176905225,0,0,0,3,-5,0,0,1,8,3,"",""
158,257343135,0,0,0,0,0,0,0,0,0,9,-13,0,1000,150,0,-26,4,3,1,-158,-17,2088,67,65,355,227,1,8,0,1,1,-0.0084814125501476,0.08614279760402711,4.396731494312542,0,0,0,3,-6,0,0,1,9,1,"",""
159,257344483,0,0,0,0,0,0,0,0,0,9,-14,0,1000,150,0,-26,3,3,1,-156,-18,2087,79,65,345,239,1,8,0,1,1,-0.008410381225979834,0.08613124811222196,4.396708491853465,0,0,0,3,-6,0,0,0,9,1,"",""
160,257345847,0,0,0,0,0,0,0,0,0,9,-16,0,1000,150,0,-26,3,3,0,-155,-18,2086,211,0,221,168,1,8,0,1,1,-0.008341058704737286,0.08611779158121528,4.39670911101587,0,0,0,3,-7,0,0,0,10,0,"",""
161,257347198,0,0,0,0,0,0,0,0,0,9,-17,0,1000,150,0,-26,4,3,0,-155,-19,2085,5,0,174,99,1,8,0,1,1,-0.008252865796635367,0.08610449430823525,4.3967097633486825,0,0,0,3,-7,0,0,1,10,0,"",""
162,257348540,0,0,0,0,0,0,0,0,0,9,-18,0,1000,150,0,-26,5,2,1,-156,-20,2084,1,0,158,91,1,8,0,1,1,-0.008143969699140984,0.08607180673500864,4.396686751049068,0,0,0,3,-8,0,0,2,10,1,"",""
163,257350008,0,0,0,0,0,0,0,0,0,9,-20,0,1000,150,0,-26,5,2,1,-156,-22,2083,0,2,160,106,1,8,0,1,1,-0.008031356736652994,0.08604442947478312,4.396661646585954,0,0,0,3,-9,0,0,2,11,1,"",""
164,257351475,0,0,0,0,0,0,0,0,0,9,-21,0,1000,150,0,-26,6,2,1,-155,-23,2082,0,1,152,93,1,8,0,1,1,-0.007897427423835937,0.08601460917822677,4.396636601115423,0,0,0,3,-9,0,0,3,11,1,"",""
165,257352803,0,0,0,0,0,0,0,0,0,9,-22,0,1000,150,0,-26,6,2,1,-153,-23,2081,7,0,181,124,1,8,0,1,1,-0.007778990004326618,0.08597431582659007,4.396613956164471,0,0,0,3,-10,0,0,3,12,1,"",""
166,257354163,0,0,0,0,0,0,0,0,0,9,-23,0,1000,150,0,-26,6,2,1,-151,-22,2081,35,0,207,167,1,8,0,1,1,-0.007654591067049478,0.08592935042866814,4.3965907253661465,0,0,0,3,-10,0,0,3,12,1,"",""
167,257355524,0,0,0,0,0,0,0,0,0,9,-25,0,1000,150,0,-26,6,2,1,-149,-20,2079,185,0,244,162,1,8,0,1,1,-0.0075243555115175245,0.08587928359977783,4.396567406490111,0,0,0,3,-11,0,0,3,13,1,"",""
168,257356866,0,0,0,0,0,0,0,0,0,9,-27,0,1000,150,0,-26,5,2,0,-148,-17,2078,0,0,296,191,1,8,0,1,1,-0.00741248919343235,0.08582627754906393,4.396567814490074,0,0,0,3,-12,0,0,2,14,0,"",""
169,257358205,0,0,0,0,0,0,0,0,0,9,-29,0,1000,150,0,-26,4,1,1,-148,-15,2078,0,10,326,183,1,8,0,1,1,-0.0073163510193277066,0.0857509875698618,4.396544522333293,0,0,0,3,-13,0,0,1,14,1,"",""
170,257359534,0,0,0,0,0,0,0,0,0,9,-31,0,1000,150,0,-26,3,1,1,-148,-13,2077,0,25,398,205,1,8,0,1,1,-0.007238207555481905,0.08567679628840907,4.396521333956825,0,0,0,3,-14,0,0,0,15,1,"",""
171,257360866,0,0,0,0,0,0,0,0,0,9,-33,0,1000,150,0,-26,2,1,1,-150,-11,2077,0,29,380,227,1,8,0,1,1,-0.0071771581088003016,0.08560998272399413,4.396498022508273,0,0,0,3,-14,0,0,-1,15,1,"",""
172,257362209,0,0,0,0,0,0,0,0,0,9,-35,0,1000,150,0,-26,2,0,2,-152,-10,2077,0,53,373,233,1,8,0,1,1,-0.007110985695061559,0.08552744407379481,4.396450794279649,0,0,0,3,-15,0,0,-1,15,2,"",""
173,257363570,0,0,0,0,0,0,0,0,0,8,-37,0,1000,150,0,-26,1,0,1,-154,-9,2077,558,0,204,201,1,8,0,1,1,-0.007067105852724712,0.08545197463434201,4.396426743529604,0,0,0,3,-16,0,0,-2,16,1,"",""
174,257364930,0,0,0,0,0,0,0,0,0,7,-39,0,1000,150,0,-26,2,1,1,-156,-8,2078,180,0,171,220,1,8,0,1,1,-0.006996883208849634,0.0854069331582936,4.3964028464749765,0,0,0,2,-17,0,0,0,18,1,"",""
175,257366262,0,0,0,0,0,0,0,0,0,6,-41,0,1000,150,0,-26,2,1,0,-156,-7,2079,0,88,226,342,1,8,0,1,1,-0.006927054102587424,0.08536160368190143,4.39640273615086,0,0,0,2,-18,0,0,0,19,0,"",""
176,257367591,0,0,0,0,0,0,0,0,0,5,-44,0,1000,150,0,-26,2,1,-1,-155,-4,2081,246,0,117,283,1,8,0,1,1,-0.006850467906643197,0.08531306758546384,4.396425799265201,0,0,0,2,-19,0,0,0,20,-1,"",""
177,257368940,0,0,0,0,0,0,0,0,0,4,-46,0,1000,150,0,-26,3,2,-2,-154,-1,2083,0,223,308,505,1,8,0,1,1,-0.0067431360769609405,0.08528516512192062,4.396472900485926,0,0,0,1,-20,0,0,2,22,-2,"",""
178,257370281,0,0,0,0,0,0,0,0,0,3,-48,0,1000,150,0,-26,3,2,-2,-155,4,2084,327,0,78,330,1,8,0,1,1,-0.006621615061358892,0.08526034056584146,4.396519540141041,0,0,0,1,-21,0,0,2,23,-2,"",""
179,257371655,0,0,0,0,0,0,0,0,0,2,-50,0,1000,150,0,-26,3,2,-1,-156,8,2085,444,0,125,297,1,8,0,1,1,-0.006485160983654141,0.08524010962569407,4.396543133652229,0,0,0,0,-22,0,0,3,24,-1,"",""
180,257373022,0,0,0,0,0,0,0,0,0,1,-52,0,1000,150,0,-26,3,1,1,-157,10,2085,0,61,204,273,1,8,0,1,1,-0.006340059075244157,0.08519972796959475,4.396518492688852,0,0,0,0,-23,0,0,3,24,1,"",""
181,257374367,0,0,0,0,0,0,0,0,0,1,-54,0,1000,150,0,-26,2,1,5,-160,9,2084,551,0,136,252,1,8,0,1,1,-0.006215810779361839,0.08516943004898794,4.396400041897919,0,0,0,0,-24,0,0,2,25,5,"",""
182,257375705,0,0,0,0,0,0,0,0,0,1,-55,0,1000,150,0,-26,2,1,9,-162,4,2084,0,262,471,422,1,8,0,1,1,-0.006100187804596208,0.08514601896342354,4.396188645939104,0,0,0,0,-25,0,0,2,26,9,"",""
183,257377037,0,0,0,0,0,0,0,0,0,1,-56,0,1000,150,0,-26,2,0,12,-164,-3,2083,0,407,613,565,1,8,0,1,1,-0.006001036314291379,0.08510639547501185,4.395908320965639,0,0,0,0,-25,0,0,2,25,12,"",""
184,257378374,0,0,0,0,0,0,0,0,0,1,-58,0,1000,150,0,-26,2,0,15,-166,-10,2083,0,556,782,704,1,8,0,1,1,-0.0059174744959420615,0.08507355309407043,4.395556948380254,0,0,0,0,-26,0,0,2,26,15,"",""
185,257379847,0,0,0,0,0,0,0,0,0,0,-59,0,1000,150,0,-26,2,-1,17,-168,-16,2083,0,517,753,624,1,8,0,1,1,-0.005840319579859031,0.08502192725375685,4.39511831138397,0,0,0,0,-27,0,0,2,26,17,"",""
186,257381344,0,0,0,0,0,0,0,0,0,0,-61,0,1000,150,0,-26,2,-1,17,-171,-21,2083,0,658,906,752,1,8,0,1,1,-0.005777057481382896,0.08497919764453316,4.394672710493986,0,0,0,0,-28,0,0,2,27,17,"",""
187,257382710,0,0,0,0,0,0,0,0,0,0,-61,0,1000,150,0,-26,2,0,15,-174,-23,2083,0,668,908,770,1,8,0,1,1,-0.005731881682743386,0.08497108924293807,4.394314196671086,0,0,0,0,-28,0,0,2,28,15,"",""
188,257384041,0,0,0,0,0,0,0,0,0,0,-62,0,1000,150,0,-26,2,0,12,-178,-23,2084,0,656,859,796,1,8,0,1,1,-0.005694711069134189,0.08497407994136509,4.39403482020293,0,0,0,0,-28,0,0,2,28,12,"",""
189,257385368,0,0,0,0,0,0,0,0,0,0,-62,0,1000,150,0,-26,2,0,9,-182,-22,2086,0,504,667,654,1,8,0,1,1,-0.005660742226357876,0.08498780709552683,4.393825979508163,0,0,0,0,-28,0,0,2,28,9,"",""
190,257386696,0,0,0,0,0,0,0,0,0,0,-63,0,1000,150,0,-26,2,0,5,-186,-21,2087,0,385,541,567,1,8,0,1,1,-0.005631706692304037,0.08501223457586461,4.393709990146913,0,0,0,0,-29,0,0,2,29,5,"",""
191,257388031,0,0,0,0,0,0,0,0,0,0,-64,0,1000,150,3240,-26,3,-1,2,-192,-19,2089,0,438,518,636,1,8,0,1,1,-0.005579329283141998,0.08502970686601828,4.393663338502024,0,0,0,0,-29,0,0,3,28,2,"",""
192,257389371,0,0,0,0,0,0,0,0,0,0,-64,0,1000,150,3240,-26,4,-1,0,-200,-18,2090,128,539,580,754,1,8,0,1,1,-0.005504701140598435,0.08506931815324048,4.393663420914386,0,0,0,0,-29,0,0,4,28,0,"",""
193,257390739,0,0,0,0,0,0,0,0,0,0,-65,0,1000,150,3240,-26,5,-1,-1,-207,-19,2090,128,424,449,642,1,8,0,1,1,-0.005409672684776851,0.0851278462644047,4.393687501164574,0,0,0,0,-30,0,0,5,29,-1,"",""
194,257392122,0,0,0,0,0,0,0,0,0,0,-66,0,1000,150,3240,-26,7,-1,-2,-215,-21,2091,128,409,353,530,1,8,0,1,1,-0.005273629920317327,0.08520784376550143,4.3937361434621485,0,0,0,0,-30,0,0,7,29,-2,"",""
195,257393457,0,0,0,0,0,0,0,0,0,-1,-68,0,1000,150,3240,-26,8,-1,-2,-220,-23,2093,128,432,364,553,1,8,0,1,1,-0.005126496707468946,0.08530146540815567,4.3937831859712375,0,0,0,-1,-31,0,0,9,30,-2,"",""
196,257394788,0,0,0,0,0,0,0,0,0,-2,-69,0,1000,150,3240,-26,10,-1,-2,-223,-25,2096,128,439,405,614,1,8,0,1,1,-0.004940105084322303,0.08540185393234305,4.393830169989708,0,0,0,-1,-32,0,0,11,31,-2,"",""
197,257396117,0,0,0,0,0,0,0,0,0,-3,-71,0,1000,150,3240,-26,11,-1,-3,-222,-26,2098,128,425,332,571,1,8,0,1,1,-0.004736711388633259,0.08549775205381827,4.393900415120118,0,0,0,-1,-33,0,0,12,32,-3,"",""
198,257397449,0,0,0,0,0,0,0,0,0,-4,-72,0,1000,146,3240,-26,12,0,-4,-219,-27,2100,128,418,343,630,1,8,0,1,1,-0.004515453346104304,0.08560665178424726,4.393994309327332,0,0,0,-2,-33,0,0,14,33,-4,"",""
199,257398804,0,0,0,0,0,0,0,0,0,-5,-74,0,1000,146,3240,-26,12,0,-6,-216,-27,2101,128,367,285,602,1,8,0,1,1,-0.00429467155706258,0.08570564721058777,4.394137303462166,0,0,0,-2,-34,0,0,14,34,-6,"",""
200,257400169,0,0,0,0,0,0,0,0,0,-6,-75,0,1000,146,3240,-26,13,0,-7,-212,-27,2103,128,308,151,513,1,8,0,1,1,-0.004051323392860634,0.0857919829887584,4.394305278626003,0,0,0,-3,-35,0,0,16,35,-7,"",""
201,257401514,0,0,0,0,0,0,0,0,0,-7,-76,0,1000,146,3240,-26,14,-1,-7,-209,-29,2104,188,296,128,449,1,8,0,1,1,-0.003795715160443487,0.085845622227802,4.394470796422226,0,0,0,-3,-35,0,0,17,34,-7,"",""
202,257402844,0,0,0,0,0,0,0,0,0,-7,-76,0,1000,146,3240,-26,15,-1,-6,-209,-35,2105,302,394,128,459,1,8,0,1,1,-0.0035364307960570177,0.08589877267624633,4.39461139458262,0,0,0,-3,-35,0,0,18,34,-6,"",""
203,257404172,0,0,0,0,0,0,0,0,0,-7,-76,0,1000,146,3240,-26,17,-1,-3,-210,-43,2106,297,419,128,433,1,8,0,1,1,-0.0032489115022006653,0.08595409184963626,4.394682273050902,0,0,0,-3,-35,0,0,20,34,-3,"",""
204,257405507,0,0,0,0,0,0,0,0,0,-7,-77,0,1000,146,3240,-26,19,-2,-1,-210,-52,2105,218,375,128,373,1,8,0,1,1,-0.0029350674616797413,0.08598586187153084,4.394706990067713,0,0,0,-3,-36,0,0,22,34,-1,"",""
205,257406846,0,0,0,0,0,0,0,0,0,-7,-77,0,1000,146,3240,-26,21,-2,2,-210,-61,2104,128,371,149,375,1,8,0,1,1,-0.002593404540933011,0.0860173979942216,4.394661722108592,0,0,0,-3,-36,0,0,24,34,2,"",""
206,257408343,0,0,0,0,0,0,0,0,0,-8,-77,0,1000,146,139,-26,22,-1,4,-208,-71,2103,128,526,371,544,1,8,0,1,1,-0.00219188110232044,0.08606383681632479,4.394558863659677,0,0,0,-4,-36,0,0,26,35,4,"",""
207,257409849,0,0,0,0,0,0,0,0,0,-8,-78,0,1000,146,139,-26,23,-1,5,-203,-80,2102,128,547,479,602,1,8,0,1,1,-0.0017845063476622453,0.08609629830999833,4.394429301317417,0,0,0,-4,-36,0,0,27,35,5,"",""
208,257411191,0,0,0,0,0,0,0,0,0,-8,-79,0,1000,146,139,-26,24,0,5,-197,-87,2101,128,581,572,609,1,8,0,1,1,-0.0014409632793218675,0.08613851673022219,4.394314379670478,0,0,0,-4,-37,0,0,28,37,5,"",""
209,257412528,0,0,0,0,0,0,0,0,0,-8,-80,0,1000,146,139,-26,24,1,6,-190,-94,2100,128,568,579,561,1,8,0,1,1,-0.0011174435876051974,0.08618500560721311,4.394176731996759,0,0,0,-4,-37,0,0,28,38,6,"",""
210,257413859,0,0,0,0,0,0,0,0,0,-8,-80,0,1000,146,139,-26,25,1,6,-183,-100,2097,128,608,528,603,1,8,0,1,1,-0.0007903305989209615,0.08621301994830424,4.394039912709986,0,0,0,-4,-37,0,0,29,38,6,"",""
211,257415192,0,0,0,0,0,0,0,0,0,-8,-81,0,1000,146,139,-26,26,1,5,-174,-104,2094,128,514,374,486,1,8,0,1,1,-0.00045268506347157124,0.08621763276176118,4.393926372039262,0,0,0,-4,-38,0,0,30,39,5,"",""
212,257416540,0,0,0,0,0,0,0,0,0,-8,-82,0,1000,146,139,-26,27,0,5,-169,-109,2091,128,440,259,372,1,8,0,1,1,-0.00009888826574158838,0.08618658115802437,4.393811681728833,0,0,0,-4,-38,0,0,31,38,5,"",""
213,257417895,0,0,0,0,0,0,0,0,0,-8,-83,0,1000,148,139,-26,28,-1,6,-167,-112,2089,128,360,135,221,1,8,0,1,1,0.0002749915679392485,0.08612744032588641,4.3936727529801045,0,0,0,-4,-39,0,0,32,38,6,"",""
214,257419251,0,0,0,0,0,0,0,0,0,-8,-83,0,1000,148,139,-26,29,-2,6,-164,-111,2088,128,433,247,353,1,8,0,1,1,0.0006746322359505511,0.08603751416490853,4.393533721808537,0,0,0,-4,-39,0,0,33,37,6,"",""
215,257420587,0,0,0,0,0,0,0,0,0,-8,-83,0,1000,148,139,-26,30,-3,5,-160,-108,2087,179,334,128,176,1,8,0,1,1,0.0010920556537981326,0.08591550130354296,4.393420153028937,0,0,0,-4,-39,0,0,34,36,5,"",""
216,257421930,0,0,0,0,0,0,0,0,0,-8,-84,0,1000,148,139,-26,30,-4,3,-158,-104,2085,128,357,150,262,1,8,0,1,1,0.0015184800228684563,0.08576595892610583,4.393352965655263,0,0,0,-4,-39,0,0,34,35,3,"",""
217,257423257,0,0,0,0,0,0,0,0,0,-8,-84,0,1000,148,139,-26,31,-3,3,-158,-100,2084,128,449,238,351,1,8,0,1,1,0.0019687407810884618,0.08564178984468877,4.393286484433155,0,0,0,-4,-39,0,0,35,36,3,"",""
218,257424581,0,0,0,0,0,0,0,0,0,-8,-84,0,1000,148,139,-26,32,-3,0,-155,-95,2084,129,435,128,375,1,8,0,1,1,0.0024460434737282807,0.08551106164800788,4.393289626533084,0,0,0,-4,-39,0,0,36,36,0,"",""
219,257425937,0,0,0,0,0,0,0,0,0,-8,-84,0,1000,148,139,-26,31,-4,-3,-151,-87,2084,301,377,128,326,1,8,0,1,1,0.0029306900278664966,0.08534598991870503,4.39336390513716,0,0,0,-4,-39,0,0,35,35,-3,"",""
220,257427297,0,0,0,0,0,0,0,0,0,-8,-85,0,1000,148,139,-26,31,-4,-5,-150,-78,2084,412,486,128,480,1,8,0,1,1,0.0034350076530805817,0.08517943637787348,4.3934858247341175,0,0,0,-4,-40,0,0,35,36,-5,"",""
221,257428638,0,0,0,0,0,0,0,0,0,-9,-85,0,1000,148,0,-26,31,-5,-5,-151,-68,2084,411,442,128,423,1,8,0,1,1,0.003953123874817724,0.0849946918960963,4.393605929184739,0,0,0,-4,-40,0,0,35,35,-5,"",""
222,257429983,0,0,0,0,0,0,0,0,0,-10,-85,0,1000,148,0,-26,31,-7,-5,-151,-59,2084,375,323,128,371,1,8,0,1,1,0.004494421393684526,0.08476420249925808,4.3937264053197795,0,0,0,-4,-40,0,0,35,33,-5,"",""
223,257431313,0,0,0,0,0,0,0,0,0,-11,-85,0,1000,148,0,-26,30,-7,-4,-152,-52,2083,354,367,128,388,1,8,0,1,1,0.0050223210934561245,0.08453969399873876,4.39382214643493,0,0,0,-5,-40,0,0,35,33,-4,"",""
224,257432648,0,0,0,0,0,0,0,0,0,-11,-85,0,1000,148,0,-26,30,-8,-3,-153,-46,2081,213,273,0,238,1,8,0,1,1,0.005567858678789268,0.08429569475258296,4.3938949094900215,0,0,0,-5,-40,0,0,35,32,-3,"",""
225,257433998,0,0,0,0,0,0,0,0,0,-12,-85,0,1000,148,0,-26,30,-7,-1,-156,-39,2078,187,340,0,305,1,8,0,1,1,0.006140581934521223,0.08408249177092852,4.393920953395759,0,0,0,-5,-40,0,0,35,33,-1,"",""
226,257435512,0,0,0,0,0,0,0,0,0,-13,-85,0,1000,148,0,-26,30,-7,2,-160,-34,2075,144,309,0,248,1,8,0,1,1,0.00681526436230712,0.08386081817092382,4.3938704428665645,0,0,0,-6,-40,0,0,36,33,2,"",""
227,257437008,0,0,0,0,0,0,0,0,0,-13,-85,0,1000,148,0,-26,30,-7,2,-161,-28,2073,84,214,0,146,1,8,0,1,1,0.007492566259130335,0.08364550978681007,4.39382052813668,0,0,0,-6,-40,0,0,36,33,2,"",""
228,257438371,0,0,0,0,0,0,0,0,0,-14,-85,0,1000,152,0,-26,30,-7,2,-164,-23,2070,53,193,0,144,1,8,0,1,1,0.008109679701967566,0.0834557093914532,4.3937751351599905,0,0,0,-6,-40,0,0,36,33,2,"",""
229,257439700,0,0,0,0,0,0,0,0,0,-14,-86,0,1000,152,0,-26,31,-6,5,-166,-15,2067,0,270,53,79,1,8,0,1,1,0.00875508408352187,0.08329913132225138,4.393660790511539,0,0,0,-6,-40,0,0,37,34,5,"",""
230,257441038,0,0,0,0,0,0,0,0,0,-14,-86,0,1000,152,0,-26,32,-5,6,-164,-7,2064,0,371,206,207,1,8,0,1,1,0.009447542921108469,0.08316106164025205,4.3935219400562895,0,0,0,-6,-40,0,0,38,35,6,"",""
231,257442369,0,0,0,0,0,0,0,0,0,-15,-86,0,1000,152,0,-26,31,-4,7,-160,1,2062,0,394,322,362,1,8,0,1,1,0.010131468139992399,0.08303769487839062,4.39336019224651,0,0,0,-7,-40,0,0,38,36,7,"",""
232,257443722,0,0,0,0,0,0,0,0,0,-15,-86,0,1000,152,0,-26,31,-3,8,-160,11,2059,0,435,391,347,1,8,0,1,1,0.010850928629048049,0.08293721874103234,4.393171677572664,0,0,0,-7,-40,0,0,38,37,8,"",""
233,257445085,0,0,0,0,0,0,0,0,0,-16,-86,0,1000,152,0,-26,31,-1,8,-166,19,2060,3,419,385,0,1,8,0,1,1,0.011592069923939125,0.08289849040647922,4.392981115472153,0,0,0,-7,-40,0,0,38,39,8,"",""
234,257446463,0,0,0,0,0,0,0,0,0,-16,-86,0,1000,152,0,-26,30,0,7,-171,25,2064,0,445,543,393,1,8,0,1,1,0.012326480976023556,0.08289518589263555,4.392812204161935,0,0,0,-7,-40,0,0,37,40,7,"",""
235,257447792,0,0,0,0,0,0,0,0,0,-16,-86,0,1000,152,0,-26,28,-1,4,-181,31,2067,0,310,226,386,1,8,0,1,1,0.012993831163116793,0.08289340872700018,4.392719312536396,0,0,0,-7,-40,0,0,35,39,4,"",""
236,257449123,0,0,0,0,0,0,0,0,0,-16,-86,0,1000,152,670,-26,28,1,1,-200,33,2073,0,270,215,202,1,8,0,1,1,0.013657738712407694,0.08298350438670876,4.3926955611810845,0,0,0,-7,-40,0,0,35,41,1,"",""
237,257450470,0,0,0,0,0,0,0,0,0,-16,-86,0,1000,152,670,-26,26,3,-1,-220,33,2081,0,213,191,187,1,8,0,1,1,0.01427516612267487,0.08316735440249177,4.392718033430061,0,0,0,-7,-40,0,0,33,43,-1,"",""
238,257451803,0,0,0,0,0,0,0,0,0,-16,-86,0,1000,152,670,-26,25,1,-6,-245,32,2088,182,226,0,294,1,8,0,1,1,0.014847615346355732,0.08336341814517219,4.392857678477848,0,0,0,-7,-40,0,0,32,41,-6,"",""
239,257453161,0,0,0,0,0,0,0,0,0,-16,-86,0,1000,152,670,-26,26,1,-8,-279,27,2095,344,441,0,481,1,8,0,1,1,0.015435069102675168,0.08363942558317816,4.393047619453558,0,0,0,-7,-40,0,0,33,41,-8,"",""
240,257454522,0,0,0,0,0,0,0,0,0,-16,-86,0,1000,152,670,-26,26,3,-9,-316,18,2104,350,473,0,413,1,8,0,1,1,0.01599691354575454,0.08404772684869871,4.393261258193187,0,0,0,-7,-40,0,0,33,43,-9,"",""
241,257455863,0,0,0,0,0,0,0,0,0,-16,-86,0,1000,152,670,-26,26,1,-9,-348,12,2112,309,272,0,407,1,8,0,1,1,0.01653241951897371,0.0844799662691829,4.393472661396346,0,0,0,-7,-40,0,0,33,41,-9,"",""
242,257457195,0,0,0,0,0,0,0,0,0,-16,-86,0,1000,152,670,-26,26,0,-9,-383,7,2119,331,290,0,418,1,8,0,1,1,0.017049095592065282,0.08496717419277872,4.3936831706431745,0,0,0,-7,-40,0,0,33,40,-9,"",""
243,257458529,0,0,0,0,0,0,0,0,0,-16,-86,0,1000,148,670,-26,26,1,-6,-423,1,2126,333,392,0,416,1,8,0,1,1,0.017555523571422624,0.0855655846928714,4.393823649389583,0,0,0,-7,-40,0,0,33,41,-6,"",""
244,257459858,0,0,0,0,0,0,0,0,0,-16,-86,0,1000,148,670,-26,25,1,-3,-458,-5,2133,77,222,0,395,1,8,0,1,1,0.01802569683166138,0.08623885107529952,4.393893916950729,0,0,0,-7,-40,0,0,32,41,-3,"",""
245,257461200,0,0,0,0,0,0,0,0,0,-16,-86,0,1000,148,670,-26,23,-1,-1,-486,-10,2139,104,126,0,260,1,8,0,1,1,0.018444632692880505,0.08692386072663846,4.39391883667287,0,0,0,-7,-40,0,0,30,39,-1,"",""
246,257462563,0,0,0,0,0,0,0,0,0,-16,-86,0,1000,148,670,-26,23,-1,0,-513,-13,2144,0,293,168,442,1,8,0,1,1,0.018864949833932557,0.08766436211503646,4.393920338581225,0,0,0,-7,-40,0,0,30,39,0,"",""
247,257463967,0,0,0,0,0,0,0,0,0,-16,-86,0,1000,148,670,-26,22,-1,2,-540,-13,2148,0,367,322,524,1,8,0,1,1,0.01927967140479722,0.08845898310149103,4.393872674379073,0,0,0,-7,-40,0,0,29,39,2,"",""
248,257465444,0,0,0,0,0,0,0,0,0,-16,-86,0,1000,148,670,-26,21,-2,4,-562,-11,2151,0,246,178,392,1,8,0,1,1,0.01970428934286687,0.0892692631437124,4.393771197579308,0,0,0,-7,-40,0,0,28,38,4,"",""
249,257466912,0,0,0,0,0,0,0,0,0,-16,-86,0,1000,148,670,-26,21,-3,4,-579,-8,2154,0,300,202,377,1,8,0,1,1,0.020130759926648156,0.0900859970932211,4.3936708069687125,0,0,0,-7,-40,0,0,28,37,4,"",""
250,257468248,0,0,0,0,0,0,0,0,0,-16,-86,0,1000,148,670,-26,21,-3,4,-593,-2,2155,0,422,424,582,1,8,0,1,1,0.020520546915703732,0.09093461883489173,4.393579408164385,0,0,0,-7,-40,0,0,28,37,4,"",""
251,257469584,0,0,0,0,0,0,0,0,0,-16,-86,0,1000,148,256,-26,20,-4,5,-603,8,2155,0,339,355,528,1,8,0,1,1,0.02091089188682791,0.09177503293547348,4.3934648871177115,0,0,0,-7,-40,0,0,27,36,5,"",""
252,257470936,0,0,0,0,0,0,0,0,0,-16,-86,0,1000,148,256,-26,18,-4,5,-611,21,2154,0,295,345,484,1,8,0,1,1,0.021288510207547403,0.09262531699205094,4.393348730317719,0,0,0,-7,-40,0,0,25,36,5,"",""
253,257472302,0,0,0,0,0,0,0,0,0,-16,-86,0,1000,148,256,-26,17,-4,5,-615,36,2152,0,378,447,593,1,8,0,1,1,0.021679978495621092,0.09347655207232258,4.393231079015998,0,0,0,-7,-40,0,0,24,36,5,"",""
254,257473642,0,0,0,0,0,0,0,0,0,-17,-86,0,1000,148,256,-26,16,-5,5,-617,51,2149,0,403,471,628,1,8,0,1,1,0.022073094269396902,0.09430397899144997,4.393115904657802,0,0,0,-7,-40,0,0,23,35,5,"",""
255,257474982,0,0,0,0,0,0,0,0,0,-18,-86,0,1000,148,256,-26,15,-5,3,-617,66,2146,0,310,361,528,1,8,0,1,1,0.022471171297316832,0.09512566195071274,4.393047446343974,0,0,0,-8,-40,0,0,23,35,3,"",""
256,257476310,0,0,0,0,0,0,0,0,0,-19,-86,0,1000,148,256,-26,16,-5,-1,-618,81,2142,128,459,398,596,1,8,0,1,1,0.022912750363000483,0.09594630407904106,4.393072474004665,0,0,0,-8,-40,0,0,24,35,-1,"",""
257,257477647,0,0,0,0,0,0,0,0,0,-19,-86,0,1000,148,256,-26,17,-5,-3,-624,95,2138,128,378,255,527,1,8,0,1,1,0.023405217276018818,0.09677441759397142,4.393144364633901,0,0,0,-8,-40,0,0,25,35,-3,"",""
258,257478984,0,0,0,0,0,0,0,0,0,-20,-86,0,1000,149,256,-26,18,-5,-4,-631,106,2134,171,391,128,500,1,8,0,1,1,0.023941030274606805,0.09761247312478598,4.39323958544642,0,0,0,-9,-40,0,0,27,35,-4,"",""
259,257480347,0,0,0,0,0,0,0,0,0,-21,-86,0,1000,149,256,-26,19,-6,-5,-636,118,2131,320,398,128,397,1,8,0,1,1,0.024530313380708213,0.09842983731186504,4.39336106080226,0,0,0,-9,-40,0,0,28,34,-5,"",""
260,257481730,0,0,0,0,0,0,0,0,0,-21,-86,0,1000,149,256,-26,19,-8,-5,-646,132,2129,322,352,128,399,1,8,0,1,1,0.025154151454033043,0.09921277494816669,4.393485451170751,0,0,0,-9,-40,0,0,28,32,-5,"",""
261,257483072,0,0,0,0,0,0,0,0,0,-21,-86,0,1000,149,256,-26,20,-7,-3,-657,145,2130,352,416,128,502,1,8,0,1,1,0.025818307849350516,0.10004069735660227,4.393558394630928,0,0,0,-9,-40,0,0,29,33,-3,"",""
262,257484424,0,0,0,0,0,0,0,0,0,-22,-86,0,1000,149,256,-26,19,-8,-4,-665,155,2131,248,260,128,402,1,8,0,1,1,0.026478434590020816,0.10085482714547242,4.3936562348922905,0,0,0,-10,-40,0,0,29,32,-4,"",""
263,257485756,0,0,0,0,0,0,0,0,0,-22,-86,0,1000,149,256,-26,18,-10,-5,-668,163,2130,241,220,128,332,1,8,0,1,1,0.027120497800066874,0.10162575193185841,4.3937772901853736,0,0,0,-10,-40,0,0,28,30,-5,"",""
264,257487091,0,0,0,0,0,0,0,0,0,-22,-86,0,1000,149,256,-26,18,-10,-6,-670,166,2129,313,322,128,446,1,8,0,1,1,0.0277639554191208,0.10239454641035395,4.393922236818585,0,0,0,-10,-40,0,0,28,30,-6,"",""
265,257488492,0,0,0,0,0,0,0,0,0,-23,-86,0,1000,149,256,-26,17,-10,-7,-670,166,2129,280,248,128,415,1,8,0,1,1,0.028396569534342792,0.10314595422502042,4.3940992834819,0,0,0,-10,-40,0,0,27,30,-7,"",""
266,257489859,0,0,0,0,0,0,0,0,0,-23,-86,0,1000,149,0,-26,17,-12,-6,-666,164,2130,309,258,128,341,1,8,0,1,1,0.02901355633529264,0.10383936911133448,4.3942496899533126,0,0,0,-10,-40,0,0,27,28,-6,"",""
267,257491228,0,0,0,0,0,0,0,0,0,-23,-86,0,1000,149,0,-26,17,-13,-5,-658,161,2131,298,287,128,348,1,8,0,1,1,0.029623107466853246,0.10448392339618903,4.394377350689933,0,0,0,-10,-40,0,0,27,27,-5,"",""
268,257492573,0,0,0,0,0,0,0,0,0,-23,-86,0,1000,149,0,-26,17,-14,-3,-648,157,2131,249,236,128,327,1,8,0,1,1,0.030218198990789643,0.10508135682298249,4.394456618067109,0,0,0,-10,-40,0,0,27,26,-3,"",""
269,257494040,0,0,0,0,0,0,0,0,0,-23,-86,0,1000,149,0,-26,17,-14,-1,-634,153,2130,213,213,128,334,1,8,0,1,1,0.03084173802867404,0.10561198926100637,4.3944921226476605,0,0,0,-10,-40,0,0,27,26,-1,"",""
270,257495508,0,0,0,0,0,0,0,0,0,-24,-86,0,1000,149,0,-26,15,-14,0,-619,151,2127,128,131,139,247,1,8,0,1,1,0.03140956389986533,0.10610461481672022,4.394502224602808,0,0,0,-10,-40,0,0,25,26,0,"",""
271,257496838,0,0,0,0,0,0,0,0,0,-24,-86,0,1000,149,0,-26,14,-14,1,-601,150,2123,128,140,184,253,1,8,0,1,1,0.0319157718639865,0.10658725998323051,4.39448819377707,0,0,0,-10,-40,0,0,24,26,1,"",""
272,257498196,0,0,0,0,0,0,0,0,0,-24,-86,0,1000,151,0,-26,12,-14,2,-582,148,2119,128,222,294,344,1,8,0,1,1,0.03237720151627328,0.10701771692704709,4.3944503182488575,0,0,0,-10,-40,0,0,22,26,2,"",""
273,257499558,0,0,0,0,0,0,0,0,0,-24,-86,0,1000,151,0,-26,12,-14,2,-562,147,2114,128,180,217,313,1,8,0,1,1,0.03283503119270618,0.1074012002169069,4.394412570900302,0,0,0,-10,-40,0,0,22,26,2,"",""
274,257500901,0,0,0,0,0,0,0,0,0,-24,-86,0,1000,151,0,-26,12,-14,1,-541,146,2109,128,255,243,358,1,8,0,1,1,0.03328194735303492,0.1077424856431696,4.394399130054071,0,0,0,-10,-40,0,0,22,26,1,"",""
275,257502235,0,0,0,0,0,0,0,0,0,-24,-86,0,1000,151,0,-26,13,-14,1,-522,146,2103,128,237,206,327,1,8,0,1,1,0.03374806541473847,0.10804334372946903,4.394385996725053,0,0,0,-10,-40,0,0,23,26,1,"",""
276,257503568,0,0,0,0,0,0,0,0,0,-24,-86,0,1000,151,0,-26,13,-13,2,-503,147,2095,128,363,306,444,1,8,0,1,1,0.03421668867330258,0.10832509495122163,4.394348896326437,0,0,0,-10,-40,0,0,23,27,2,"",""
277,257504958,0,0,0,0,0,0,0,0,0,-24,-86,0,1000,151,0,-26,14,-12,1,-480,149,2088,128,346,283,421,1,8,0,1,1,0.03472219968366515,0.10856881605978634,4.39433399429979,0,0,0,-10,-40,0,0,24,28,1,"",""
278,257506299,0,0,0,0,0,0,0,0,0,-24,-86,0,1000,151,0,-26,13,-13,0,-455,152,2080,128,156,179,289,1,8,0,1,1,0.035194082630862274,0.10874673941165923,4.3943441308157505,0,0,0,-10,-40,0,0,23,27,0,"",""
279,257507675,0,0,0,0,0,0,0,0,0,-24,-86,0,1000,151,0,-26,13,-10,-1,-431,153,2074,128,271,187,218,1,8,0,1,1,0.03567151397964468,0.1089380128128847,4.394376321226831,0,0,0,-10,-40,0,0,23,30,-1,"",""
280,257509042,0,0,0,0,0,0,0,0,0,-25,-86,0,1000,151,0,-26,13,-8,0,-405,152,2069,128,280,222,244,1,8,0,1,1,0.03614538203081045,0.1091220329406052,4.394382755485509,0,0,0,-11,-40,0,0,24,32,0,"",""
281,257510369,0,0,0,0,0,0,0,0,0,-26,-85,0,1000,151,0,-26,12,-8,-2,-376,151,2064,128,236,229,426,1,8,0,1,1,0.03657786620825605,0.10925192569127747,4.394435691060644,0,0,0,-11,-40,0,0,23,32,-2,"",""
282,257511696,0,0,0,0,0,0,0,0,0,-27,-84,0,1000,151,0,-26,12,-7,-3,-349,149,2060,128,336,159,401,1,8,0,1,1,0.03700167062277319,0.1093489060013998,4.394511184808219,0,0,0,-12,-39,0,0,24,32,-3,"",""
283,257513035,0,0,0,0,0,0,0,0,0,-28,-83,0,1000,151,0,-26,13,-5,-3,-327,144,2059,215,384,128,317,1,8,0,1,1,0.037438644086158615,0.10944436359776419,4.3945857384562785,0,0,0,-12,-39,0,0,25,34,-3,"",""
284,257514372,0,0,0,0,0,0,0,0,0,-28,-82,0,1000,151,0,-26,11,-6,-4,-305,137,2061,128,169,143,328,1,8,0,1,1,0.037808935680459954,0.10947065163243792,4.394684629298868,0,0,0,-12,-38,0,0,23,32,-4,"",""
285,257515722,0,0,0,0,0,0,0,0,0,-29,-81,0,1000,151,0,-26,10,-6,-4,-288,130,2064,128,211,223,420,1,8,0,1,1,0.03814131696164115,0.10945930131250686,4.394784585644521,0,0,0,-13,-38,0,0,23,32,-4,"",""
286,257517087,0,0,0,0,0,0,0,0,0,-30,-80,0,1000,151,0,-26,9,-5,-3,-272,123,2072,128,331,393,536,1,8,0,1,1,0.03843818510075029,0.10943419030611133,4.394860875530589,0,0,0,-13,-37,0,0,22,32,-3,"",""
287,257518432,0,0,0,0,0,0,0,0,0,-30,-80,0,1000,152,0,-26,6,-5,-2,-254,116,2081,128,181,273,403,1,8,0,1,1,0.03864766930532172,0.10937073604478612,4.394912513566326,0,0,0,-13,-37,0,0,19,32,-2,"",""
288,257519765,0,0,0,0,0,0,0,0,0,-30,-80,0,1000,152,0,-26,4,-6,-3,-245,108,2091,128,179,273,414,1,8,0,1,1,0.03878847067797418,0.10926554649429793,4.394988038624481,0,0,0,-13,-37,0,0,17,31,-3,"",""
289,257521110,0,0,0,0,0,0,0,0,0,-30,-80,0,1000,152,0,-26,3,-5,-2,-245,94,2100,128,385,495,601,1,8,0,1,1,0.038878854943232226,0.10918006242684263,4.395039786686243,0,0,0,-13,-37,0,0,16,32,-2,"",""
290,257522657,0,0,0,0,0,0,0,0,0,-31,-80,0,1000,152,0,-26,2,-4,-1,-243,78,2110,128,422,563,689,1,8,0,1,1,0.038920805390212705,0.10909724612117669,4.395071161831678,0,0,0,-14,-37,0,0,16,33,-1,"",""
291,257524152,0,0,0,0,0,0,0,0,0,-31,-79,0,1000,152,0,-26,1,-5,-3,-243,64,2121,128,206,311,442,1,8,0,1,1,0.03889943072356715,0.10899203833993865,4.395154988829847,0,0,0,-14,-37,0,0,15,32,-3,"",""
292,257525531,0,0,0,0,0,0,0,0,0,-31,-79,0,1000,152,0,-26,0,-4,-4,-253,51,2133,128,470,513,738,1,8,0,1,1,0.038822818799190834,0.10893969281771254,4.395255575811875,0,0,0,-14,-37,0,0,14,33,-4,"",""
293,257526900,0,0,0,0,0,0,0,0,0,-32,-78,0,1008,152,0,-26,0,-2,-3,-267,37,2145,128,435,555,619,1,8,0,1,1,0.0387199820027564,0.1089605593726035,4.395329559378412,0,0,0,-14,-36,0,0,14,34,-3,"",""
294,257528236,0,0,0,0,0,0,0,0,0,-33,-78,0,1008,152,0,-26,-2,-3,-3,-278,23,2156,128,322,464,613,1,8,0,1,1,0.03854206479344281,0.10897892758613809,4.395402673134451,0,0,0,-14,-36,0,0,12,33,-3,"",""
295,257529567,0,0,0,0,0,0,0,0,0,-33,-77,0,1008,152,1150,-26,-1,-2,-3,-289,11,2165,128,327,355,626,1,8,0,1,1,0.0383635534353235,0.10904059894614061,4.395474612403137,0,0,0,-14,-36,0,0,13,34,-3,"",""
296,257530916,0,0,0,0,0,0,0,0,0,-34,-76,0,1008,152,1150,-26,-1,-1,-3,-299,5,2172,128,524,587,802,1,8,0,1,1,0.0381731785141952,0.10914312036254317,4.395546611462697,0,0,0,-15,-35,0,0,14,34,-3,"",""
297,257532253,0,0,0,0,0,0,0,0,0,-35,-75,0,1008,152,1150,-26,-2,-1,-3,-309,1,2179,128,380,514,684,1,8,0,1,1,0.03795247641250148,0.10926353816610629,4.395617967648631,0,0,0,-15,-35,0,0,13,34,-3,"",""
298,257533597,0,0,0,0,0,0,0,0,0,-36,-75,0,1008,152,1150,-26,-2,-1,-2,-317,0,2185,128,532,609,812,1,8,0,1,1,0.037732992445707124,0.10939669250784012,4.395666108867638,0,0,0,-16,-35,0,0,14,34,-2,"",""
299,257534959,0,0,0,0,0,0,0,0,0,-37,-74,0,1008,152,1150,-26,-2,-1,-5,-321,-1,2191,128,360,401,648,1,8,0,1,1,0.0375039732339167,0.10953786323301895,4.3957865804305625,0,0,0,-16,-34,0,0,14,33,-5,"",""
300,257536309,0,0,0,0,0,0,0,0,0,-38,-74,0,1026,152,1150,-26,-2,-1,-8,-325,0,2194,128,408,314,690,1,8,0,1,1,0.037270990445036394,0.10968801936946267,4.395977049204042,0,0,0,-17,-34,0,0,15,33,-8,"",""
301,257537639,0,0,0,0,0,0,0,0,0,-39,-74,0,1026,152,1150,-26,0,1,-9,-332,2,2196,263,470,128,586,1,8,0,1,1,0.037088172682585074,0.10989771852623101,4.396186300723437,0,0,0,-17,-34,0,0,17,35,-9,"",""
