"Product","Blackbox flight data recorder by Nicholas Sherlock"
"firmwareType",3
"firmware","3.3"
"firmwarePatch",3
"firmwareVersion","3.3.3"
"Firmware revision","Betaflight 3.3.3 (4dd6907a9) MATEKF722"
"Firmware date","Jun 11 2022 14:50:31"
"Log start datetime","0000-01-01T00:00:00.000+00:00"
"Craft name","NEUROFLIGHT"
"frameIntervalI",32
"frameIntervalPNum",1
"frameIntervalPDenom",1
"minthrottle",1070
"maxthrottle",2000
"gyroScale",1.7453292519943295e-8
"motorOutput","128,2047"
"acc_1G",2048
"vbatscale",110
"vbatmincellvoltage",33
"vbatwarningcellvoltage",35
"vbatmaxcellvoltage",43
"vbatref",154
"currentMeterOffset",0
"currentMeterScale",179
"looptime",125
"gyro_sync_denom",1
"pid_process_denom",8
"thrMid",50
"thrExpo",0
"dynThrPID",10
"tpa_breakpoint",1650
"rc_rates","100,100,100"
"rc_expo","0,0,0"
"rates","70,70,70"
"rollPID","40,40,30"
"pitchPID","58,50,35"
"yawPID","70,45,20"
"altPID","50,0,0"
"posPID","15,0,0"
"posrPID","34,14,53"
"navrPID","25,33,83"
"levelPID","50,50,75"
"magPID","40,,"
"velPID","55,55,75"
"dterm_filter_type",1
"dterm_lpf_hz",100
"yaw_lpf_hz",0
"dterm_notch_hz",260
"dterm_notch_cutoff",160
"itermWindupPointPercent",50
"vbat_pid_compensation",0
"pidAtMinThrottle",1
"anti_gravity_threshold",350
"anti_gravity_gain",1000
"setpointRelaxRatio",100
"dtermSetpointWeight",0
"yawRateAccelLimit",0.1
"rateAccelLimit",0
"pidSumLimit",500
"pidSumLimitYaw",400
"deadband",0
"yaw_deadband",0
"gyro_lpf",0
"gyro_soft_type",0
"gyro_lowpass_hz",90
"gyro_notch_hz","400,200"
"gyro_notch_cutoff","300,100"
"acc_lpf_hz",1000
"acc_hardware",0
"baro_hardware",0
"mag_hardware",0
"gyro_cal_on_first_arm",0
"rc_interpolation",2
"rc_interpolation_interval",19
"airmode_activate_throttle",32
"serialrx_provider",2
"unsynced_fast_pwm",0
"fast_pwm_protocol",7
"motor_pwm_rate",480
"digitalIdleOffset",400
"debug_mode",0
"features",263176
"loopIteration","time","axisP[0]","axisP[1]","axisP[2]","axisI[0]","axisI[1]","axisI[2]","axisD[0]","axisD[1]","axisD[2]","rcCommand[0]","rcCommand[1]","rcCommand[2]","rcCommand[3]","vbatLatest","amperageLatest","BaroAlt","gyroADC[0]","gyroADC[1]","gyroADC[2]","accSmooth[0]","accSmooth[1]","accSmooth[2]","motor[0]","motor[1]","motor[2]","motor[3]","flightModeFlags","stateFlags","failsafePhase","rxSignalReceived","rxFlightChannelsValid","heading[0]","heading[1]","heading[2]","axisSum[0]","axisSum[1]","axisSum[2]","rcCommands[0]","rcCommands[1]","rcCommands[2]","rcCommands[3]","axisError[0]","axisError[1]","axisError[2]"
0,22574183,0,0,0,0,0,0,0,0,0,-139,-2,0,1000,172,899,1,-16,0,1,-162,356,2093,176,125,0,114,"","","","","",0.16847838479320165,0.07615736703142949,4.396484368517526,0,0,0,-71,-1,0,0,55,1,1,"",""
1,22575536,0,0,0,0,0,0,0,0,0,-138,-2,0,1000,172,899,1,-16,0,2,-163,353,2094,222,176,0,132,1,8,0,1,1,0.1675548808863663,0.07637906827778418,4.396437665129452,0,0,0,-70,-1,0,0,54,1,2,"",""
2,22577019,0,0,0,0,0,0,0,0,0,-137,-2,0,1000,172,899,1,-15,-1,2,-164,351,2094,135,96,0,56,1,8,0,1,1,0.1668054859145665,0.07659315645527279,4.396390773285841,0,0,0,-70,-1,0,0,55,0,2,"",""
3,22578484,0,0,0,0,0,0,0,0,0,-136,-2,0,1000,172,899,1,-15,-1,3,-164,350,2094,111,93,0,61,1,8,0,1,1,0.16622340142149136,0.07669033484906093,4.39631913367082,0,0,0,-69,-1,0,0,54,0,3,"",""
4,22579847,0,0,0,0,0,0,0,0,0,-136,-2,0,1000,172,899,1,-15,-1,3,-163,350,2094,98,85,0,52,1,8,0,1,1,0.16581982806938997,0.07664926417559378,4.396252472703623,0,0,0,-69,-1,0,0,54,0,3,"",""
5,22581206,0,0,0,0,0,0,0,0,0,-135,-2,0,1000,172,899,1,-16,-1,3,-161,348,2094,51,61,0,52,1,8,0,1,1,0.1653180038650622,0.07646138961521234,4.396185982732618,0,0,0,-68,-1,0,0,52,0,3,"",""
6,22582547,0,0,0,0,0,0,0,0,0,-135,-2,0,1000,172,899,1,-17,-1,3,-158,346,2093,53,105,0,124,1,8,0,1,1,0.1647681904479452,0.07612766121525424,4.3961203510400155,0,0,0,-68,-1,0,0,51,0,3,"",""
7,22583888,0,0,0,0,0,0,0,0,0,-134,-2,0,1000,154,0,1,-17,0,3,-156,344,2091,49,100,0,123,1,8,0,1,1,0.16420968988345305,0.07578572556842535,4.396050859968955,0,0,0,-68,-1,0,0,51,1,3,"",""
8,22585221,0,0,0,0,0,0,0,0,0,-134,-2,0,1000,154,0,1,-18,0,3,-153,341,2088,39,82,0,112,1,8,0,1,1,0.16358298463946783,0.07537490281248063,4.395981771105806,0,0,0,-68,-1,0,0,50,1,3,"",""
9,22586546,0,0,0,0,0,0,0,0,0,-134,-2,0,1000,154,0,1,-18,1,2,-151,336,2086,86,105,0,136,1,8,0,1,1,0.16282231397309946,0.07498430285238791,4.395932186773845,0,0,0,-68,-1,0,0,50,2,2,"",""
10,22587891,0,0,0,0,0,0,0,0,0,-134,-2,0,1000,154,0,1,-19,1,1,-150,331,2083,97,123,0,180,1,8,0,1,1,0.16194137572553313,0.07463863188033011,4.395905090202588,0,0,0,-68,-1,0,0,49,2,1,"",""
11,22589249,0,0,0,0,0,0,0,0,0,-133,-2,0,1000,154,0,1,-19,1,-1,-149,325,2081,228,204,0,251,1,8,0,1,1,0.16094059509328681,0.07432819949901873,4.395924661458755,0,0,0,-67,-1,0,0,48,2,-1,"",""
12,22590690,0,0,0,0,0,0,0,0,0,-132,-2,0,1000,154,0,1,-19,1,-2,-147,320,2079,343,263,0,301,1,8,0,1,1,0.15986211679846904,0.07400702321294725,4.39597037035974,0,0,0,-67,-1,0,0,48,2,-2,"",""
13,22592021,0,0,0,0,0,0,0,0,0,-131,-2,0,1000,154,0,1,-18,1,-3,-147,315,2075,396,304,0,376,1,8,0,1,1,0.1588102045647203,0.0737466447568281,4.396035628940308,0,0,0,-66,-1,0,0,48,2,-3,"",""
14,22593354,0,0,0,0,0,0,0,0,0,-130,-2,0,1000,154,0,1,-18,1,-4,-147,311,2072,512,377,0,444,1,8,0,1,1,0.1577566981573106,0.07353469002069306,4.396124077772071,0,0,0,-65,-1,0,0,47,2,-4,"",""
15,22594694,0,0,0,0,0,0,0,0,0,-129,-2,0,1000,154,0,1,-17,0,-5,-146,307,2069,516,338,0,378,1,8,0,1,1,0.15672142356384947,0.0733112057352314,4.396239874200952,0,0,0,-65,-1,0,0,48,1,-5,"",""
16,22596022,0,0,0,0,0,0,0,0,0,-127,-2,0,1000,154,0,1,-16,-1,-4,-145,304,2068,500,309,0,347,1,8,0,1,1,0.15573074079896684,0.07306447454625907,4.396335305198194,0,0,0,-64,-1,0,0,48,0,-4,"",""
17,22597370,0,0,0,0,0,0,0,0,0,-126,-2,0,1000,154,0,1,-16,-1,-4,-144,301,2067,482,318,0,374,1,8,0,1,1,0.1547482024763794,0.07282043068117647,4.396432156785132,0,0,0,-63,-1,0,0,47,0,-4,"",""
18,22598733,0,0,0,0,0,0,0,0,0,-125,-2,0,1000,154,0,1,-16,-2,-2,-142,300,2067,335,179,0,210,1,8,0,1,1,0.1538223374095313,0.07252185121668553,4.396486586018502,0,0,0,-62,-1,0,0,46,-1,-2,"",""
19,22600083,0,0,0,0,0,0,0,0,0,-125,-2,0,1000,154,0,1,-16,-3,-1,-141,299,2069,286,182,0,224,1,8,0,1,1,0.15294315141463063,0.0721985226938687,4.396520691880276,0,0,0,-62,-1,0,0,46,-2,-1,"",""
20,22601422,0,0,0,0,0,0,0,0,0,-124,-2,0,1000,154,0,1,-16,-3,1,-139,300,2071,174,124,0,166,1,8,0,1,1,0.15215127446594826,0.07184713589945596,4.396508124575435,0,0,0,-62,-1,0,0,46,-2,1,"",""
21,22602754,0,0,0,0,0,0,0,0,0,-124,-2,0,1000,154,0,1,-17,-2,3,-137,300,2073,56,62,0,102,1,8,0,1,1,0.15139080625564538,0.07149302928756053,4.39644595131951,0,0,0,-62,-1,0,0,45,-1,3,"",""
22,22604082,0,0,0,0,0,0,0,0,0,-124,-2,0,1000,153,273,1,-18,-2,5,-135,300,2076,52,74,0,86,1,8,0,1,1,0.15065212740909126,0.0711144077747886,4.396337968814122,0,0,0,-62,-1,0,0,44,-1,5,"",""
23,22605441,0,0,0,0,0,0,0,0,0,-124,-2,0,1000,153,273,1,-18,-1,7,-134,300,2078,10,78,0,68,1,8,0,1,1,0.14994631435412553,0.07075605578024625,4.396176843795972,0,0,0,-62,-1,0,0,44,0,7,"",""
24,22606940,0,0,0,0,0,0,0,0,0,-123,-2,0,1000,153,273,1,-19,-1,7,-133,298,2081,0,65,8,49,1,8,0,1,1,0.14916737986497083,0.07039682094133277,4.395999080727729,0,0,0,-61,-1,0,0,42,0,7,"",""
25,22608439,0,0,0,0,0,0,0,0,0,-123,-2,0,1000,153,273,1,-19,0,7,-133,297,2083,40,97,0,69,1,8,0,1,1,0.14840629913378744,0.07008575689991832,4.395817398626428,0,0,0,-61,-1,0,0,42,1,7,"",""
26,22609767,0,0,0,0,0,0,0,0,0,-123,-2,0,1000,153,273,1,-18,0,6,-134,296,2085,127,177,0,116,1,8,0,1,1,0.14773481738125321,0.06981867617847265,4.395679398205124,0,0,0,-61,-1,0,0,43,1,6,"",""
27,22611096,0,0,0,0,0,0,0,0,0,-123,-2,0,1000,153,273,1,-17,0,3,-136,295,2085,174,171,0,134,1,8,0,1,1,0.14709729957656872,0.06961454663650521,4.395610286669606,0,0,0,-61,-1,0,0,44,1,3,"",""
28,22612424,0,0,0,0,0,0,0,0,0,-123,-2,0,1000,153,273,1,-16,0,1,-140,294,2085,258,221,0,168,1,8,0,1,1,0.14649359791432323,0.06949760169850676,4.395587192125733,0,0,0,-61,-1,0,0,45,1,1,"",""
29,22613756,0,0,0,0,0,0,0,0,0,-123,-2,0,1000,153,273,-3,-15,-1,-1,-143,294,2084,366,297,0,278,1,8,0,1,1,0.14593854698024294,0.0694221751602585,4.395613538646302,0,0,0,-61,-1,0,0,46,0,-1,"",""
30,22615100,0,0,0,0,0,0,0,0,0,-123,-2,0,1000,153,273,-3,-15,-1,-3,-145,294,2082,444,316,0,325,1,8,0,1,1,0.14540664864222103,0.06939078948948937,4.395686653115735,0,0,0,-61,-1,0,0,46,0,-3,"",""
31,22616458,0,0,0,0,0,0,0,0,0,-123,-2,0,1000,153,273,-3,-14,-2,-4,-147,295,2079,482,316,0,358,1,8,0,1,1,0.1449363036822969,0.0693746893779224,4.395787483832499,0,0,0,-61,-1,0,0,47,-1,-4,"",""
32,22617816,0,0,0,0,0,0,0,0,0,-123,-2,0,1000,153,273,-3,-14,-2,-4,-147,294,2076,518,350,0,401,1,8,0,1,1,0.14447618568689174,0.06936171684228631,4.395888300502988,0,0,0,-61,-1,0,0,47,-1,-4,"",""
33,22619154,0,0,0,0,0,0,0,0,0,-123,-2,0,1000,153,273,-3,-14,-2,-3,-147,292,2074,430,292,0,363,1,8,0,1,1,0.14401547586779045,0.06934798101509161,4.395964441372839,0,0,0,-61,-1,0,0,47,-1,-3,"",""
34,22620490,0,0,0,0,0,0,0,0,0,-123,-2,0,1000,153,273,-3,-14,-2,-1,-146,290,2071,330,207,0,259,1,8,0,1,1,0.14355373828271223,0.06931680500052533,4.395994177576891,0,0,0,-61,-1,0,0,47,-1,-1,"",""
35,22621819,0,0,0,0,0,0,0,0,0,-123,-2,0,1000,153,273,-3,-14,-2,1,-145,287,2070,232,152,0,185,1,8,0,1,1,0.14307504979177801,0.0692677767388715,4.3959776895341625,0,0,0,-61,-1,0,0,47,-1,1,"",""
36,22623146,0,0,0,0,0,0,0,0,0,-123,-2,0,1000,153,273,-3,-15,-2,4,-143,284,2069,99,80,0,97,1,8,0,1,1,0.1425588078996639,0.06918551318384943,4.39589223778589,0,0,0,-61,-1,0,0,46,-1,4,"",""
37,22624496,0,0,0,0,0,0,0,0,0,-123,-2,0,1000,153,407,-3,-15,-2,6,-142,281,2070,19,39,0,35,1,8,0,1,1,0.1420181395129463,0.06908525674214334,4.395758487134644,0,0,0,-61,-1,0,0,46,-1,6,"",""
38,22625848,0,0,0,0,0,0,0,0,0,-123,-2,0,1000,153,407,-3,-16,-2,8,-142,278,2071,24,62,0,20,1,8,0,1,1,0.14143704563574006,0.06898145503031633,4.395577636935212,0,0,0,-61,-1,0,0,45,-1,8,"",""
39,22627217,0,0,0,0,0,0,0,0,0,-123,-2,0,1000,153,407,-3,-16,-1,9,-142,274,2072,10,82,10,0,1,8,0,1,1,0.1408230317403154,0.06889965972473472,4.395367352073018,0,0,0,-61,-1,0,0,45,0,9,"",""
40,22628545,0,0,0,0,0,0,0,0,0,-123,-2,0,1000,153,407,-3,-16,-1,8,-144,271,2073,10,79,16,0,1,8,0,1,1,0.14020206245102412,0.06884881525159564,4.3951863007965635,0,0,0,-61,-1,0,0,45,0,8,"",""
41,22629871,0,0,0,0,0,0,0,0,0,-123,-2,0,1000,153,407,-3,-15,-1,7,-146,269,2075,65,131,12,0,1,8,0,1,1,0.13959739731862475,0.0688245299150555,4.395028444189532,0,0,0,-61,-1,0,0,46,0,7,"",""
42,22631204,0,0,0,0,0,0,0,0,0,-123,-2,0,1000,153,407,-3,-14,-1,4,-150,268,2076,150,210,0,35,1,8,0,1,1,0.13901661308548713,0.06885458993605788,4.3949390063847265,0,0,0,-61,-1,0,0,47,0,4,"",""
43,22632529,0,0,0,0,0,0,0,0,0,-123,-2,0,1000,153,407,-3,-13,-1,1,-154,268,2076,270,271,0,184,1,8,0,1,1,0.13847498643833847,0.06893672868471223,4.394918966841224,0,0,0,-61,-1,0,0,48,0,1,"",""
44,22633899,0,0,0,0,0,0,0,0,0,-123,-2,0,1000,153,407,-3,-12,-1,-2,-157,269,2076,380,311,0,228,1,8,0,1,1,0.1379704646853398,0.06905610073013459,4.39496948616922,0,0,0,-61,-1,0,0,49,0,-2,"",""
45,22635403,0,0,0,0,0,0,0,0,0,-123,-2,0,1000,153,407,-3,-11,-1,-5,-159,271,2075,555,472,0,434,1,8,0,1,1,0.13749710258527742,0.06920074090285622,4.395103196570623,0,0,0,-61,-1,0,0,50,0,-5,"",""
46,22636965,0,0,0,0,0,0,0,0,0,-123,-2,0,1000,153,407,-3,-10,-1,-7,-160,272,2074,648,462,0,480,1,8,0,1,1,0.1370613342965457,0.0693570981302649,4.39529624173901,0,0,0,-61,-1,0,0,51,0,-7,"",""
47,22638305,0,0,0,0,0,0,0,0,0,-123,-2,0,1000,153,407,-3,-10,-1,-7,-159,273,2073,697,454,0,537,1,8,0,1,1,0.13668930895030285,0.06949735421432157,4.395461854896161,0,0,0,-61,-1,0,0,51,0,-7,"",""
48,22639640,0,0,0,0,0,0,0,0,0,-123,-2,0,1000,153,407,-5,-9,-1,-7,-157,273,2073,730,490,0,578,1,8,0,1,1,0.13635129781643543,0.06961171732949296,4.39562686532332,0,0,0,-61,-1,0,0,52,0,-7,"",""
49,22640974,0,0,0,0,0,0,0,0,0,-123,-2,0,1000,153,407,-5,-9,-1,-5,-153,272,2072,660,442,0,533,1,8,0,1,1,0.13601734021673345,0.06967656952047584,4.395745509658281,0,0,0,-61,-1,0,0,52,0,-5,"",""
50,22642322,0,0,0,0,0,0,0,0,0,-123,-2,0,1000,153,407,-5,-10,-1,-3,-147,270,2073,474,311,0,386,1,8,0,1,1,0.13564964009289773,0.06967381250709263,4.395818652552184,0,0,0,-61,-1,0,0,51,0,-3,"",""
51,22643682,0,0,0,0,0,0,0,0,0,-123,-2,0,1000,157,2670,-5,-10,-1,-1,-142,269,2074,397,282,0,331,1,8,0,1,1,0.13528198385346102,0.06961638589821569,4.395845288301271,0,0,0,-61,-1,0,0,51,0,-1,"",""
52,22645035,0,0,0,0,0,0,0,0,0,-123,-2,0,1000,157,2670,-5,-11,-1,1,-138,267,2075,291,230,0,266,1,8,0,1,1,0.13488525538218119,0.06951680323526946,4.3958248519325025,0,0,0,-61,-1,0,0,50,0,1,"",""
53,22646363,0,0,0,0,0,0,0,0,0,-123,-2,0,1000,157,2670,-5,-11,-1,3,-135,265,2076,85,57,0,70,1,8,0,1,1,0.13448693487535684,0.06938684130808041,4.395758717481857,0,0,0,-61,-1,0,0,50,0,3,"",""
54,22647694,0,0,0,0,0,0,0,0,0,-123,-2,0,1000,157,2670,-5,-12,-1,5,-132,264,2076,85,63,0,10,1,8,0,1,1,0.1340695358892415,0.06922793457102747,4.395646265564112,0,0,0,-61,-1,0,0,49,0,5,"",""
55,22649027,0,0,0,0,0,0,0,0,0,-123,-2,0,1000,157,2670,-5,-12,-2,6,-129,263,2077,74,70,18,0,1,8,0,1,1,0.13365333012052757,0.06902124183966436,4.395513621903869,0,0,0,-61,-1,0,0,49,-1,6,"",""
56,22650355,0,0,0,0,0,0,0,0,0,-123,-2,0,1000,157,2670,-5,-12,-2,5,-127,262,2078,66,92,0,0,1,8,0,1,1,0.13323676474506804,0.06880607962771018,4.395404470298321,0,0,0,-61,-1,0,0,49,-1,5,"",""
57,22651710,0,0,0,0,0,0,0,0,0,-123,-2,0,1000,157,2670,-5,-11,-2,5,-125,261,2080,130,159,3,0,1,8,0,1,1,0.1328370876978768,0.06857790457196433,4.395293071347563,0,0,0,-61,-1,0,0,50,-1,5,"",""
58,22653087,0,0,0,0,0,0,0,0,0,-123,-2,0,1000,157,2670,-5,-10,-1,3,-123,260,2082,236,277,0,136,1,8,0,1,1,0.13245280670618018,0.06836720031228072,4.395224410776903,0,0,0,-61,-1,0,0,51,0,3,"",""
59,22654434,0,0,0,0,0,0,0,0,0,-124,-2,0,1000,157,2670,-5,-9,-1,1,-122,259,2082,326,355,0,178,1,8,0,1,1,0.13209433484778868,0.06816159105847645,4.395203945545257,0,0,0,-62,-1,0,0,53,0,1,"",""
60,22655768,0,0,0,0,0,0,0,0,0,-125,-2,0,1000,157,2670,-5,-8,-1,-1,-121,258,2082,449,471,0,329,1,8,0,1,1,0.13175798564555796,0.06796048679082266,4.395229932340436,0,0,0,-62,-1,0,0,54,0,-1,"",""
61,22657098,0,0,0,0,0,0,0,0,0,-126,-2,0,1000,157,2670,-5,-7,0,-2,-120,256,2081,489,449,0,366,1,8,0,1,1,0.13143668999433863,0.06778386594323903,4.395275835421908,0,0,0,-63,-1,0,0,56,1,-2,"",""
62,22658430,0,0,0,0,0,0,0,0,0,-127,-2,0,1000,157,2670,-5,-6,0,-3,-119,254,2080,510,420,0,361,1,8,0,1,1,0.13112944256790968,0.06760867244646625,4.395344899092211,0,0,0,-64,-1,0,0,58,1,-3,"",""
63,22659770,0,0,0,0,0,0,0,0,0,-128,-2,0,1000,157,2670,-5,-6,0,-3,-118,253,2081,515,393,0,387,1,8,0,1,1,0.130820018204246,0.06743084982907088,4.395414379757493,0,0,0,-64,-1,0,0,58,1,-3,"",""
64,22661132,0,0,0,0,0,0,0,0,0,-129,-2,0,1000,157,2670,-5,-7,0,-2,-117,251,2081,425,310,0,318,1,8,0,1,1,0.13047852624045464,0.06724814249006826,4.395461373863752,0,0,0,-65,-1,0,0,58,1,-2,"",""
65,22662535,0,0,0,0,0,0,0,0,0,-129,-2,0,1000,157,2670,-5,-7,-1,-1,-115,249,2081,268,159,0,163,1,8,0,1,1,0.13012622923209627,0.0670291617296323,4.395488631882525,0,0,0,-65,-1,0,0,58,0,-1,"",""
66,22664025,0,0,0,0,0,0,0,0,0,-129,-2,0,1000,153,865,-6,-8,-1,1,-113,246,2081,123,50,0,41,1,8,0,1,1,0.12972690636395343,0.06679371952169151,4.39546587283266,0,0,0,-65,-1,0,0,57,0,1,"",""
67,22665505,0,0,0,0,0,0,0,0,0,-130,-2,0,1000,153,865,-6,-9,-1,2,-112,244,2082,66,20,12,0,1,8,0,1,1,0.1292984305718317,0.06655396701003835,4.395417564985247,0,0,0,-65,-1,0,0,56,0,2,"",""
68,22666836,0,0,0,0,0,0,0,0,0,-130,-2,0,1000,153,865,-6,-10,-2,3,-112,243,2084,81,38,58,0,1,8,0,1,1,0.1288712760282532,0.0662974028848055,4.395353976025102,0,0,0,-65,-1,0,0,55,-1,3,"",""
69,22668164,0,0,0,0,0,0,0,0,0,-131,-2,0,1000,153,865,-6,-11,-3,3,-113,243,2087,104,57,45,0,1,8,0,1,1,0.12842796094776773,0.06603069256049328,4.395293481513199,0,0,0,-66,-1,0,0,55,-2,3,"",""
70,22669511,0,0,0,0,0,0,0,0,0,-131,-2,0,1000,153,865,-6,-10,-3,2,-113,242,2089,158,136,0,27,1,8,0,1,1,0.12800304935573603,0.06577148819292297,4.395255446586571,0,0,0,-66,-1,0,0,56,-2,2,"",""
71,22670865,0,0,0,0,0,0,0,0,0,-132,-2,0,1000,153,865,-6,-10,-3,1,-114,242,2091,252,244,0,110,1,8,0,1,1,0.12758242450386967,0.0655271688432457,4.395240672014789,0,0,0,-67,-1,0,0,57,-2,1,"",""
72,22672219,0,0,0,0,0,0,0,0,0,-132,-2,0,1000,153,865,-6,-9,-2,-1,-114,243,2091,388,419,0,243,1,8,0,1,1,0.1271976452394093,0.06531757598160744,4.395269861973524,0,0,0,-67,-1,0,0,58,-1,-1,"",""
73,22673574,0,0,0,0,0,0,0,0,0,-132,-2,0,1000,153,865,-6,-8,-1,-2,-115,246,2092,514,553,0,430,1,8,0,1,1,0.12686189036405332,0.06514533292929792,4.395319612631337,0,0,0,-67,-1,0,0,59,0,-2,"",""
74,22674914,0,0,0,0,0,0,0,0,0,-132,-2,0,1000,153,865,-6,-7,-1,-3,-116,250,2093,537,531,0,400,1,8,0,1,1,0.12658231489305768,0.06498663436316866,4.395392112868323,0,0,0,-67,-1,0,0,60,0,-3,"",""
75,22676250,0,0,0,0,0,0,0,0,0,-132,-2,0,1000,153,865,-6,-6,0,-3,-116,253,2095,556,519,0,421,1,8,0,1,1,0.1263498897755747,0.06485376467457053,4.395461490663214,0,0,0,-67,-1,0,0,61,1,-3,"",""
76,22677578,0,0,0,0,0,0,0,0,0,-133,-2,0,1000,153,865,-6,-5,0,-3,-118,255,2095,554,520,0,434,1,8,0,1,1,0.12615855377554483,0.0647374137102233,4.395530485685942,0,0,0,-67,-1,0,0,62,1,-3,"",""
77,22678936,0,0,0,0,0,0,0,0,0,-133,-2,0,1000,153,865,-6,-5,0,-1,-119,256,2095,487,434,0,383,1,8,0,1,1,0.12597748842298953,0.06462489859961193,4.395553936457001,0,0,0,-67,-1,0,0,62,1,-1,"",""
78,22680298,0,0,0,0,0,0,0,0,0,-133,-2,0,1000,153,865,-6,-6,0,0,-120,255,2095,304,228,0,196,1,8,0,1,1,0.12577094079295628,0.06451879752253185,4.395553818076514,0,0,0,-67,-1,0,0,61,1,0,"",""
79,22681631,0,0,0,0,0,0,0,0,0,-133,-2,0,1000,153,865,-6,-7,0,1,-122,255,2096,99,45,0,27,1,8,0,1,1,0.12554863232276614,0.06442473440362351,4.395530574478309,0,0,0,-67,-1,0,0,60,1,1,"",""
80,22682978,0,0,0,0,0,0,0,0,0,-133,-2,0,1000,153,865,-6,-8,0,3,-124,255,2096,53,28,26,0,1,8,0,1,1,0.12530807527803167,0.0643396525857335,4.3954603468637785,0,0,0,-67,-1,0,0,59,1,3,"",""
81,22684311,0,0,0,0,0,0,0,0,0,-133,-2,0,1000,154,759,-6,-10,-1,4,-126,254,2097,42,30,83,0,1,8,0,1,1,0.12502162952214413,0.06424303789707299,4.3953706153777325,0,0,0,-67,-1,0,0,57,0,4,"",""
82,22685639,0,0,0,0,0,0,0,0,0,-133,-2,0,1000,154,759,-6,-11,-2,4,-128,254,2098,77,56,65,0,1,8,0,1,1,0.12471657649672986,0.06413766154480538,4.3952841041918775,0,0,0,-67,-1,0,0,56,-1,4,"",""
83,22686979,0,0,0,0,0,0,0,0,0,-133,-2,0,1000,154,759,-6,-11,-2,4,-128,252,2100,64,68,0,0,1,8,0,1,1,0.12440027803698459,0.0640330099561698,4.395196772918787,0,0,0,-67,-1,0,0,56,-1,4,"",""
84,22688340,0,0,0,0,0,0,0,0,0,-133,-2,0,1000,154,759,-6,-11,-1,2,-129,251,2102,163,181,0,102,1,8,0,1,1,0.12407457159821027,0.06396367305457386,4.395152340366228,0,0,0,-67,-1,0,0,56,0,2,"",""
85,22689699,0,0,0,0,0,0,0,0,0,-133,-2,0,1000,154,759,-7,-10,-1,1,-128,249,2102,309,349,0,174,1,8,0,1,1,0.12376421877604281,0.06389277324640487,4.395131532739159,0,0,0,-67,-1,0,0,57,0,1,"",""
86,22691036,0,0,0,0,0,0,0,0,0,-133,-2,0,1000,154,759,-7,-9,-1,-1,-128,246,2102,422,457,0,316,1,8,0,1,1,0.12346493798102595,0.06382947881499756,4.395157430585806,0,0,0,-67,-1,0,0,58,0,-1,"",""
87,22692373,0,0,0,0,0,0,0,0,0,-133,-2,0,1000,154,759,-7,-8,0,-3,-127,245,2101,496,502,0,369,1,8,0,1,1,0.12318552451765387,0.0637905807345323,4.395226857367591,0,0,0,-67,-1,0,0,59,1,-3,"",""
88,22693841,0,0,0,0,0,0,0,0,0,-133,-2,0,1000,154,759,-7,-7,0,-4,-126,244,2100,577,553,0,463,1,8,0,1,1,0.12291064579932126,0.06375125483658982,4.395328586755976,0,0,0,-67,-1,0,0,60,1,-4,"",""
89,22695310,0,0,0,0,0,0,0,0,0,-133,-2,0,1000,154,759,-7,-6,1,-4,-125,244,2099,621,557,0,500,1,8,0,1,1,0.12266609638137213,0.06373275670103801,4.395427255999459,0,0,0,-67,-1,0,0,61,2,-4,"",""
90,22696666,0,0,0,0,0,0,0,0,0,-133,-2,0,1000,154,759,-7,-6,1,-5,-124,245,2099,610,502,0,522,1,8,0,1,1,0.12244159837575244,0.06370935465461335,4.3955418893384905,0,0,0,-67,-1,0,0,61,2,-5,"",""
91,22698031,0,0,0,0,0,0,0,0,0,-133,-2,0,1000,154,759,-7,-7,1,-4,-123,245,2098,499,370,0,437,1,8,0,1,1,0.12219815539928817,0.06367899889426405,4.39563361139681,0,0,0,-67,-1,0,0,60,2,-4,"",""
92,22699382,0,0,0,0,0,0,0,0,0,-133,-2,0,1000,154,759,-7,-8,1,-2,-122,244,2098,334,222,0,268,1,8,0,1,1,0.12193418078156869,0.06363814657249393,4.395677495587501,0,0,0,-67,-1,0,0,59,2,-2,"",""
93,22700710,0,0,0,0,0,0,0,0,0,-133,-2,0,1000,154,759,-7,-9,1,-1,-121,242,2099,161,108,0,154,1,8,0,1,1,0.12164422478925947,0.063589471983823,4.395697572009081,0,0,0,-67,-1,0,0,58,2,-1,"",""
94,22702043,0,0,0,0,0,0,0,0,0,-133,-2,0,1000,154,759,-7,-11,1,1,-122,241,2100,74,40,0,67,1,8,0,1,1,0.12130847089814274,0.06354168711079168,4.395671450210105,0,0,0,-67,-1,0,0,56,2,1,"",""
95,22703378,0,0,0,0,0,0,0,0,0,-133,-2,0,1000,154,759,-7,-11,0,3,-121,239,2101,85,56,0,35,1,8,0,1,1,0.12096837968240913,0.06346111736017418,4.395601749441056,0,0,0,-67,-1,0,0,56,1,3,"",""
96,22704710,0,0,0,0,0,0,0,0,0,-133,-2,0,1000,154,625,-7,-12,0,4,-121,236,2102,128,128,54,77,1,8,0,1,1,0.12059552760396601,0.06337920299239395,4.395509053256084,0,0,0,-67,-1,0,0,55,1,4,"",""
97,22706072,0,0,0,0,0,0,0,0,0,-133,-2,0,1000,154,625,-7,-11,0,5,-121,233,2103,164,184,60,54,1,8,0,1,1,0.1202303814308761,0.06329561742891648,4.395390599235529,0,0,0,-67,-1,0,0,56,1,5,"",""
98,22707431,0,0,0,0,0,0,0,0,0,-133,-2,0,1000,154,625,-7,-10,0,5,-122,233,2104,205,261,72,54,1,8,0,1,1,0.11989367674373065,0.06321852808118769,4.395272408347532,0,0,0,-67,-1,0,0,57,1,5,"",""
99,22708771,0,0,0,0,0,0,0,0,0,-133,-2,0,1000,154,625,-7,-10,0,3,-125,233,2104,262,334,54,169,1,8,0,1,1,0.11956190005827956,0.06316402756768975,4.395202403552286,0,0,0,-67,-1,0,0,57,1,3,"",""
100,22710103,0,0,0,0,0,0,0,0,0,-133,-2,0,1000,154,625,-7,-9,0,2,-128,236,2104,290,322,54,163,1,8,0,1,1,0.11927277419403572,0.0631284994005922,4.395155979720281,0,0,0,-67,-1,0,0,58,1,2,"",""
101,22711438,0,0,0,0,0,0,0,0,0,-133,-2,0,1000,154,625,-7,-9,0,0,-133,238,2103,375,377,54,252,1,8,0,1,1,0.11899480064448938,0.06312455663055679,4.395155840412891,0,0,0,-67,-1,0,0,58,1,0,"",""
102,22712776,0,0,0,0,0,0,0,0,0,-133,-2,0,1000,154,625,-7,-9,1,-2,-138,241,2102,467,429,54,401,1,8,0,1,1,0.11873273940323449,0.06317429925682073,4.395199435177891,0,0,0,-67,-1,0,0,58,2,-2,"",""
103,22714133,0,0,0,0,0,0,0,0,0,-133,-2,0,1000,154,625,-7,-9,1,-4,-143,243,2100,528,436,54,464,1,8,0,1,1,0.11847898449419142,0.06325458195622363,4.395290816663214,0,0,0,-67,-1,0,0,58,2,-4,"",""
104,22715491,0,0,0,0,0,0,0,0,0,-133,-2,0,1000,154,625,-7,-9,1,-5,-149,246,2099,603,450,54,490,1,8,0,1,1,0.11824180410464163,0.06336605712351875,4.395405893192074,0,0,0,-67,-1,0,0,58,2,-5,"",""
105,22716850,0,0,0,0,0,0,0,0,0,-133,-2,0,1000,154,625,-7,-9,1,-5,-154,248,2098,659,505,54,565,1,8,0,1,1,0.11801732503003878,0.06350031028517851,4.395521088518274,0,0,0,-67,-1,0,0,58,2,-5,"",""
106,22718179,0,0,0,0,0,0,0,0,0,-133,-2,0,1000,154,625,-7,-10,1,-5,-158,249,2097,576,432,54,529,1,8,0,1,1,0.11778240675503691,0.06365108226763203,4.395633765135763,0,0,0,-67,-1,0,0,57,2,-5,"",""
107,22719517,0,0,0,0,0,0,0,0,0,-133,-2,0,1000,154,625,-7,-10,1,-5,-162,249,2097,603,450,54,526,1,8,0,1,1,0.11754821579019245,0.06381871104180083,4.395747218836897,0,0,0,-67,-1,0,0,57,2,-5,"",""
108,22720857,0,0,0,0,0,0,0,0,0,-133,-2,0,1000,154,625,-7,-10,1,-3,-163,249,2097,562,415,54,448,1,8,0,1,1,0.11731889026568122,0.0639829047816222,4.395814308166369,0,0,0,-67,-1,0,0,57,2,-3,"",""
109,22722332,0,0,0,0,0,0,0,0,0,-133,-2,0,1000,154,625,-7,-10,1,-1,-163,248,2098,452,374,54,399,1,8,0,1,1,0.11706601408945301,0.06414125214710877,4.395836920287877,0,0,0,-67,-1,0,0,57,2,-1,"",""
110,22723827,0,0,0,0,0,0,0,0,0,-133,-2,0,1000,154,625,-7,-10,1,2,-160,247,2100,313,264,54,248,1,8,0,1,1,0.11681131242228514,0.0642737465381623,4.39578193606955,0,0,0,-67,-1,0,0,57,2,2,"",""
111,22725192,0,0,0,0,0,0,0,0,0,-133,-2,0,1000,151,793,-7,-10,1,4,-156,246,2101,239,256,54,165,1,8,0,1,1,0.11657912126470664,0.06437806107402845,4.395684310033609,0,0,0,-67,-1,0,0,57,2,4,"",""
112,22726532,0,0,0,0,0,0,0,0,0,-132,-2,0,1000,151,793,-7,-11,1,7,-152,247,2103,82,138,60,54,1,8,0,1,1,0.11633821038668066,0.0644533632176397,4.395518652247298,0,0,0,-67,-1,0,0,56,2,7,"",""
113,22727873,0,0,0,0,0,0,0,0,0,-131,-2,0,1000,151,793,-7,-11,1,9,-149,249,2105,71,156,105,54,1,8,0,1,1,0.1161104112369967,0.06450772660208133,4.395306297742662,0,0,0,-66,-1,0,0,55,2,9,"",""
114,22729217,0,0,0,0,0,0,0,0,0,-130,-2,0,1000,151,793,-7,-12,1,10,-147,251,2108,69,157,142,54,1,8,0,1,1,0.11586984246502424,0.06454851946520584,4.3950701356511015,0,0,0,-65,-1,0,0,53,2,10,"",""
115,22730553,0,0,0,0,0,0,0,0,0,-129,-2,0,1000,151,793,-7,-13,1,10,-148,253,2112,73,171,146,54,1,8,0,1,1,0.11561671606061304,0.06459191621865581,4.394835393035646,0,0,0,-65,-1,0,0,52,2,10,"",""
116,22731886,0,0,0,0,0,0,0,0,0,-127,-2,0,1000,151,793,-7,-12,0,8,-150,255,2114,174,243,200,54,1,8,0,1,1,0.1153941189262683,0.06462525978738812,4.394650193779605,0,0,0,-64,-1,0,0,52,1,8,"",""
117,22733246,0,0,0,0,0,0,0,0,0,-126,-2,0,1000,151,793,-7,-12,0,5,-154,257,2114,154,207,104,54,1,8,0,1,1,0.11517218577557418,0.06468315660667044,4.394532139393197,0,0,0,-63,-1,0,0,51,1,5,"",""
118,22734606,0,0,0,0,0,0,0,0,0,-125,-2,0,1000,151,793,-7,-11,0,2,-161,258,2113,227,237,54,67,1,8,0,1,1,0.11497575712089264,0.06477896009885238,4.394484977259527,0,0,0,-62,-1,0,0,51,1,2,"",""
119,22735952,0,0,0,0,0,0,0,0,0,-123,-2,0,1000,151,793,-7,-10,-1,-2,-168,258,2110,407,372,54,243,1,8,0,1,1,0.1148019198315131,0.06489194712014372,4.394534544798284,0,0,0,-61,-1,0,0,51,0,-2,"",""
120,22737288,0,0,0,0,0,0,0,0,0,-121,-2,0,1000,151,793,-7,-9,-1,-5,-175,259,2109,573,442,54,420,1,8,0,1,1,0.11465436957357382,0.06504137512029895,4.394653391641443,0,0,0,-60,-1,0,0,51,0,-5,"",""
121,22738621,0,0,0,0,0,0,0,0,0,-120,-2,0,1000,151,793,-7,-9,-1,-8,-183,259,2108,712,502,54,610,1,8,0,1,1,0.1145041256635255,0.06523065128082675,4.394841458713063,0,0,0,-59,-1,0,0,50,0,-8,"",""
122,22739962,0,0,0,0,0,0,0,0,0,-118,-2,0,1000,151,793,-7,-10,0,-9,-189,259,2108,797,560,54,726,1,8,0,1,1,0.1143288306847437,0.06546791465992098,4.395051284321056,0,0,0,-58,-1,0,0,48,1,-9,"",""
123,22741310,0,0,0,0,0,0,0,0,0,-116,-2,0,1000,151,793,-7,-11,0,-9,-194,259,2106,719,471,54,668,1,8,0,1,1,0.11413089760159438,0.06572318444713456,4.395262216453507,0,0,0,-57,-1,0,0,46,1,-9,"",""
124,22742675,0,0,0,0,0,0,0,0,0,-115,-2,0,1000,151,793,-7,-12,1,-9,-197,258,2105,630,393,54,601,1,8,0,1,1,0.11390358816531973,0.06601106375093851,4.395473099691272,0,0,0,-56,-1,0,0,44,2,-9,"",""
125,22744059,0,0,0,0,0,0,0,0,0,-114,-2,0,1000,151,793,-7,-13,1,-7,-199,257,2104,591,401,54,623,1,8,0,1,1,0.11364910499158686,0.066298458280336,4.395638824939187,0,0,0,-56,-1,0,0,43,2,-7,"",""
126,22745393,0,0,0,0,0,0,0,0,0,-113,-2,0,1000,161,2569,-7,-14,1,-5,-199,256,2105,442,286,54,484,1,8,0,1,1,0.11338332811555647,0.0665745321457115,4.395752207097981,0,0,0,-55,-1,0,0,41,2,-5,"",""
127,22746729,0,0,0,0,0,0,0,0,0,-111,-2,0,1000,161,2569,-7,-15,1,-3,-198,254,2106,277,138,54,263,1,8,0,1,1,0.11309017476093124,0.06683699774370923,4.395819319805181,0,0,0,-54,-1,0,0,39,2,-3,"",""
128,22748071,0,0,0,0,0,0,0,0,0,-110,-2,0,1000,161,2569,-7,-15,0,-2,-198,252,2108,313,187,0,287,1,8,0,1,1,0.11278987229824285,0.06706951391048,4.395866048455163,0,0,0,-54,-1,0,0,39,1,-2,"",""
129,22749418,0,0,0,0,0,0,0,0,0,-109,-2,0,1000,161,2569,-7,-15,0,0,-198,249,2109,374,248,0,304,1,8,0,1,1,0.11248102320458783,0.06729303740083567,4.395866109194307,0,0,0,-53,-1,0,0,38,1,0,"",""
130,22750910,0,0,0,0,0,0,0,0,0,-108,-2,0,1000,161,2569,-7,-14,0,2,-197,245,2110,335,227,0,243,1,8,0,1,1,0.11214969067509355,0.0675031654415017,4.395814276067688,0,0,0,-52,-1,0,0,38,1,2,"",""
131,22752410,0,0,0,0,0,0,0,0,0,-107,-2,0,1000,161,2569,-7,-13,-1,3,-196,243,2112,280,226,0,147,1,8,0,1,1,0.1118377206715839,0.0676768590453021,4.39573900396239,0,0,0,-52,-1,0,0,39,0,3,"",""
132,22753770,0,0,0,0,0,0,0,0,0,-106,-2,0,1000,161,2569,-7,-12,-1,5,-193,242,2115,244,237,0,129,1,8,0,1,1,0.11158069605472977,0.06783302309265743,4.395623459460895,0,0,0,-51,-1,0,0,39,0,5,"",""
133,22755107,0,0,0,0,0,0,0,0,0,-104,-2,0,1000,161,2569,-7,-11,-1,7,-188,242,2116,172,187,0,67,1,8,0,1,1,0.1113561828335897,0.06796216262021978,4.395463374465048,0,0,0,-50,-1,0,0,39,0,7,"",""
134,22756437,0,0,0,0,0,0,0,0,0,-103,-2,0,1000,161,2569,-7,-11,-1,9,-182,243,2118,105,131,60,0,1,8,0,1,1,0.11114083732772702,0.0680602544137072,4.395257880167679,0,0,0,-50,-1,0,0,39,0,9,"",""
135,22757760,0,0,0,0,0,0,0,0,0,-102,-2,0,1000,161,2569,-7,-11,-1,11,-176,243,2118,184,197,198,0,1,8,0,1,1,0.11093148727770326,0.06812853079109986,4.3950074565449695,0,0,0,-49,-1,0,0,38,0,11,"",""
136,22759103,0,0,0,0,0,0,0,0,0,-101,-2,0,1000,161,2569,-7,-11,-1,12,-170,242,2118,171,214,211,0,1,8,0,1,1,0.11071787713809561,0.06816910341070459,4.394729881893211,0,0,0,-48,-1,0,0,37,0,12,"",""
137,22760459,0,0,0,0,0,0,0,0,0,-99,-2,0,1000,161,2569,-7,-12,-1,11,-166,240,2117,141,174,221,0,1,8,0,1,1,0.11047128944449275,0.06819587102690702,4.394473174626964,0,0,0,-47,-1,0,0,35,0,11,"",""
138,22761817,0,0,0,0,0,0,0,0,0,-99,-2,0,1000,161,2569,-7,-12,-1,9,-163,239,2116,134,150,173,0,1,8,0,1,1,0.11021963168510761,0.06821595180664568,4.394263299204347,0,0,0,-47,-1,0,0,35,0,9,"",""
139,22763154,0,0,0,0,0,0,0,0,0,-98,-2,0,1000,161,2569,-7,-13,-1,5,-162,237,2114,56,51,72,0,1,8,0,1,1,0.10993789758603612,0.068243166765418,4.394149641207067,0,0,0,-47,-1,0,0,34,0,5,"",""
140,22764483,0,0,0,0,0,0,0,0,0,-98,-2,0,1000,161,2569,-7,-14,-1,1,-161,235,2113,74,52,0,77,1,8,0,1,1,0.10962375186316312,0.06827663665494953,4.394129083511228,0,0,0,-47,-1,0,0,33,0,1,"",""
141,22765824,0,0,0,0,0,0,0,0,0,-97,-2,0,1000,154,11,-7,-14,0,-4,-162,234,2113,324,216,0,326,1,8,0,1,1,0.1092977133954956,0.06834874319680075,4.394222368091957,0,0,0,-46,-1,0,0,32,1,-4,"",""
142,22767156,0,0,0,0,0,0,0,0,0,-97,-2,0,1000,154,11,-7,-14,0,-8,-163,235,2113,484,309,0,486,1,8,0,1,1,0.1089738429389894,0.06843350334357835,4.394407699293691,0,0,0,-46,-1,0,0,32,1,-8,"",""
143,22768506,0,0,0,0,0,0,0,0,0,-96,-2,0,1000,154,11,-7,-14,0,-11,-164,236,2111,732,458,0,691,1,8,0,1,1,0.10864758076069168,0.06852916583000077,4.3946659909626975,0,0,0,-46,-1,0,0,32,1,-11,"",""
144,22769870,0,0,0,0,0,0,0,0,0,-96,-2,0,1000,154,11,-7,-13,1,-11,-165,236,2108,814,503,0,777,1,8,0,1,1,0.10834511643671225,0.06865176651657981,4.394924397976962,0,0,0,-46,-1,0,0,33,2,-11,"",""
145,22771223,0,0,0,0,0,0,0,0,0,-94,-2,0,1000,154,11,-7,-13,2,-11,-166,236,2106,791,474,0,745,1,8,0,1,1,0.10804838762013727,0.06879992359473565,4.395178191778607,0,0,0,-45,-1,0,0,32,3,-11,"",""
146,22772563,0,0,0,0,0,0,0,0,0,-92,-2,0,1000,154,11,-7,-12,2,-9,-167,235,2105,773,450,0,679,1,8,0,1,1,0.10778000063858183,0.06894461367186734,4.3953829526762345,0,0,0,-44,-1,0,0,32,3,-9,"",""
147,22773897,0,0,0,0,0,0,0,0,0,-90,-2,0,1000,154,11,-7,-12,2,-6,-167,233,2105,618,372,0,574,1,8,0,1,1,0.10751237172067471,0.0690800000912004,4.395517196748933,0,0,0,-42,-1,0,0,30,3,-6,"",""
148,22775293,0,0,0,0,0,0,0,0,0,-88,-2,0,1000,154,11,-7,-12,2,-3,-167,231,2105,419,218,0,356,1,8,0,1,1,0.10723117631745246,0.06920899464439334,4.39558483989537,0,0,0,-41,-1,0,0,29,3,-3,"",""
149,22776637,0,0,0,0,0,0,0,0,0,-86,-2,0,1000,154,11,-7,-12,1,-1,-167,229,2106,228,77,0,172,1,8,0,1,1,0.10695854817220311,0.06930617793438505,4.395605721554816,0,0,0,-40,-1,0,0,28,2,-1,"",""
150,22778011,0,0,0,0,0,0,0,0,0,-84,-2,0,1000,154,11,-7,-12,0,2,-168,227,2106,110,0,18,58,1,8,0,1,1,0.10667933727785256,0.06937509318365974,4.3955579215223,0,0,0,-39,-1,0,0,27,1,2,"",""
151,22779513,0,0,0,0,0,0,0,0,0,-82,-2,0,1000,154,11,-7,-13,0,3,-168,225,2107,80,0,36,27,1,8,0,1,1,0.10634427494485796,0.06943965514906367,4.39547952797776,0,0,0,-38,-1,0,0,25,1,3,"",""
152,22780984,0,0,0,0,0,0,0,0,0,-82,-2,0,1000,154,11,-7,-13,0,4,-168,223,2108,63,0,16,11,1,8,0,1,1,0.10601299432385966,0.06950062514417314,4.395377149346564,0,0,0,-38,-1,0,0,25,1,4,"",""
153,22782322,0,0,0,0,0,0,0,0,0,-82,-2,0,1000,154,11,-7,-13,0,4,-165,221,2109,64,10,0,17,1,8,0,1,1,0.10570621017586168,0.0695511394300048,4.395284014675285,0,0,0,-38,-1,0,0,25,1,4,"",""
154,22783647,0,0,0,0,0,0,0,0,0,-81,-2,0,1000,154,11,-7,-13,0,4,-162,219,2110,122,91,0,83,1,8,0,1,1,0.10539734851675174,0.06959052540663986,4.395191773581254,0,0,0,-38,-1,0,0,25,1,4,"",""
155,22784984,0,0,0,0,0,0,0,0,0,-81,-2,0,1000,152,229,-7,-12,1,4,-160,217,2110,217,203,0,168,1,8,0,1,1,0.10510466798600131,0.06964551195896518,4.395096232594465,0,0,0,-38,-1,0,0,26,2,4,"",""
156,22786332,0,0,0,0,0,0,0,0,0,-80,-2,0,1000,152,229,-7,-11,1,3,-158,214,2109,297,299,0,229,1,8,0,1,1,0.10482386534114083,0.06969593580978187,4.395023351875487,0,0,0,-37,-1,0,0,26,2,3,"",""
157,22787717,0,0,0,0,0,0,0,0,0,-80,-2,0,1000,152,229,-7,-10,2,2,-157,212,2108,326,305,0,268,1,8,0,1,1,0.10455441647647305,0.06976952522433001,4.394970040165773,0,0,0,-37,-1,0,0,27,3,2,"",""
158,22789073,0,0,0,0,0,0,0,0,0,-78,-2,0,1000,152,229,-7,-9,2,2,-157,210,2106,310,255,0,256,1,8,0,1,1,0.1043094882527283,0.06984205296462417,4.394917848261293,0,0,0,-36,-1,0,0,27,3,2,"",""
159,22790407,0,0,0,0,0,0,0,0,0,-77,-2,0,1000,152,229,-7,-8,2,1,-158,209,2103,321,243,0,284,1,8,0,1,1,0.10408908308782877,0.06991971024985881,4.394889724529299,0,0,0,-36,-1,0,0,28,3,1,"",""
160,22791740,0,0,0,0,0,0,0,0,0,-75,-2,0,1000,152,229,-7,-8,2,0,-158,208,2101,281,176,0,255,1,8,0,1,1,0.10386632478301419,0.06999949213088862,4.3948848282916,0,0,0,-35,-1,0,0,27,3,0,"",""
161,22793074,0,0,0,0,0,0,0,0,0,-73,-2,0,1000,152,229,-7,-8,2,-1,-159,209,2099,236,112,0,216,1,8,0,1,1,0.10364758754441446,0.07008471640537238,4.39490316311362,0,0,0,-34,-1,0,0,26,3,-1,"",""
162,22794405,0,0,0,0,0,0,0,0,0,-71,-2,0,1000,152,229,-7,-9,2,-1,-160,210,2096,156,34,0,137,1,8,0,1,1,0.10341222120289885,0.07017300383559408,4.394921478211378,0,0,0,-33,-1,0,0,24,3,-1,"",""
163,22795765,0,0,0,0,0,0,0,0,0,-70,-2,0,1000,152,229,-7,-9,2,-1,-161,210,2095,176,51,0,161,1,8,0,1,1,0.10317440847482869,0.07026502667934122,4.3949402091167356,0,0,0,-32,-1,0,0,23,3,-1,"",""
164,22797125,0,0,0,0,0,0,0,0,0,-68,-2,0,1000,152,229,-7,-9,2,-1,-161,211,2093,140,23,0,128,1,8,0,1,1,0.10294229496326368,0.0703566201423612,4.394958960518917,0,0,0,-31,-1,0,0,22,3,-1,"",""
165,22798473,0,0,0,0,0,0,0,0,0,-68,-2,0,1000,152,229,-7,-9,2,0,-161,211,2092,134,15,0,120,1,8,0,1,1,0.10271571970478263,0.07044475789283289,4.394954099901306,0,0,0,-31,-1,0,0,22,3,0,"",""
166,22799808,0,0,0,0,0,0,0,0,0,-67,-2,0,1000,152,229,-7,-9,2,0,-159,209,2091,206,93,0,189,1,8,0,1,1,0.10248666569982699,0.0705254430017334,4.394949292442469,0,0,0,-31,-1,0,0,22,3,0,"",""
167,22801142,0,0,0,0,0,0,0,0,0,-67,-2,0,1000,152,229,-7,-8,2,0,-158,206,2089,288,204,0,258,1,8,0,1,1,0.1022735655217352,0.07060267709106818,4.394944490834395,0,0,0,-31,-1,0,0,23,3,0,"",""
168,22802476,0,0,0,0,0,0,0,0,0,-67,-2,0,1000,152,229,-7,-7,2,1,-157,204,2086,298,233,0,237,1,8,0,1,1,0.10208138201204524,0.07067439905137843,4.394916475779971,0,0,0,-31,-1,0,0,24,3,1,"",""
169,22803805,0,0,0,0,0,0,0,0,0,-66,-2,0,1000,152,229,-7,-5,2,1,-156,201,2084,266,214,0,185,1,8,0,1,1,0.10192843057670145,0.07074267505882788,4.394888565348212,0,0,0,-30,-1,0,0,25,3,1,"",""
170,22805167,0,0,0,0,0,0,0,0,0,-66,-2,0,1000,154,0,-7,-4,2,1,-156,198,2082,338,280,0,271,1,8,0,1,1,0.10178864466636303,0.07081197217624612,4.394859962653534,0,0,0,-30,-1,0,0,26,3,1,"",""
171,22806577,0,0,0,0,0,0,0,0,0,-65,-2,0,1000,154,0,-7,-3,2,1,-157,196,2082,291,228,0,210,1,8,0,1,1,0.10166490561744376,0.07088545934355399,4.3948303558100115,0,0,0,-30,-1,0,0,27,3,1,"",""
172,22808055,0,0,0,0,0,0,0,0,0,-64,-2,0,1000,154,0,-7,-3,2,1,-159,194,2081,272,189,0,205,1,8,0,1,1,0.10153285328122155,0.07096709551644922,4.394799327074254,0,0,0,-29,-1,0,0,26,3,1,"",""
173,22809525,0,0,0,0,0,0,0,0,0,-63,-2,0,1000,154,0,-7,-2,2,1,-162,191,2080,223,133,0,161,1,8,0,1,1,0.10141879833580993,0.07105742375870526,4.394768465585497,0,0,0,-29,-1,0,0,27,3,1,"",""
174,22810864,0,0,0,0,0,0,0,0,0,-62,-2,0,1000,154,0,-7,-2,2,2,-166,188,2080,182,100,0,132,1,8,0,1,1,0.10130248574832977,0.071152808238882,4.394717038963897,0,0,0,-28,-1,0,0,26,3,2,"",""
175,22812200,0,0,0,0,0,0,0,0,0,-61,-2,0,1000,154,0,-7,-2,2,3,-171,184,2081,142,69,0,91,1,8,0,1,1,0.1011763535920235,0.07126020267867905,4.39464246649812,0,0,0,-28,-1,0,0,26,3,3,"",""
176,22813550,0,0,0,0,0,0,0,0,0,-60,-2,0,1000,154,0,-7,-2,2,3,-175,181,2082,79,0,15,19,1,8,0,1,1,0.10104148421209372,0.07137914089869991,4.394567113157402,0,0,0,-27,-1,0,0,25,3,3,"",""
177,22814914,0,0,0,0,0,0,0,0,0,-59,-2,0,1000,154,0,-7,-2,2,3,-179,179,2083,75,15,0,21,1,8,0,1,1,0.10090107413330976,0.07150942052183913,4.394490982168622,0,0,0,-27,-1,0,0,25,3,3,"",""
178,22816264,0,0,0,0,0,0,0,0,0,-59,-2,0,1000,154,0,-7,-2,2,3,-183,176,2083,99,41,0,43,1,8,0,1,1,0.1007533310707422,0.0716502849975544,4.3944156332731055,0,0,0,-27,-1,0,0,25,3,3,"",""
179,22817593,0,0,0,0,0,0,0,0,0,-59,-2,0,1000,154,0,-7,-2,1,2,-185,173,2082,101,47,0,27,1,8,0,1,1,0.10059708131215322,0.07177490030662825,4.394366931689285,0,0,0,-27,-1,0,0,25,2,2,"",""
180,22818917,0,0,0,0,0,0,0,0,0,-59,-2,0,1000,154,0,-7,-1,1,0,-187,170,2081,213,137,0,136,1,8,0,1,1,0.10045344598425422,0.07190909026470325,4.39436451382433,0,0,0,-27,-1,0,0,26,2,0,"",""
181,22820244,0,0,0,0,0,0,0,0,0,-59,-2,0,1000,154,0,-7,0,1,-2,-189,168,2079,354,253,0,251,1,8,0,1,1,0.1003255373019048,0.07205306327051467,4.394408301024914,0,0,0,-27,-1,0,0,27,2,-2,"",""
182,22821663,0,0,0,0,0,0,0,0,0,-58,-2,0,1000,154,0,-7,1,1,-5,-190,166,2078,503,349,0,359,1,8,0,1,1,0.10021240847776655,0.0722081413941057,4.394529254218782,0,0,0,-26,-1,0,0,27,2,-5,"",""
183,22823021,0,0,0,0,0,0,0,0,0,-58,-2,0,1000,154,0,-7,3,1,-7,-190,165,2076,647,438,0,477,1,8,0,1,1,0.10014120992971723,0.07236528589490707,4.394692302186291,0,0,0,-26,-1,0,0,29,2,-7,"",""
184,22824381,0,0,0,0,0,0,0,0,0,-58,-2,0,1000,154,0,-7,3,2,-8,-190,164,2075,744,492,0,590,1,8,0,1,1,0.10006690547065424,0.072547035556408,4.39487690365919,0,0,0,-26,-1,0,0,29,3,-8,"",""
185,22825724,0,0,0,0,0,0,0,0,0,-58,-2,0,1000,165,1944,-7,4,2,-8,-190,163,2073,776,505,0,599,1,8,0,1,1,0.1000138411615604,0.07272675694659024,4.395059212282896,0,0,0,-26,-1,0,0,30,3,-8,"",""
186,22827062,0,0,0,0,0,0,0,0,0,-58,-2,0,1000,165,1944,-7,5,2,-6,-189,161,2071,754,493,0,590,1,8,0,1,1,0.09998266381228262,0.07289750885126374,4.395194259946316,0,0,0,-26,-1,0,0,31,3,-6,"",""
187,22828388,0,0,0,0,0,0,0,0,0,-58,-2,0,1000,165,1944,-7,5,3,-4,-187,158,2071,675,453,0,535,1,8,0,1,1,0.09994605637028176,0.07307869344542574,4.395279613765613,0,0,0,-26,-1,0,0,31,4,-4,"",""
188,22829719,0,0,0,0,0,0,0,0,0,-58,-2,0,1000,165,1944,-7,5,3,-2,-185,155,2071,531,351,0,382,1,8,0,1,1,0.0999053477835917,0.07324824508569286,4.39531895178956,0,0,0,-26,-1,0,0,31,4,-2,"",""
189,22831064,0,0,0,0,0,0,0,0,0,-58,-2,0,1000,165,1944,-7,5,2,1,-183,151,2071,348,228,0,213,1,8,0,1,1,0.09986009322898227,0.07338120928457272,4.395290803016958,0,0,0,-26,-1,0,0,31,3,1,"",""
190,22832425,0,0,0,0,0,0,0,0,0,-58,-2,0,1000,165,1944,-7,5,2,4,-181,147,2071,157,74,0,48,1,8,0,1,1,0.09981089040010349,0.07350075865135004,4.395191229351354,0,0,0,-26,-1,0,0,31,3,4,"",""
191,22833785,0,0,0,0,0,0,0,0,0,-58,-2,0,1000,165,1944,-7,5,1,6,-179,143,2072,126,89,119,0,1,8,0,1,1,0.0997541678497272,0.07358516060222267,4.395046741185678,0,0,0,-26,-1,0,0,31,2,6,"",""
192,22835113,0,0,0,0,0,0,0,0,0,-58,-2,0,1000,165,1944,-7,5,0,8,-178,138,2072,160,115,221,0,1,8,0,1,1,0.09968448138995764,0.07363824940540464,4.394861714125285,0,0,0,-26,-1,0,0,31,1,8,"",""
193,22836456,0,0,0,0,0,0,0,0,0,-58,-2,0,1000,165,1944,-7,5,0,8,-177,133,2073,188,151,239,0,1,8,0,1,1,0.09960300390866947,0.07368756905454453,4.394674589806889,0,0,0,-26,-1,0,0,31,1,8,"",""
194,22837929,0,0,0,0,0,0,0,0,0,-58,-2,0,1000,165,1944,-7,5,0,7,-176,129,2074,202,188,240,0,1,8,0,1,1,0.0995220238417208,0.07373410767446119,4.394494998230964,0,0,0,-26,-1,0,0,31,1,7,"",""
195,22839400,0,0,0,0,0,0,0,0,0,-58,-2,0,1000,165,1944,-7,5,-1,4,-176,126,2075,206,192,201,0,1,8,0,1,1,0.09942771320947252,0.07376221274374344,4.39439504815265,0,0,0,-26,-1,0,0,31,0,4,"",""
196,22840760,0,0,0,0,0,0,0,0,0,-58,-2,0,1000,165,1944,-7,6,-1,1,-177,125,2074,219,178,0,7,1,8,0,1,1,0.09934060958500457,0.07380264693429658,4.394373676909099,0,0,0,-26,-1,0,0,32,0,1,"",""
197,22842121,0,0,0,0,0,0,0,0,0,-58,-2,0,1000,165,1944,-7,6,0,-2,-177,125,2074,431,353,0,228,1,8,0,1,1,0.09925004968021837,0.0738730823175925,4.394421026788679,0,0,0,-26,-1,0,0,32,1,-2,"",""
198,22843470,0,0,0,0,0,0,0,0,0,-58,-2,0,1000,165,1944,-7,7,0,-5,-177,125,2073,611,468,0,413,1,8,0,1,1,0.09917826256682108,0.07394996279448607,4.394538440019307,0,0,0,-26,-1,0,0,33,1,-5,"",""
199,22844815,0,0,0,0,0,0,0,0,0,-58,-2,0,1000,165,1944,-7,7,1,-8,-177,126,2072,771,546,0,578,1,8,0,1,1,0.09910542048815324,0.07405643526915649,4.394723452461445,0,0,0,-26,-1,0,0,33,2,-8,"",""
200,22846148,0,0,0,0,0,0,0,0,0,-58,-2,0,1000,148,1201,-7,8,2,-9,-177,128,2071,850,566,0,659,1,8,0,1,1,0.09905995247492076,0.07418711930845631,4.394927736222644,0,0,0,-26,-1,0,0,34,3,-9,"",""
201,22847487,0,0,0,0,0,0,0,0,0,-58,-2,0,1000,148,1201,-7,8,2,-9,-178,129,2069,855,527,0,627,1,8,0,1,1,0.09901966726916003,0.07432022304172099,4.39513295999831,0,0,0,-26,-1,0,0,34,3,-9,"",""
202,22848826,0,0,0,0,0,0,0,0,0,-58,-2,0,1000,148,1201,-7,8,2,-9,-179,130,2066,827,490,0,608,1,8,0,1,1,0.0989840030406017,0.0744556218067743,4.395338203353321,0,0,0,-26,-1,0,0,34,3,-9,"",""
203,22850184,0,0,0,0,0,0,0,0,0,-58,-2,0,1000,148,1201,-7,8,2,-8,-179,131,2064,721,395,0,535,1,8,0,1,1,0.09895679393490195,0.0745889724699941,4.395522726630794,0,0,0,-26,-1,0,0,34,3,-8,"",""
204,22851582,0,0,0,0,0,0,0,0,0,-58,-2,0,1000,148,1201,-7,7,1,-6,-179,133,2063,531,241,0,389,1,8,0,1,1,0.09892056041163849,0.07469443942081615,4.395666422553625,0,0,0,-26,-1,0,0,33,2,-6,"",""
205,22852917,0,0,0,0,0,0,0,0,0,-58,-2,0,1000,148,1201,-7,6,1,-4,-179,136,2064,338,102,0,240,1,8,0,1,1,0.0988662667821306,0.07479245567312923,4.395757151223507,0,0,0,-26,-1,0,0,32,2,-4,"",""
206,22854257,0,0,0,0,0,0,0,0,0,-58,-2,0,1000,148,1201,-7,4,1,-1,-179,139,2066,184,0,28,110,1,8,0,1,1,0.09877975925485764,0.07488241710169322,4.395778211519426,0,0,0,-26,-1,0,0,30,2,-1,"",""
207,22855586,0,0,0,0,0,0,0,0,0,-58,-2,0,1000,148,1201,-7,3,1,1,-178,143,2068,142,0,35,64,1,8,0,1,1,0.09868428748756407,0.07496368808785793,4.39575280884709,0,0,0,-26,-1,0,0,29,2,1,"",""
208,22856914,0,0,0,0,0,0,0,0,0,-58,-2,0,1000,148,1201,-7,3,1,4,-175,146,2070,88,4,8,0,1,8,0,1,1,0.0986026252807691,0.0750289472781139,4.3956580372002465,0,0,0,-26,-1,0,0,29,2,4,"",""
209,22858263,0,0,0,0,0,0,0,0,0,-58,-2,0,1000,148,1201,-7,3,1,6,-172,147,2072,119,95,75,0,1,8,0,1,1,0.09852889037228024,0.075080838396871,4.3955147755343145,0,0,0,-26,-1,0,0,29,2,6,"",""
210,22859624,0,0,0,0,0,0,0,0,0,-58,-2,0,1000,148,1201,-7,4,1,7,-168,149,2074,150,178,148,0,1,8,0,1,1,0.09848707536785788,0.07511898206956281,4.395346533720375,0,0,0,-26,-1,0,0,30,2,7,"",""
211,22860980,0,0,0,0,0,0,0,0,0,-58,-2,0,1000,148,1201,-7,4,1,8,-166,151,2076,179,245,144,0,1,8,0,1,1,0.09845221783978787,0.07514873243435848,4.395155290897435,0,0,0,-26,-1,0,0,30,2,8,"",""
212,22862313,0,0,0,0,0,0,0,0,0,-58,-2,0,1000,148,1201,-7,5,1,7,-165,155,2077,185,237,112,0,1,8,0,1,1,0.09844796499838063,0.07517750896936173,4.39499050780814,0,0,0,-26,-1,0,0,31,2,7,"",""
213,22863645,0,0,0,0,0,0,0,0,0,-58,-2,0,1000,148,1201,-7,5,1,5,-164,161,2077,174,188,87,0,1,8,0,1,1,0.09845644999059856,0.07520784869015128,4.394872245606658,0,0,0,-26,-1,0,0,31,2,5,"",""
214,22864983,0,0,0,0,0,0,0,0,0,-58,-2,0,1000,148,1201,-7,5,2,3,-165,168,2077,156,132,4,0,1,8,0,1,1,0.0984809066149505,0.0752681648268378,4.394797752998868,0,0,0,-26,-1,0,0,31,3,3,"",""
215,22866452,0,0,0,0,0,0,0,0,0,-58,-2,0,1000,153,0,-7,5,2,2,-165,175,2077,222,158,0,110,1,8,0,1,1,0.0985338560458979,0.07533429962350775,4.394741545890462,0,0,0,-26,-1,0,0,31,3,2,"",""
216,22867963,0,0,0,0,0,0,0,0,0,-58,-2,0,1000,153,0,-7,4,3,0,-166,182,2078,253,154,0,171,1,8,0,1,1,0.09857853402394474,0.07543483593211402,4.394733759020177,0,0,0,-26,-1,0,0,30,4,0,"",""
217,22869329,0,0,0,0,0,0,0,0,0,-58,-2,0,1000,153,0,-7,3,3,-2,-168,189,2080,251,110,0,176,1,8,0,1,1,0.0986033943493873,0.07553654720788364,4.394774301628771,0,0,0,-26,-1,0,0,29,4,-2,"",""
218,22870659,0,0,0,0,0,0,0,0,0,-58,-2,0,1000,153,0,-7,3,3,-3,-170,195,2080,321,151,0,253,1,8,0,1,1,0.09864021029099913,0.07564293310945469,4.394836934170417,0,0,0,-26,-1,0,0,29,4,-3,"",""
219,22871993,0,0,0,0,0,0,0,0,0,-58,-2,0,1000,153,0,-7,2,3,-5,-173,200,2080,374,168,0,312,1,8,0,1,1,0.09866330618865034,0.0757610252877073,4.394946219034175,0,0,0,-26,-1,0,0,28,4,-5,"",""
220,22873323,0,0,0,0,0,0,0,0,0,-58,-2,0,1000,153,0,-7,2,2,-6,-175,206,2079,389,146,0,319,1,8,0,1,1,0.0986998960356263,0.07586259600170459,4.395080624592736,0,0,0,-26,-1,0,0,28,3,-6,"",""
221,22874656,0,0,0,0,0,0,0,0,0,-58,-2,0,1000,153,0,-7,1,2,-7,-178,213,2080,473,215,0,402,1,8,0,1,1,0.09872905462021045,0.0759731992206102,4.395238537624503,0,0,0,-26,-1,0,0,27,3,-7,"",""
222,22875992,0,0,0,0,0,0,0,0,0,-58,-2,0,1000,153,0,-7,1,2,-6,-179,220,2081,501,230,0,410,1,8,0,1,1,0.0987772838429194,0.0760831032771079,4.395373518115781,0,0,0,-26,-1,0,0,27,3,-6,"",""
223,22877355,0,0,0,0,0,0,0,0,0,-58,-2,0,1000,153,0,-7,1,2,-5,-180,227,2083,509,253,0,427,1,8,0,1,1,0.09884438203948893,0.07619313333442554,4.395487465929595,0,0,0,-26,-1,0,0,27,3,-5,"",""
224,22878730,0,0,0,0,0,0,0,0,0,-58,-2,0,1000,153,0,-7,1,2,-3,-180,232,2085,536,338,0,457,1,8,0,1,1,0.09892678891734892,0.07629772708926895,4.395554498806489,0,0,0,-26,-1,0,0,27,3,-3,"",""
225,22880065,0,0,0,0,0,0,0,0,0,-58,-2,0,1000,153,0,-7,1,2,0,-179,235,2087,394,237,0,322,1,8,0,1,1,0.09902030496718815,0.07639018537078485,4.395549804640932,0,0,0,-26,-1,0,0,27,3,0,"",""
226,22881395,0,0,0,0,0,0,0,0,0,-58,-2,0,1000,153,0,-7,1,2,3,-177,238,2089,251,159,0,191,1,8,0,1,1,0.09912527600286374,0.07646952544457536,4.3954756137747895,0,0,0,-26,-1,0,0,27,3,3,"",""
227,22882732,0,0,0,0,0,0,0,0,0,-58,-2,0,1000,153,0,-7,1,3,7,-174,239,2091,139,136,0,63,1,8,0,1,1,0.09923883624260403,0.0765545333681173,4.395305552014355,0,0,0,-26,-1,0,0,27,4,7,"",""
228,22884058,0,0,0,0,0,0,0,0,0,-58,-2,0,1000,153,0,-7,1,3,10,-172,240,2095,83,131,84,0,1,8,0,1,1,0.09935800840140169,0.07662593619162683,4.395067586825253,0,0,0,-26,-1,0,0,27,4,10,"",""
229,22885405,0,0,0,0,0,0,0,0,0,-58,-2,0,1000,153,0,-7,1,3,13,-171,240,2100,111,198,207,0,1,8,0,1,1,0.09948107317489285,0.07668718990755806,4.394755459633711,0,0,0,-26,-1,0,0,27,4,13,"",""
230,22886775,0,0,0,0,0,0,0,0,0,-58,-2,0,1000,153,156,-7,2,3,14,-172,241,2105,140,252,256,0,1,8,0,1,1,0.09963088702862193,0.07674781422870097,4.394414130360879,0,0,0,-26,-1,0,0,28,4,14,"",""
231,22888133,0,0,0,0,0,0,0,0,0,-58,-2,0,1000,153,156,-7,2,3,13,-175,243,2108,147,223,274,0,1,8,0,1,1,0.09978139463681229,0.07681676950587725,4.394099427447898,0,0,0,-26,-1,0,0,28,4,13,"",""
232,22889463,0,0,0,0,0,0,0,0,0,-58,-2,0,1000,153,156,-7,1,2,10,-180,247,2111,131,191,245,0,1,8,0,1,1,0.09990986590822054,0.0768799236510544,4.393863006253228,0,0,0,-26,-1,0,0,27,3,10,"",""
233,22890788,0,0,0,0,0,0,0,0,0,-58,-2,0,1000,153,156,-7,1,2,6,-186,251,2113,93,101,131,0,1,8,0,1,1,0.1000394342543386,0.07696584986794308,4.393719765469684,0,0,0,-26,-1,0,0,27,3,6,"",""
234,22892119,0,0,0,0,0,0,0,0,0,-58,-2,0,1000,153,156,-7,0,2,2,-191,256,2116,77,7,51,0,1,8,0,1,1,0.10014937669113153,0.07707199332896689,4.393668582351947,0,0,0,-26,-1,0,0,26,3,2,"",""
235,22893459,0,0,0,0,0,0,0,0,0,-58,-2,0,1000,153,156,-7,-1,2,-3,-195,261,2119,149,8,0,110,1,8,0,1,1,0.10023758054783316,0.07719829037935526,4.393733725844849,0,0,0,-26,-1,0,0,25,3,-3,"",""
236,22894825,0,0,0,0,0,0,0,0,0,-58,-2,0,1000,153,156,-7,-1,2,-7,-199,267,2121,427,206,0,386,1,8,0,1,1,0.10033105402750539,0.07734336968565936,4.393895274734296,0,0,0,-26,-1,0,0,25,3,-7,"",""
237,22896326,0,0,0,0,0,0,0,0,0,-58,-2,0,1000,153,156,-7,-1,3,-11,-201,271,2121,690,358,0,618,1,8,0,1,1,0.10042176472401214,0.07753483532829898,4.394174724670545,0,0,0,-26,-1,0,0,25,4,-11,"",""
238,22897803,0,0,0,0,0,0,0,0,0,-59,-2,0,1000,153,156,-7,-1,3,-13,-202,276,2121,775,379,0,645,1,8,0,1,1,0.10052025236519198,0.07773078050190414,4.394501116816428,0,0,0,-27,-1,0,0,26,4,-13,"",""
239,22899141,0,0,0,0,0,0,0,0,0,-60,-2,0,1000,153,156,-7,0,3,-14,-203,280,2120,818,398,0,644,1,8,0,1,1,0.10065367469139935,0.07791993600220978,4.394820034135804,0,0,0,-27,-1,0,0,27,4,-14,"",""
240,22900471,0,0,0,0,0,0,0,0,0,-61,-2,0,1000,153,156,-7,0,2,-13,-202,283,2119,809,380,0,646,1,8,0,1,1,0.10079496299215496,0.07807970650218518,4.395116185390156,0,0,0,-28,-1,0,0,28,3,-13,"",""
241,22901808,0,0,0,0,0,0,0,0,0,-62,-2,0,1000,153,156,-7,0,2,-12,-201,285,2117,784,370,0,627,1,8,0,1,1,0.10094183450809002,0.07823444206194716,4.395390583990087,0,0,0,-28,-1,0,0,28,3,-12,"",""
242,22903150,0,0,0,0,0,0,0,0,0,-64,-2,0,1000,153,156,-7,0,2,-9,-200,286,2117,753,370,0,605,1,8,0,1,1,0.10109508739390588,0.07837900862685619,4.395595866021788,0,0,0,-29,-1,0,0,29,3,-9,"",""
243,22904589,0,0,0,0,0,0,0,0,0,-65,-2,0,1000,153,156,-7,0,2,-6,-199,288,2118,638,328,0,536,1,8,0,1,1,0.10125613852914299,0.07851735212327188,4.395740793822753,0,0,0,-30,-1,0,0,30,3,-6,"",""
244,22905985,0,0,0,0,0,0,0,0,0,-67,-2,0,1000,136,3318,-7,-1,2,-3,-197,289,2119,438,208,0,384,1,8,0,1,1,0.10139967924324582,0.07864058466891957,4.395808416588731,0,0,0,-31,-1,0,0,30,3,-3,"",""
245,22907327,0,0,0,0,0,0,0,0,0,-69,-2,0,1000,136,3318,-7,-1,2,0,-196,291,2121,259,91,0,219,1,8,0,1,1,0.10155273955477184,0.078751008771683,4.39580326407479,0,0,0,-32,-1,0,0,31,3,0,"",""
246,22908655,0,0,0,0,0,0,0,0,0,-71,-2,0,1000,136,3318,-7,-2,2,4,-194,292,2123,106,0,14,45,1,8,0,1,1,0.10169072210813487,0.07884578406406399,4.395705625517134,0,0,0,-33,-1,0,0,31,3,4,"",""
247,22909986,0,0,0,0,0,0,0,0,0,-74,-2,0,1000,136,3318,-7,-2,1,7,-191,291,2126,80,25,71,0,1,8,0,1,1,0.10182957156886432,0.0789024292461742,4.395540587427885,0,0,0,-34,-1,0,0,32,2,7,"",""
248,22911327,0,0,0,0,0,0,0,0,0,-76,-2,0,1000,136,3318,-7,-3,1,10,-189,290,2129,118,106,160,0,1,8,0,1,1,0.1019460909688617,0.07894639772397648,4.39530425086057,0,0,0,-35,-1,0,0,32,2,10,"",""
249,22912683,0,0,0,0,0,0,0,0,0,-78,-2,0,1000,136,3318,-7,-3,0,11,-187,289,2133,164,187,231,0,1,8,0,1,1,0.1020593082337293,0.07895882100504731,4.395044085806068,0,0,0,-36,-1,0,0,33,1,11,"",""
250,22914056,0,0,0,0,0,0,0,0,0,-80,-2,0,1000,136,3318,-7,-3,0,11,-186,288,2135,199,240,265,0,1,8,0,1,1,0.10216801752076092,0.07896804944010734,4.394780679189593,0,0,0,-37,-1,0,0,34,1,11,"",""
251,22915412,0,0,0,0,0,0,0,0,0,-82,-2,0,1000,136,3318,-7,-2,0,9,-187,286,2136,221,274,235,0,1,8,0,1,1,0.10229130982844911,0.07898435784108854,4.3945677824590685,0,0,0,-38,-1,0,0,36,1,9,"",""
252,22916746,0,0,0,0,0,0,0,0,0,-85,-2,0,1000,136,3318,-7,-2,1,6,-188,286,2135,208,230,97,0,1,8,0,1,1,0.10240893631723536,0.07903338872821743,4.394425652743411,0,0,0,-40,-1,0,0,38,2,6,"",""
253,22918077,0,0,0,0,0,0,0,0,0,-87,-2,0,1000,136,3318,-7,-2,1,3,-188,286,2133,214,177,0,28,1,8,0,1,1,0.10252057267902594,0.07908945403400605,4.394353382256011,0,0,0,-41,-1,0,0,39,2,3,"",""
254,22919411,0,0,0,0,0,0,0,0,0,-89,-2,0,1000,136,3318,-7,-3,1,0,-188,287,2131,336,254,0,206,1,8,0,1,1,0.10260516756099641,0.07915259004647483,4.394350640090389,0,0,0,-42,-1,0,0,39,2,0,"",""
255,22920747,0,0,0,0,0,0,0,0,0,-92,-2,0,1000,136,3318,-7,-3,2,-2,-188,289,2128,464,364,0,430,1,8,0,1,1,0.1026904995862692,0.07924365173669932,4.394392016623016,0,0,0,-44,-1,0,0,41,3,-2,"",""
256,22922111,0,0,0,0,0,0,0,0,0,-94,-2,0,1000,136,3318,-7,-4,2,-4,-188,290,2125,548,383,0,517,1,8,0,1,1,0.10274889527275535,0.07934057914916313,4.394481762957188,0,0,0,-45,-1,0,0,41,3,-4,"",""
257,22923488,0,0,0,0,0,0,0,0,0,-96,-2,0,1000,136,3318,-7,-4,2,-5,-189,292,2121,637,429,0,562,1,8,0,1,1,0.10280905114284183,0.07944282853850759,4.394596327078128,0,0,0,-46,-1,0,0,42,3,-5,"",""
258,22924957,0,0,0,0,0,0,0,0,0,-99,-2,8,1000,136,3318,-7,-4,2,-6,-193,293,2117,652,407,0,551,1,8,0,1,1,0.10286252953410932,0.0795607232588191,4.394744137063619,0,0,0,-47,-1,3,0,43,3,-9,"",""
259,22926440,0,0,0,0,0,0,0,0,0,-101,-2,8,1000,146,1703,-7,-5,2,-6,-198,294,2113,684,374,0,544,1,8,0,1,1,0.10289152286685252,0.07969038471664654,4.394893340899837,0,0,0,-48,-1,3,0,43,3,-9,"",""
260,22927787,0,0,0,0,0,0,0,0,0,-104,-2,8,1000,146,1703,-7,-6,1,-6,-204,295,2110,615,305,0,446,1,8,0,1,1,0.1029120615954326,0.07980367699894722,4.395031227172568,0,0,0,-50,-1,3,0,44,2,-9,"",""
261,22929123,0,0,0,0,0,0,0,0,0,-106,-2,8,1000,146,1703,-7,-6,0,-5,-210,296,2108,574,286,0,404,1,8,0,1,1,0.10293752875791248,0.07990407684484727,4.395147107029263,0,0,0,-51,-1,3,0,45,1,-8,"",""
262,22930471,0,0,0,0,0,0,0,0,0,-109,-2,8,1000,146,1703,-7,-7,0,-3,-215,296,2107,477,261,0,402,1,8,0,1,1,0.1029415363502392,0.080010268840729,4.395217076197144,0,0,0,-53,-1,3,0,46,1,-6,"",""
263,22931837,0,0,0,0,0,0,0,0,0,-111,-2,8,1000,146,1703,-7,-8,0,0,-218,294,2106,456,274,0,365,1,8,0,1,1,0.10292048162193851,0.08011527800710133,4.395216623433808,0,0,0,-54,-1,3,0,46,1,-3,"",""
264,22933185,0,0,0,0,0,0,0,0,0,-115,-2,9,1000,146,1703,-7,-8,0,4,-219,291,2106,430,300,0,311,1,8,0,1,1,0.10290238675103765,0.08021211956352667,4.3951222766256395,0,0,0,-56,-1,3,0,48,1,1,"",""
265,22934575,0,0,0,0,0,0,0,0,0,-118,-2,9,1000,146,1703,-7,-8,0,7,-218,287,2106,277,239,0,206,1,8,0,1,1,0.10287530213541678,0.08029833866333241,4.394952398188559,0,0,0,-58,-1,3,0,50,1,4,"",""
266,22935922,0,0,0,0,0,0,0,0,0,-122,-2,9,1000,146,1703,-7,-8,0,11,-215,282,2107,85,123,0,20,1,8,0,1,1,0.10284977751868844,0.0803681434459914,4.394693948371692,0,0,0,-61,-1,3,0,53,1,8,"",""
267,22937274,0,0,0,0,0,0,0,0,0,-125,-2,9,1000,146,1703,-7,-8,0,13,-213,277,2109,111,189,113,0,1,8,0,1,1,0.10281574984974125,0.08042780961073902,4.394387473899851,0,0,0,-62,-1,3,0,54,1,10,"",""
268,22938621,0,0,0,0,0,0,0,0,0,-129,-2,9,1000,146,1703,-7,-9,0,15,-210,274,2110,54,173,135,0,1,8,0,1,1,0.1027557147977956,0.08047562614229409,4.3940352257171265,0,0,0,-65,-1,3,0,56,1,12,"",""
269,22939983,0,0,0,0,0,0,0,0,0,-132,-2,9,1000,146,1703,-7,-9,0,15,-208,273,2112,61,192,164,0,1,8,0,1,1,0.1026909603491583,0.08051793073122397,4.393679064805487,0,0,0,-67,-1,3,0,58,1,12,"",""
270,22941346,0,0,0,0,0,0,0,0,0,-136,-2,9,1000,146,1703,-7,-10,0,13,-206,272,2114,76,191,167,0,1,8,0,1,1,0.10259594137812265,0.0805600072610844,4.393370129234076,0,0,0,-69,-1,3,0,59,1,10,"",""
271,22942678,0,0,0,0,0,0,0,0,0,-138,-2,9,1000,146,1703,-7,-11,0,10,-205,272,2115,32,114,105,0,1,8,0,1,1,0.10247691281070763,0.08060718947182383,4.393137814790642,0,0,0,-70,-1,3,0,59,1,7,"",""
272,22944012,0,0,0,0,0,0,0,0,0,-140,-2,9,1000,146,1703,-7,-11,0,6,-205,273,2116,47,87,31,0,1,8,0,1,1,0.10235222219818195,0.08066320840758844,4.392998090352802,0,0,0,-72,-1,3,0,61,1,3,"",""
273,22945339,0,0,0,0,0,0,0,0,0,-142,-2,9,1000,146,1703,-7,-12,0,2,-206,273,2116,151,128,0,81,1,8,0,1,1,0.10219856956388507,0.08073039656494252,4.3929515542022965,0,0,0,-73,-1,3,0,61,1,-1,"",""
274,22946673,0,0,0,0,0,0,0,0,0,-144,-2,9,1000,153,0,-7,-12,-1,-2,-207,274,2115,369,249,0,237,1,8,0,1,1,0.1020385363350294,0.08078571451288094,4.393000095475267,0,0,0,-74,-1,3,0,62,0,-5,"",""
275,22948027,0,0,0,0,0,0,0,0,0,-146,-2,9,1000,153,0,-7,-12,-1,-7,-209,276,2112,683,473,0,534,1,8,0,1,1,0.10187008724685916,0.08085696516186225,4.393167286692914,0,0,0,-75,-1,3,0,63,0,-10,"",""
276,22949387,0,0,0,0,0,0,0,0,0,-148,-2,9,1000,153,0,-7,-12,-1,-11,-212,277,2107,825,524,0,600,1,8,0,1,1,0.10169629963745264,0.08094439630773646,4.393429977369456,0,0,0,-77,-1,3,0,65,0,-14,"",""
277,22950768,0,0,0,0,0,0,0,0,0,-151,-2,9,1000,153,0,-7,-11,-1,-13,-215,278,2102,863,525,0,626,1,8,0,1,1,0.10154150986693165,0.08104323527615649,4.393744839024818,0,0,0,-79,-1,3,0,68,0,-16,"",""
278,22952302,0,0,0,0,0,0,0,0,0,-153,-2,9,1000,153,0,-7,-11,-1,-15,-218,279,2096,890,532,0,641,1,8,0,1,1,0.10135403803853488,0.08115488258830005,4.394148064775293,0,0,0,-80,-1,3,0,69,0,-18,"",""
279,22953789,0,0,0,0,0,0,0,0,0,-156,-2,9,1000,153,0,-7,-11,-1,-14,-219,280,2092,862,521,0,639,1,8,0,1,1,0.10118200071939513,0.08126542293178388,4.39451301846293,0,0,0,-82,-1,3,0,71,0,-17,"",""
280,22955142,0,0,0,0,0,0,0,0,0,-159,-2,9,1000,153,0,-7,-12,-1,-12,-221,280,2089,765,482,0,609,1,8,0,1,1,0.10101950097065876,0.08137413593659751,4.394797911721429,0,0,0,-84,-1,3,0,72,0,-15,"",""
281,22956494,0,0,0,0,0,0,0,0,0,-161,-2,9,1000,153,0,-7,-13,-1,-10,-222,279,2085,665,407,0,508,1,8,0,1,1,0.10083658982583121,0.08148008883735644,4.395035490747636,0,0,0,-85,-1,3,0,72,0,-13,"",""
282,22957854,0,0,0,0,0,0,0,0,0,-164,-2,9,1000,153,0,-7,-14,-1,-7,-225,276,2083,592,357,0,419,1,8,0,1,1,0.10062842726027368,0.08158477201633811,4.395203408270959,0,0,0,-88,-1,3,0,74,0,-10,"",""
283,22959223,0,0,0,0,0,0,0,0,0,-166,-2,9,1000,153,0,-7,-15,-2,-4,-229,273,2082,506,305,0,330,1,8,0,1,1,0.10039428826257485,0.08166633456622839,4.3953032980328715,0,0,0,-89,-1,3,0,74,-1,-7,"",""
284,22960628,0,0,0,0,0,0,0,0,0,-168,-2,9,1000,153,0,-7,-15,-3,-2,-235,268,2083,408,222,0,171,1,8,0,1,1,0.10014438664611491,0.08172939111843873,4.395359340351619,0,0,0,-90,-1,3,0,75,-2,-5,"",""
285,22961966,0,0,0,0,0,0,0,0,0,-169,-2,9,1000,153,0,-7,-15,-3,0,-243,264,2084,304,154,0,56,1,8,0,1,1,0.09990821342867218,0.08180686400675014,4.395366077906207,0,0,0,-91,-1,3,0,76,-2,-3,"",""
286,22963297,0,0,0,0,0,0,0,0,0,-170,-2,9,1000,153,0,-7,-15,-4,2,-251,259,2085,249,152,0,38,1,8,0,1,1,0.09966762792338967,0.08187277243403272,4.395328723875459,0,0,0,-92,-1,3,0,77,-3,-1,"",""
287,22964623,0,0,0,0,0,0,0,0,0,-172,-2,9,1000,153,0,-7,-15,-4,4,-257,256,2086,185,136,0,3,1,8,0,1,1,0.0994264710840476,0.08194598488445617,4.39524529314423,0,0,0,-93,-1,3,0,78,-3,1,"",""
288,22965969,0,0,0,0,0,0,0,0,0,-173,-2,9,1000,154,441,-7,-15,-4,6,-262,254,2088,128,167,14,10,1,8,0,1,1,0.09918028857190933,0.08202224045302316,4.395113685419176,0,0,0,-94,-1,3,0,79,-3,3,"",""
289,22967336,0,0,0,0,0,0,0,0,0,-174,-2,9,1000,154,441,-7,-15,-4,7,-264,252,2090,102,194,54,10,1,8,0,1,1,0.09892705466868407,0.08209748408318336,4.394956191556041,0,0,0,-95,-1,3,0,80,-3,4,"",""
290,22968694,0,0,0,0,0,0,0,0,0,-176,-2,9,1000,154,441,-7,-15,-3,8,-263,252,2093,68,201,63,10,1,8,0,1,1,0.09867846418400854,0.0821912903223324,4.394773703358676,0,0,0,-96,-1,3,0,81,-2,5,"",""
291,22970086,0,0,0,0,0,0,0,0,0,-177,-2,9,1000,154,441,-7,-15,-3,8,-261,252,2095,38,183,49,10,1,8,0,1,1,0.09842182796364889,0.08227761501067327,4.394586631395704,0,0,0,-97,-1,3,0,82,-2,5,"",""
292,22971436,0,0,0,0,0,0,0,0,0,-178,-2,9,1000,154,441,-7,-16,-3,6,-259,252,2095,65,151,81,10,1,8,0,1,1,0.09814925124652862,0.08236642751894241,4.3944522348288935,0,0,0,-97,-1,3,0,81,-2,3,"",""
293,22972779,0,0,0,0,0,0,0,0,0,-180,-2,9,1000,154,441,-7,-17,-3,3,-258,253,2095,61,119,16,10,1,8,0,1,1,0.0978524459014226,0.08245966603196202,4.394388732075881,0,0,0,-99,-1,3,0,82,-2,0,"",""
294,22974127,0,0,0,0,0,0,0,0,0,-181,-2,9,1000,154,441,-7,-17,-3,-2,-257,255,2094,179,150,10,75,1,8,0,1,1,0.09754982834348971,0.08256130087237804,4.394442445700403,0,0,0,-100,-1,3,0,83,-2,-5,"",""
295,22975472,0,0,0,0,0,0,0,0,0,-182,-2,9,1000,154,441,-7,-18,-3,-7,-258,257,2092,449,302,10,267,1,8,0,1,1,0.09722056814189561,0.08267583672617146,4.394613237716281,0,0,0,-100,-1,3,0,82,-2,-10,"",""
296,22976831,0,0,0,0,0,0,0,0,0,-184,-2,9,1000,154,441,-7,-18,-3,-11,-258,258,2090,647,411,10,416,1,8,0,1,1,0.09688250514824544,0.0827982699306934,4.394880552054665,0,0,0,-102,-1,3,0,84,-2,-14,"",""
297,22978181,0,0,0,0,0,0,0,0,0,-184,-2,9,1000,154,441,-7,-18,-3,-14,-259,259,2087,777,498,10,545,1,8,0,1,1,0.0965453004226108,0.0829292215941678,4.395216685610867,0,0,0,-102,-1,3,0,84,-2,-17,"",""
298,22979530,0,0,0,0,0,0,0,0,0,-184,-2,9,1000,154,441,-7,-18,-3,-16,-259,261,2083,892,601,10,686,1,8,0,1,1,0.09621041858864773,0.08306422783627171,4.395599596063258,0,0,0,-102,-1,3,0,84,-2,-19,"",""
299,22981004,0,0,0,0,0,0,0,0,0,-185,-2,9,1000,154,441,-7,-17,-3,-16,-260,261,2080,903,574,10,652,1,8,0,1,1,0.09586074917715355,0.08319742539345185,4.396018001757293,0,0,0,-103,-1,3,0,86,-2,-19,"",""
300,22982478,0,0,0,0,0,0,0,0,0,-185,-2,9,1000,154,441,-7,-18,-2,-14,-261,260,2077,868,578,10,661,1,8,0,1,1,0.09548958847266406,0.08335259777952478,4.3963825509894505,0,0,0,-103,-1,3,0,85,-1,-17,"",""
301,22983815,0,0,0,0,0,0,0,0,0,-185,-2,9,1000,154,441,-7,-18,-2,-11,-262,258,2074,783,532,10,604,1,8,0,1,1,0.0951676726045158,0.08350403999184486,4.396643280770601,0,0,0,-103,-1,3,0,85,-1,-14,"",""
