"Product","Blackbox flight data recorder by Nicholas Sherlock"
"firmwareType",3
"firmware","3.3"
"firmwarePatch",3
"firmwareVersion","3.3.3"
"Firmware revision","Betaflight 3.3.3 (4dd6907a9) MATEKF722"
"Firmware date","Jun 11 2022 14:50:31"
"Log start datetime","0000-01-01T00:00:00.000+00:00"
"Craft name","NEUROFLIGHT"
"frameIntervalI",32
"frameIntervalPNum",1
"frameIntervalPDenom",1
"minthrottle",1070
"maxthrottle",2000
"gyroScale",1.7453292519943295e-8
"motorOutput","128,2047"
"acc_1G",2048
"vbatscale",110
"vbatmincellvoltage",33
"vbatwarningcellvoltage",35
"vbatmaxcellvoltage",43
"vbatref",152
"currentMeterOffset",0
"currentMeterScale",179
"looptime",125
"gyro_sync_denom",1
"pid_process_denom",8
"thrMid",50
"thrExpo",0
"dynThrPID",10
"tpa_breakpoint",1650
"rc_rates","100,100,100"
"rc_expo","0,0,0"
"rates","70,70,70"
"rollPID","40,40,30"
"pitchPID","58,50,35"
"yawPID","70,45,20"
"altPID","50,0,0"
"posPID","15,0,0"
"posrPID","34,14,53"
"navrPID","25,33,83"
"levelPID","50,50,75"
"magPID","40,,"
"velPID","55,55,75"
"dterm_filter_type",1
"dterm_lpf_hz",100
"yaw_lpf_hz",0
"dterm_notch_hz",260
"dterm_notch_cutoff",160
"itermWindupPointPercent",50
"vbat_pid_compensation",0
"pidAtMinThrottle",1
"anti_gravity_threshold",350
"anti_gravity_gain",1000
"setpointRelaxRatio",100
"dtermSetpointWeight",0
"yawRateAccelLimit",0.1
"rateAccelLimit",0
"pidSumLimit",500
"pidSumLimitYaw",400
"deadband",0
"yaw_deadband",0
"gyro_lpf",0
"gyro_soft_type",0
"gyro_lowpass_hz",90
"gyro_notch_hz","400,200"
"gyro_notch_cutoff","300,100"
"acc_lpf_hz",1000
"acc_hardware",0
"baro_hardware",0
"mag_hardware",0
"gyro_cal_on_first_arm",0
"rc_interpolation",2
"rc_interpolation_interval",19
"airmode_activate_throttle",32
"serialrx_provider",2
"unsynced_fast_pwm",0
"fast_pwm_protocol",7
"motor_pwm_rate",480
"digitalIdleOffset",400
"debug_mode",0
"features",263176
"loopIteration","time","axisP[0]","axisP[1]","axisP[2]","axisI[0]","axisI[1]","axisI[2]","axisD[0]","axisD[1]","axisD[2]","rcCommand[0]","rcCommand[1]","rcCommand[2]","rcCommand[3]","vbatLatest","amperageLatest","BaroAlt","gyroADC[0]","gyroADC[1]","gyroADC[2]","accSmooth[0]","accSmooth[1]","accSmooth[2]","motor[0]","motor[1]","motor[2]","motor[3]","flightModeFlags","stateFlags","failsafePhase","rxSignalReceived","rxFlightChannelsValid","heading[0]","heading[1]","heading[2]","axisSum[0]","axisSum[1]","axisSum[2]","rcCommands[0]","rcCommands[1]","rcCommands[2]","rcCommands[3]","axisError[0]","axisError[1]","axisError[2]"
0,115862356,0,0,0,0,0,0,0,0,0,10,-2,0,1000,151,0,167,14,-2,0,94,28,2003,128,298,296,330,"","","","","",0.013978120996583684,-0.04689062405936415,4.396484386262165,0,0,0,4,-1,0,0,10,-1,0,"",""
1,115863713,0,0,0,0,0,0,0,0,0,10,-2,0,1000,151,0,167,15,-2,0,96,28,2002,128,303,311,329,1,8,0,1,1,0.014159156675879058,-0.04742462297294489,4.396485057681352,0,0,0,4,-1,0,0,11,-1,0,"",""
2,115865195,0,0,0,0,0,0,0,0,0,10,-2,0,1000,151,0,167,15,-2,0,99,27,2001,128,310,335,319,1,8,0,1,1,0.014195188409988523,-0.04812852473866004,4.3964857761632175,0,0,0,4,-1,0,0,11,-1,0,"",""
3,115866665,0,0,0,0,0,0,0,0,0,10,-2,0,1000,151,0,167,15,-2,0,102,25,1999,128,310,323,330,1,8,0,1,1,0.014060745054258656,-0.04888025009100176,4.3964864470027365,0,0,0,4,-1,0,0,11,-1,0,"",""
4,115867998,0,0,0,0,0,0,0,0,0,10,-2,0,1000,151,0,167,15,-2,0,106,24,1998,128,308,344,335,1,8,0,1,1,0.013929122632346849,-0.04974313371817028,4.396487023602108,0,0,0,4,-1,0,0,11,-1,0,"",""
5,115869372,0,0,0,0,0,0,0,0,0,10,-2,0,1000,151,0,167,15,-2,0,109,24,1996,128,306,349,337,1,8,0,1,1,0.013910456629318694,-0.05058638305998487,4.396487617079911,0,0,0,4,-1,0,0,11,-1,0,"",""
6,115870734,0,0,0,0,0,0,0,0,0,10,-2,0,1000,152,0,167,14,-2,0,112,24,1995,128,295,350,387,1,8,0,1,1,0.013926109849339324,-0.05141404529169567,4.396488202361733,0,0,0,4,-1,0,0,10,-1,0,"",""
7,115872102,0,0,0,0,0,0,0,0,0,10,-2,0,1000,152,0,167,13,-2,-1,115,23,1993,128,284,363,393,1,8,0,1,1,0.01389947159376123,-0.05223571214577534,4.396512674399336,0,0,0,4,-1,0,0,9,-1,-1,"",""
8,115873428,0,0,0,0,0,0,0,0,0,10,-2,0,1000,152,0,167,13,-3,-1,118,22,1991,128,305,365,358,1,8,0,1,1,0.013850155685673918,-0.053073121008773066,4.396536692235378,0,0,0,4,-1,0,0,9,-2,-1,"",""
9,115874767,0,0,0,0,0,0,0,0,0,10,-2,0,1000,152,0,167,12,-3,-1,120,21,1989,128,278,361,412,1,8,0,1,1,0.013773172721402431,-0.0538570151445146,4.396560915876103,0,0,0,4,-1,0,0,8,-2,-1,"",""
10,115876098,0,0,0,0,0,0,0,0,0,10,-2,0,1000,152,0,167,12,-3,-1,121,20,1987,128,288,364,424,1,8,0,1,1,0.013689270593941504,-0.05455555314388218,4.3965849620170765,0,0,0,4,-1,0,0,8,-2,-1,"",""
11,115877431,0,0,0,0,0,0,0,0,0,10,-2,0,1000,152,0,167,12,-3,-1,122,18,1986,128,300,366,373,1,8,0,1,1,0.013559001975295104,-0.055188313661850834,4.396608985818294,0,0,0,4,-1,0,0,8,-2,-1,"",""
12,115878781,0,0,0,0,0,0,0,0,0,10,-2,0,1000,152,0,167,11,-3,-2,123,16,1985,128,278,354,437,1,8,0,1,1,0.013375353472898368,-0.055770951740919006,4.396656853455362,0,0,0,4,-1,0,0,7,-2,-2,"",""
13,115880139,0,0,0,0,0,0,0,0,0,10,-2,0,1000,152,0,167,11,-3,-2,122,15,1985,128,280,341,397,1,8,0,1,1,0.013201496373729296,-0.056239929750826936,4.396704970032581,0,0,0,4,-1,0,0,7,-2,-2,"",""
14,115881491,0,0,0,0,0,0,0,0,0,10,-2,0,1000,152,0,167,11,-3,-2,122,13,1985,128,268,317,336,1,8,0,1,1,0.012999269135711264,-0.05665100035481363,4.39675280840628,0,0,0,4,-1,0,0,7,-2,-2,"",""
15,115882821,0,0,0,0,0,0,0,0,0,10,-2,0,1000,152,0,167,12,-3,-3,121,12,1985,128,252,293,337,1,8,0,1,1,0.012825594037621105,-0.0569821933980202,4.396823074085188,0,0,0,4,-1,0,0,8,-2,-3,"",""
16,115884152,0,0,0,0,0,0,0,0,0,10,-2,0,1000,152,0,167,13,-3,-3,119,10,1984,128,235,234,285,1,8,0,1,1,0.012651225001317126,-0.057220681375862364,4.396893327914344,0,0,0,4,-1,0,0,9,-2,-3,"",""
17,115885487,0,0,0,0,0,0,0,0,0,10,-2,0,1000,152,0,167,13,-3,-4,117,7,1984,128,225,232,280,1,8,0,1,1,0.012430124832666364,-0.05738009948249844,4.396987034407823,0,0,0,4,-1,0,0,9,-2,-4,"",""
18,115886816,0,0,0,0,0,0,0,0,0,10,-2,0,1000,152,0,167,14,-3,-4,116,3,1984,128,211,189,243,1,8,0,1,1,0.012161482483414735,-0.05749939689843481,4.39708019050431,0,0,0,4,-1,0,0,10,-2,-4,"",""
19,115888164,0,0,0,0,0,0,0,0,0,10,-2,0,1000,152,0,167,14,-3,-3,115,0,1985,128,226,230,315,1,8,0,1,1,0.011862157819366125,-0.05758453785152695,4.397151022704253,0,0,0,4,-1,0,0,10,-2,-3,"",""
20,115889520,0,0,0,0,0,0,0,0,0,10,-2,0,1000,152,0,167,14,-3,-4,115,-3,1985,128,232,252,332,1,8,0,1,1,0.011537052086004173,-0.05766502562365284,4.397245882451503,0,0,0,4,-1,0,0,10,-2,-4,"",""
21,115890864,0,0,0,0,0,0,0,0,0,10,-2,0,1000,152,0,167,14,-3,-3,115,-5,1985,128,231,241,325,1,8,0,1,1,0.011205814188137852,-0.05774105132826802,4.397316329426061,0,0,0,4,-1,0,0,10,-2,-3,"",""
22,115892201,0,0,0,0,0,0,0,0,0,10,-2,0,1000,152,0,167,14,-3,-3,115,-8,1985,128,251,298,400,1,8,0,1,1,0.010849058472068974,-0.057813150196403575,4.397386302645276,0,0,0,4,-1,0,0,10,-2,-3,"",""
23,115893538,0,0,0,0,0,0,0,0,0,10,-2,0,1000,152,0,167,14,-3,-2,116,-11,1986,128,256,302,386,1,8,0,1,1,0.01046989937722293,-0.05790241639792332,4.397432800642672,0,0,0,4,-1,0,0,10,-2,-2,"",""
24,115894865,0,0,0,0,0,0,0,0,0,10,-2,0,1000,152,0,167,13,-3,-2,116,-13,1987,128,267,317,386,1,8,0,1,1,0.010068103959198178,-0.05798561555847625,4.397478870279373,0,0,0,4,-1,0,0,9,-2,-2,"",""
25,115896208,0,0,0,0,0,0,0,0,0,10,-2,0,1000,152,0,167,13,-3,-1,116,-14,1988,128,275,343,418,1,8,0,1,1,0.00969088618077392,-0.05806492156545016,4.397501987982013,0,0,0,4,-1,0,0,9,-2,-1,"",""
26,115897711,0,0,0,0,0,0,0,0,0,10,-2,0,1000,152,0,167,12,-3,-1,116,-14,1990,128,293,358,400,1,8,0,1,1,0.009362166142551743,-0.05814671664708871,4.397527970775858,0,0,0,4,-1,0,0,8,-2,-1,"",""
27,115899208,0,0,0,0,0,0,0,0,0,10,-2,0,1000,152,0,167,12,-3,0,115,-14,1993,128,297,377,422,1,8,0,1,1,0.009064794595957272,-0.05820385285647943,4.397527656544756,0,0,0,4,-1,0,0,8,-2,0,"",""
28,115900540,0,0,0,0,0,0,0,0,0,10,-2,0,1000,152,0,167,12,-3,0,114,-14,1997,128,315,393,382,1,8,0,1,1,0.008764580014771553,-0.05822954365910508,4.397527248927462,0,0,0,4,-1,0,0,8,-2,0,"",""
29,115901869,0,0,0,0,0,0,0,0,0,10,-2,0,1000,152,0,167,12,-3,1,113,-15,2000,128,322,393,365,1,8,0,1,1,0.008474051485277552,-0.05823575371540705,4.397503565163342,0,0,0,4,-1,0,0,8,-2,1,"",""
30,115903198,0,0,0,0,0,0,0,0,0,10,-2,0,1000,152,0,167,12,-3,1,112,-17,2004,128,331,401,342,1,8,0,1,1,0.00817734430263885,-0.058223350494392895,4.397479807982415,0,0,0,4,-1,0,0,8,-2,1,"",""
31,115904533,0,0,0,0,0,0,0,0,0,10,-2,0,1000,152,0,167,12,-4,1,109,-18,2008,128,329,375,282,1,8,0,1,1,0.0078924046660836,-0.058184825326654935,4.397456090356623,0,0,0,4,-1,0,0,8,-3,1,"",""
32,115905903,0,0,0,0,0,0,0,0,0,10,-2,0,1000,152,0,167,12,-4,1,107,-19,2012,128,329,393,329,1,8,0,1,1,0.007624125326989095,-0.058119031950446716,4.397431719416526,0,0,0,4,-1,0,0,8,-3,1,"",""
33,115907268,0,0,0,0,0,0,0,0,0,10,-2,0,1000,152,0,167,13,-4,0,104,-19,2017,128,324,373,295,1,8,0,1,1,0.007402911093565279,-0.058009631965137455,4.397431269270583,0,0,0,4,-1,0,0,9,-3,0,"",""
34,115908622,0,0,0,0,0,0,0,0,0,10,-2,0,1000,152,0,167,13,-4,0,100,-18,2021,128,310,352,298,1,8,0,1,1,0.007215094969323014,-0.05784630021052024,4.397430822884273,0,0,0,4,-1,0,0,9,-3,0,"",""
35,115909958,0,0,0,0,0,0,0,0,0,10,-2,0,1000,152,0,167,13,-5,-2,97,-17,2026,128,291,348,367,1,8,0,1,1,0.007058765023626665,-0.05766882054039801,4.397477257381269,0,0,0,4,-1,0,0,9,-4,-2,"",""
36,115911290,0,0,0,0,0,0,0,0,0,10,-2,0,1000,152,0,167,13,-5,-3,93,-15,2030,128,259,307,365,1,8,0,1,1,0.006947102536928071,-0.05744482778845016,4.3975468734310255,0,0,0,4,-1,0,0,9,-4,-3,"",""
37,115912623,0,0,0,0,0,0,0,0,0,10,-2,0,1000,152,0,167,12,-4,-5,91,-12,2033,128,225,272,391,1,8,0,1,1,0.006870050507631357,-0.05718352863808569,4.397663069322683,0,0,0,4,-1,0,0,8,-3,-5,"",""
38,115913955,0,0,0,0,0,0,0,0,0,10,-2,0,1000,152,0,167,12,-4,-7,88,-8,2036,128,177,216,371,1,8,0,1,1,0.006859333640608079,-0.05689592571017994,4.397825877631919,0,0,0,4,-1,0,0,8,-3,-7,"",""
39,115915314,0,0,0,0,0,0,0,0,0,10,-2,0,1000,152,0,167,12,-4,-8,87,-4,2037,132,132,128,338,1,8,0,1,1,0.0069148339169352886,-0.05661325865440246,4.39801589467943,0,0,0,4,-1,0,0,8,-3,-8,"",""
40,115916673,0,0,0,0,0,0,0,0,0,10,-2,0,1000,152,0,167,12,-4,-9,86,-1,2038,165,130,128,354,1,8,0,1,1,0.007013681929420862,-0.05633342066175317,4.398229768393605,0,0,0,4,-1,0,0,8,-3,-9,"",""
41,115918018,0,0,0,0,0,0,0,0,0,10,-2,0,1000,152,0,167,12,-4,-9,85,2,2038,226,160,128,367,1,8,0,1,1,0.007148596257964953,-0.05605610465083082,4.398441535410714,0,0,0,4,-1,0,0,8,-3,-9,"",""
42,115919352,0,0,0,0,0,0,0,0,0,10,-2,0,1000,152,0,167,12,-4,-8,85,4,2038,210,154,128,369,1,8,0,1,1,0.007304223715452857,-0.055793435983290056,4.398628316882845,0,0,0,4,-1,0,0,8,-3,-8,"",""
43,115920683,0,0,0,0,0,0,0,0,0,10,-2,0,1000,152,0,167,12,-4,-7,85,6,2037,157,132,128,281,1,8,0,1,1,0.007480781925591689,-0.055545558637364545,4.398791483512486,0,0,0,4,-1,0,0,8,-3,-7,"",""
44,115922018,0,0,0,0,0,0,0,0,0,10,-2,0,1000,152,0,167,13,-4,-5,84,7,2037,128,158,153,248,1,8,0,1,1,0.0076881619299984175,-0.055300003542343615,4.398908505809825,0,0,0,4,-1,0,0,9,-3,-5,"",""
45,115923353,0,0,0,0,0,0,0,0,0,10,-2,0,1000,152,0,167,13,-5,-2,83,8,2036,128,244,264,295,1,8,0,1,1,0.007900506226538713,-0.05507994654826383,4.398955744886035,0,0,0,4,-1,0,0,9,-4,-2,"",""
46,115924713,0,0,0,0,0,0,0,0,0,10,-2,0,1000,152,0,167,13,-6,1,82,10,2037,128,291,335,260,1,8,0,1,1,0.008133735239531039,-0.054886103844244936,4.398932835874786,0,0,0,4,-1,0,0,9,-5,1,"",""
47,115926099,0,0,0,0,0,0,0,0,0,10,-2,0,1000,152,0,167,13,-6,4,80,12,2038,128,327,405,314,1,8,0,1,1,0.00838669776718773,-0.05468450458053984,4.398836907949834,0,0,0,4,-1,0,0,9,-5,4,"",""
48,115927585,0,0,0,0,0,0,0,0,0,10,-2,0,1000,152,0,167,13,-6,6,78,14,2039,128,333,461,358,1,8,0,1,1,0.00867546901224224,-0.05448325489916944,4.398682230390711,0,0,0,4,-1,0,0,9,-5,6,"",""
49,115929055,0,0,0,0,0,0,0,0,0,10,-2,0,1000,152,0,167,13,-6,7,77,18,2039,128,356,490,367,1,8,0,1,1,0.008995622397261007,-0.05428149699863889,4.398503712678437,0,0,0,4,-1,0,0,9,-5,7,"",""
50,115930392,0,0,0,0,0,0,0,0,0,10,-2,0,1000,152,0,167,13,-6,7,75,22,2040,128,364,507,384,1,8,0,1,1,0.0093211788012218,-0.05405614342215789,4.398341531748796,0,0,0,4,-1,0,0,9,-5,7,"",""
51,115931719,0,0,0,0,0,0,0,0,0,10,-2,0,1000,155,0,167,12,-6,7,73,27,2041,128,371,489,389,1,8,0,1,1,0.00966456509084831,-0.05382077428348522,4.398180802195053,0,0,0,4,-1,0,0,8,-5,7,"",""
52,115933071,0,0,0,0,0,0,0,0,0,10,-2,0,1000,155,0,167,12,-6,5,71,32,2042,128,359,477,399,1,8,0,1,1,0.010056157284710902,-0.05357909586244995,4.398064544814098,0,0,0,4,-1,0,0,8,-5,5,"",""
53,115934437,0,0,0,0,0,0,0,0,0,10,-2,0,1000,155,0,167,11,-6,3,69,38,2044,128,338,455,397,1,8,0,1,1,0.010477539185950143,-0.053329835270583825,4.397995121918903,0,0,0,4,-1,0,0,7,-5,3,"",""
54,115935782,0,0,0,0,0,0,0,0,0,10,-2,0,1000,155,0,167,11,-6,0,66,44,2044,128,317,398,389,1,8,0,1,1,0.010944463649015265,-0.053061124251948644,4.3979975974420595,0,0,0,4,-1,0,0,7,-5,0,"",""
55,115937114,0,0,0,0,0,0,0,0,0,10,-2,0,1000,155,0,167,11,-5,-3,64,50,2044,128,268,340,409,1,8,0,1,1,0.011455843563514204,-0.0527611335408381,4.398069933041008,0,0,0,4,-1,0,0,7,-4,-3,"",""
56,115938464,0,0,0,0,0,0,0,0,0,10,-2,0,1000,155,0,167,11,-6,-6,61,56,2043,128,216,265,352,1,8,0,1,1,0.012015419734414437,-0.0524707169693367,4.398214581979688,0,0,0,4,-1,0,0,7,-5,-6,"",""
57,115939799,0,0,0,0,0,0,0,0,0,10,-2,0,1000,155,0,167,11,-6,-8,57,62,2042,128,128,166,341,1,8,0,1,1,0.0126133049527454,-0.052155231678727765,4.398404610107336,0,0,0,4,-1,0,0,7,-5,-8,"",""
58,115941129,0,0,0,0,0,0,0,0,0,10,-2,0,1000,155,0,167,11,-6,-10,54,67,2040,180,128,150,326,1,8,0,1,1,0.013240724077940256,-0.05182609073721347,4.398640684702255,0,0,0,4,-1,0,0,7,-5,-10,"",""
59,115942491,0,0,0,0,0,0,0,0,0,10,-2,0,1000,155,0,167,11,-7,-11,51,71,2039,218,128,130,317,1,8,0,1,1,0.013893603146739188,-0.05151076749106022,4.398906750861669,0,0,0,4,-1,0,0,7,-6,-11,"",""
60,115943852,0,0,0,0,0,0,0,0,0,10,-2,0,1000,155,0,167,11,-7,-10,47,73,2038,225,128,134,345,1,8,0,1,1,0.014544870593809102,-0.05117480947943635,4.399148995164109,0,0,0,4,-1,0,0,7,-6,-10,"",""
61,115945194,0,0,0,0,0,0,0,0,0,10,-2,0,1000,155,0,167,11,-8,-9,43,75,2036,203,128,129,293,1,8,0,1,1,0.015191202230939196,-0.05084054507750758,4.39936494632634,0,0,0,4,-1,0,0,7,-7,-9,"",""
62,115946545,0,0,0,0,0,0,0,0,0,10,-2,0,1000,155,0,167,11,-8,-7,39,76,2035,159,128,144,302,1,8,0,1,1,0.015828616741510017,-0.05048891362462247,4.399535248420867,0,0,0,4,-1,0,0,7,-7,-7,"",""
63,115947879,0,0,0,0,0,0,0,0,0,10,-2,0,1000,155,0,167,11,-8,-5,35,76,2033,128,159,190,311,1,8,0,1,1,0.016444466804918255,-0.05011770552858749,4.3996568949244095,0,0,0,4,-1,0,0,7,-7,-5,"",""
64,115949214,0,0,0,0,0,0,0,0,0,10,-2,0,1000,155,0,167,12,-8,-3,32,77,2033,128,221,262,337,1,8,0,1,1,0.017073838849751905,-0.049737454180114354,4.399732108865241,0,0,0,4,-1,0,0,8,-7,-3,"",""
65,115950559,0,0,0,0,0,0,0,0,0,10,-2,0,1000,155,0,167,12,-8,-1,29,76,2033,128,271,332,361,1,8,0,1,1,0.017679861645357786,-0.04934988411947083,4.399760898812133,0,0,0,4,-1,0,0,8,-7,-1,"",""
66,115951925,0,0,0,0,0,0,0,0,0,10,-2,0,1000,152,0,167,12,-8,1,27,76,2034,128,302,367,364,1,8,0,1,1,0.018273511443247487,-0.04896436586726484,4.399742454979532,0,0,0,4,-1,0,0,8,-7,1,"",""
67,115953283,0,0,0,0,0,0,0,0,0,10,-2,0,1000,152,0,167,12,-7,3,24,76,2035,128,328,385,355,1,8,0,1,1,0.018849419931291408,-0.04854596174329441,4.399676309528743,0,0,0,4,-1,0,0,8,-6,3,"",""
68,115954617,0,0,0,0,0,0,0,0,0,10,-2,0,1000,152,0,167,11,-7,3,22,76,2036,128,332,419,378,1,8,0,1,1,0.01938440309068072,-0.048123694773639085,4.399611420155091,0,0,0,4,-1,0,0,7,-6,3,"",""
69,115955942,0,0,0,0,0,0,0,0,0,10,-2,0,1000,152,0,167,11,-7,4,20,76,2038,128,339,450,357,1,8,0,1,1,0.01990431799425571,-0.04769955398253392,4.399523882261409,0,0,0,4,-1,0,0,7,-6,4,"",""
70,115957289,0,0,0,0,0,0,0,0,0,10,-2,0,1000,152,0,167,11,-7,3,18,77,2038,128,334,436,391,1,8,0,1,1,0.02042539914662542,-0.04727716675103677,4.399458497204484,0,0,0,4,-1,0,0,7,-6,3,"",""
71,115958761,0,0,0,0,0,0,0,0,0,10,-2,0,1000,152,0,167,11,-7,2,16,78,2040,128,320,461,392,1,8,0,1,1,0.020966780064458686,-0.046868254047411365,4.399412698954699,0,0,0,4,-1,0,0,7,-6,2,"",""
72,115960245,0,0,0,0,0,0,0,0,0,10,-2,0,1000,152,0,167,10,-8,1,13,81,2041,128,313,442,400,1,8,0,1,1,0.02149623113513113,-0.04647755149892449,4.399393216465401,0,0,0,4,-1,0,0,6,-7,1,"",""
73,115961608,0,0,0,0,0,0,0,0,0,10,-2,0,1000,152,0,167,10,-8,0,11,84,2042,128,297,447,428,1,8,0,1,1,0.02201605164575763,-0.04606846749344911,4.399399529259621,0,0,0,4,-1,0,0,6,-7,0,"",""
74,115962945,0,0,0,0,0,0,0,0,0,10,-2,0,1000,152,0,167,9,-8,-1,8,87,2041,128,287,456,422,1,8,0,1,1,0.02251964800573594,-0.04564801932439779,4.399429346911076,0,0,0,4,-1,0,0,5,-7,-1,"",""
75,115964275,0,0,0,0,0,0,0,0,0,10,-2,0,1000,152,0,167,8,-9,-2,6,91,2040,128,281,412,447,1,8,0,1,1,0.023017440874922433,-0.04524891638344964,4.3994830734635935,0,0,0,4,-1,0,0,4,-8,-2,"",""
76,115965600,0,0,0,0,0,0,0,0,0,10,-2,0,1000,152,0,167,8,-9,-3,4,94,2039,128,274,423,446,1,8,0,1,1,0.023525483001960657,-0.04484813961971289,4.3995600006473135,0,0,0,4,-1,0,0,4,-8,-3,"",""
77,115966933,0,0,0,0,0,0,0,0,0,10,-2,0,1000,152,0,167,7,-9,-4,2,96,2038,128,250,340,400,1,8,0,1,1,0.024015503214482585,-0.04444767994017799,4.399660849961285,0,0,0,4,-1,0,0,3,-8,-4,"",""
78,115968263,0,0,0,0,0,0,0,0,0,10,-2,0,1000,152,0,167,7,-9,-5,0,97,2037,128,215,294,403,1,8,0,1,1,0.024502437597315904,-0.044045815604153826,4.399784838641323,0,0,0,4,-1,0,0,3,-8,-5,"",""
79,115969621,0,0,0,0,0,0,0,0,0,10,-2,0,1000,152,0,167,8,-9,-6,-2,97,2037,128,176,237,344,1,8,0,1,1,0.025006903230377863,-0.043646970927158746,4.399935168905122,0,0,0,4,-1,0,0,4,-8,-6,"",""
80,115970983,0,0,0,0,0,0,0,0,0,10,-2,0,1000,152,0,167,9,-9,-7,-3,96,2037,128,159,180,312,1,8,0,1,1,0.025519529840730245,-0.04325393517863776,4.400109730913307,0,0,0,4,-1,0,0,5,-8,-7,"",""
81,115972314,0,0,0,0,0,0,0,0,0,10,-2,0,1000,152,0,167,9,-9,-7,-3,94,2038,133,128,150,252,1,8,0,1,1,0.02600394993099353,-0.04286792564479398,4.400280318781628,0,0,0,4,-1,0,0,5,-8,-7,"",""
82,115973646,0,0,0,0,0,0,0,0,0,10,-2,0,1000,152,0,167,10,-8,-7,-3,92,2039,145,131,128,253,1,8,0,1,1,0.026489106462528438,-0.04247050369755064,4.400450351238497,0,0,0,4,-1,0,0,6,-7,-7,"",""
83,115974983,0,0,0,0,0,0,0,0,0,10,-2,0,1000,152,0,167,11,-8,-6,-4,89,2041,141,131,128,238,1,8,0,1,1,0.02696887503181037,-0.04207907202447923,4.40059751526063,0,0,0,4,-1,0,0,7,-7,-6,"",""
84,115976311,0,0,0,0,0,0,0,0,0,10,-2,0,1000,152,0,167,12,-9,-6,-4,87,2044,128,146,155,245,1,8,0,1,1,0.02744824665958858,-0.041719800106441156,4.400744246787544,0,0,0,4,-1,0,0,8,-8,-6,"",""
85,115977652,0,0,0,0,0,0,0,0,0,10,-2,0,1000,152,0,167,12,-9,-5,-3,84,2046,128,175,192,276,1,8,0,1,1,0.02790230577485462,-0.04137945332429951,4.400868838661726,0,0,0,4,-1,0,0,8,-8,-5,"",""
86,115979013,0,0,0,0,0,0,0,0,0,10,-2,0,1000,152,0,167,12,-9,-3,-2,81,2049,128,224,276,381,1,8,0,1,1,0.028332265784440046,-0.041058965828010205,4.400947587780296,0,0,0,4,-1,0,0,8,-8,-3,"",""
87,115980367,0,0,0,0,0,0,0,0,0,10,-2,0,1000,152,0,167,11,-9,-2,0,80,2051,128,261,321,365,1,8,0,1,1,0.028723210890162026,-0.04075927425912602,4.401002275358113,0,0,0,4,-1,0,0,7,-8,-2,"",""
88,115981699,0,0,0,0,0,0,0,0,0,10,-2,0,1000,152,0,167,11,-9,0,2,79,2052,128,276,353,395,1,8,0,1,1,0.029095748337542023,-0.040478279337267845,4.401009556865406,0,0,0,4,-1,0,0,7,-8,0,"",""
89,115983036,0,0,0,0,0,0,0,0,0,10,-2,0,1000,152,0,167,10,-9,1,4,79,2054,128,284,400,424,1,8,0,1,1,0.029439153672001523,-0.0402186017960095,4.400993553688078,0,0,0,4,-1,0,0,6,-8,1,"",""
90,115984375,0,0,0,0,0,0,0,0,0,10,-2,0,1000,152,0,167,10,-9,2,7,78,2055,128,304,422,397,1,8,0,1,1,0.029770676210682998,-0.039985212348010175,4.400954118150487,0,0,0,4,-1,0,0,6,-8,2,"",""
91,115985707,0,0,0,0,0,0,0,0,0,10,-2,0,1000,152,0,167,10,-9,3,10,78,2055,128,318,444,397,1,8,0,1,1,0.03009512126447093,-0.03977610859069753,4.400891676569862,0,0,0,4,-1,0,0,6,-8,3,"",""
92,115987060,0,0,0,0,0,0,0,0,0,10,-2,0,1000,152,0,167,9,-9,3,14,77,2054,128,327,455,400,1,8,0,1,1,0.030389491248271745,-0.03960015603719915,4.400828205878762,0,0,0,4,-1,0,0,5,-8,3,"",""
93,115988423,0,0,0,0,0,0,0,0,0,10,-2,0,1000,152,0,167,10,-9,3,18,75,2053,128,343,453,376,1,8,0,1,1,0.030693472296272825,-0.03945464600841312,4.400764162027073,0,0,0,4,-1,0,0,6,-8,3,"",""
94,115989784,0,0,0,0,0,0,0,0,0,10,-2,0,1000,152,0,167,10,-9,2,21,73,2051,128,331,459,346,1,8,0,1,1,0.03098298433700053,-0.039330650747147235,4.400723874016635,0,0,0,4,-1,0,0,6,-8,2,"",""
95,115991265,0,0,0,0,0,0,0,0,0,10,-2,0,1000,152,0,167,10,-9,2,24,70,2050,128,336,438,357,1,8,0,1,1,0.03127272914037181,-0.03924704968436319,4.400679811064385,0,0,0,4,-1,0,0,6,-8,2,"",""
96,115992734,0,0,0,0,0,0,0,0,0,10,-2,0,1000,152,173,167,10,-10,1,27,68,2049,128,322,423,336,1,8,0,1,1,0.03154702119405001,-0.039206864611709566,4.4006624576290365,0,0,0,4,-1,0,0,6,-9,1,"",""
97,115994075,0,0,0,0,0,0,0,0,0,10,-2,0,1000,152,173,167,10,-10,0,29,66,2046,128,312,392,335,1,8,0,1,1,0.03178656336927752,-0.0391586328360953,4.400669936907547,0,0,0,4,-1,0,0,6,-9,0,"",""
98,115995417,0,0,0,0,0,0,0,0,0,10,-2,0,1000,152,173,167,10,-10,-2,31,64,2043,128,284,358,353,1,8,0,1,1,0.032015117097992235,-0.03912371968255643,4.400724165680544,0,0,0,4,-1,0,0,6,-9,-2,"",""
99,115996778,0,0,0,0,0,0,0,0,0,10,-2,0,1000,152,173,167,10,-10,-3,33,64,2040,128,255,332,399,1,8,0,1,1,0.03224599408006355,-0.03910548385657437,4.400802951900688,0,0,0,4,-1,0,0,6,-9,-3,"",""
100,115998136,0,0,0,0,0,0,0,0,0,10,-2,0,1000,152,173,167,10,-10,-5,34,64,2038,128,216,286,391,1,8,0,1,1,0.0324761250085957,-0.03909342934454523,4.400929002583478,0,0,0,4,-1,0,0,6,-9,-5,"",""
101,115999477,0,0,0,0,0,0,0,0,0,10,-2,0,1000,152,173,167,9,-9,-7,35,66,2037,128,168,237,416,1,8,0,1,1,0.032690216785226656,-0.03906160211301818,4.401099692046794,0,0,0,4,-1,0,0,5,-8,-7,"",""
102,116000808,0,0,0,0,0,0,0,0,0,10,-2,0,1000,152,173,167,9,-9,-9,36,68,2036,128,130,192,406,1,8,0,1,1,0.032912850737341716,-0.03903456929326846,4.401315739349241,0,0,0,4,-1,0,0,5,-8,-9,"",""
103,116002144,0,0,0,0,0,0,0,0,0,10,-2,0,1000,152,173,167,9,-9,-10,36,71,2036,184,128,165,416,1,8,0,1,1,0.03315029560995355,-0.03900977083857356,4.401556153141873,0,0,0,4,-1,0,0,5,-8,-10,"",""
104,116003474,0,0,0,0,0,0,0,0,0,10,-2,0,1000,152,173,167,9,-9,-10,37,74,2034,202,128,161,413,1,8,0,1,1,0.03339982017610362,-0.03899175835618421,4.401795728610026,0,0,0,4,-1,0,0,5,-8,-10,"",""
105,116004814,0,0,0,0,0,0,0,0,0,10,-2,0,1000,152,173,167,9,-9,-9,37,76,2033,212,128,148,364,1,8,0,1,1,0.03365752829169741,-0.038978230166840024,4.402013876166694,0,0,0,4,-1,0,0,5,-8,-9,"",""
106,116006177,0,0,0,0,0,0,0,0,0,10,-2,0,1000,152,173,167,10,-9,-8,37,77,2032,195,128,143,293,1,8,0,1,1,0.033943809835579396,-0.03897107889229082,4.402212060971237,0,0,0,4,-1,0,0,6,-8,-8,"",""
107,116007533,0,0,0,0,0,0,0,0,0,10,-2,0,1000,152,173,167,10,-10,-6,37,78,2031,141,128,143,240,1,8,0,1,1,0.03422895046889779,-0.038989913682372535,4.402362795780422,0,0,0,4,-1,0,0,6,-9,-6,"",""
108,116008863,0,0,0,0,0,0,0,0,0,10,-2,0,1000,152,173,167,11,-10,-4,37,79,2030,128,181,203,258,1,8,0,1,1,0.03453255978980934,-0.03900767534932034,4.40246432369213,0,0,0,4,-1,0,0,7,-9,-4,"",""
109,116010192,0,0,0,0,0,0,0,0,0,10,-2,0,1000,152,173,167,11,-10,-1,37,78,2028,128,251,282,249,1,8,0,1,1,0.034825320670674245,-0.03902959812781525,4.402496134482006,0,0,0,4,-1,0,0,7,-9,-1,"",""
110,116011533,0,0,0,0,0,0,0,0,0,10,-2,0,1000,152,173,167,12,-11,2,37,77,2024,128,305,367,278,1,8,0,1,1,0.03513348208073503,-0.039081443743221554,4.402458788286146,0,0,0,4,-1,0,0,8,-10,2,"",""
111,116012868,0,0,0,0,0,0,0,0,0,10,-2,0,1000,152,0,167,12,-11,4,38,76,2021,128,321,412,305,1,8,0,1,1,0.03543103392505018,-0.03914035415724158,4.402374970787418,0,0,0,4,-1,0,0,8,-10,4,"",""
112,116014222,0,0,0,0,0,0,0,0,0,10,-2,0,1000,152,0,167,12,-11,6,38,74,2018,128,328,463,313,1,8,0,1,1,0.035718523367719676,-0.03920623269697245,4.40224257304066,0,0,0,4,-1,0,0,8,-10,6,"",""
113,116015584,0,0,0,0,0,0,0,0,0,10,-2,0,1000,152,0,167,11,-10,6,39,73,2015,128,331,469,345,1,8,0,1,1,0.03597699681157531,-0.03925642354511722,4.402108497048308,0,0,0,4,-1,0,0,7,-9,6,"",""
114,116016930,0,0,0,0,0,0,0,0,0,10,-2,0,1000,152,0,167,11,-10,6,39,72,2013,128,339,466,395,1,8,0,1,1,0.03622564211522921,-0.03930523419301323,4.4019759439378605,0,0,0,4,-1,0,0,7,-9,6,"",""
115,116018270,0,0,0,0,0,0,0,0,0,10,-2,0,1000,152,0,167,10,-10,4,40,72,2012,128,341,450,411,1,8,0,1,1,0.03644969340388891,-0.03935720320062147,4.401890782205859,0,0,0,4,-1,0,0,6,-9,4,"",""
116,116019618,0,0,0,0,0,0,0,0,0,10,-2,0,1000,152,0,167,9,-9,2,42,73,2010,128,324,422,443,1,8,0,1,1,0.036656545080550273,-0.03939615540158528,4.401851411554262,0,0,0,4,-1,0,0,5,-8,2,"",""
117,116021085,0,0,0,0,0,0,0,0,0,10,-2,0,1000,152,0,167,9,-9,-1,43,74,2009,128,297,414,451,1,8,0,1,1,0.036887676364455294,-0.03945670748126817,4.401885491498133,0,0,0,4,-1,0,0,5,-8,-1,"",""
118,116022566,0,0,0,0,0,0,0,0,0,10,-2,0,1000,152,0,167,8,-8,-3,45,75,2009,128,272,367,444,1,8,0,1,1,0.037099834251618405,-0.03950176430637281,4.401970735364569,0,0,0,4,-1,0,0,4,-7,-3,"",""
119,116023929,0,0,0,0,0,0,0,0,0,10,-2,0,1000,152,0,167,8,-8,-5,45,78,2010,128,240,330,460,1,8,0,1,1,0.03730875646581215,-0.03952953546884432,4.402097015974767,0,0,0,4,-1,0,0,4,-7,-5,"",""
120,116025289,0,0,0,0,0,0,0,0,0,10,-2,0,1000,152,0,167,7,-8,-6,45,80,2011,128,213,297,409,1,8,0,1,1,0.0375015082847864,-0.03955672356996658,4.402246921961859,0,0,0,4,-1,0,0,3,-7,-6,"",""
121,116026617,0,0,0,0,0,0,0,0,0,10,-2,0,1000,152,0,167,7,-9,-7,44,82,2011,128,175,243,368,1,8,0,1,1,0.03769825115183935,-0.03959810499595715,4.402417529569292,0,0,0,4,-1,0,0,3,-8,-7,"",""
122,116027952,0,0,0,0,0,0,0,0,0,10,-2,0,1000,152,0,167,7,-9,-7,43,83,2011,128,177,242,354,1,8,0,1,1,0.03789836135091166,-0.0396368737469333,4.40258912483219,0,0,0,4,-1,0,0,3,-8,-7,"",""
123,116029286,0,0,0,0,0,0,0,0,0,10,-2,0,1000,152,0,167,7,-9,-6,42,85,2012,128,178,241,346,1,8,0,1,1,0.0381040795740876,-0.039672592168110414,4.402737478494512,0,0,0,4,-1,0,0,3,-8,-6,"",""
124,116030653,0,0,0,0,0,0,0,0,0,10,-2,0,1000,152,0,167,7,-10,-4,41,86,2014,128,214,287,354,1,8,0,1,1,0.038314058880675544,-0.039734892350892004,4.40284276777618,0,0,0,4,-1,0,0,3,-9,-4,"",""
125,116031999,0,0,0,0,0,0,0,0,0,10,-2,0,1000,152,0,167,8,-10,-3,40,87,2017,128,247,323,376,1,8,0,1,1,0.03854551985138844,-0.039790308488216776,4.402923048793554,0,0,0,4,-1,0,0,4,-9,-3,"",""
126,116033355,0,0,0,0,0,0,0,0,0,10,-2,0,1000,152,0,167,8,-10,-1,41,87,2020,128,278,362,400,1,8,0,1,1,0.038773716427308105,-0.03985378546129145,4.402956595445825,0,0,0,4,-1,0,0,4,-9,-1,"",""
127,116034741,0,0,0,0,0,0,0,0,0,10,-2,0,1000,152,0,167,8,-9,-1,42,87,2022,128,296,373,406,1,8,0,1,1,0.03900348824284917,-0.03990304805266,4.402989939152535,0,0,0,4,-1,0,0,4,-8,-1,"",""
128,116036079,0,0,0,0,0,0,0,0,0,10,-2,0,1000,152,0,167,8,-9,0,44,87,2023,128,305,377,403,1,8,0,1,1,0.03922325848812964,-0.039954834471443594,4.402998807078495,0,0,0,4,-1,0,0,4,-8,0,"",""
129,116037415,0,0,0,0,0,0,0,0,0,10,-2,0,1000,152,0,167,8,-8,-1,46,86,2025,128,301,377,419,1,8,0,1,1,0.039436987657269995,-0.039991046877730564,4.403029981389176,0,0,0,4,-1,0,0,4,-7,-1,"",""
130,116038750,0,0,0,0,0,0,0,0,0,10,-2,0,1000,152,0,167,8,-8,-1,48,86,2027,128,292,372,414,1,8,0,1,1,0.03964825311855746,-0.04003586864258329,4.403061131374295,0,0,0,4,-1,0,0,4,-7,-1,"",""
131,116040084,0,0,0,0,0,0,0,0,0,10,-2,0,1000,152,0,167,8,-8,-2,50,86,2029,128,278,366,404,1,8,0,1,1,0.039858032395223376,-0.04008818754207612,4.403115539435511,0,0,0,4,-1,0,0,4,-7,-2,"",""
132,116041440,0,0,0,0,0,0,0,0,0,10,-2,0,1000,152,0,167,8,-8,-3,53,86,2031,128,262,350,420,1,8,0,1,1,0.04006960445809941,-0.040155080202541944,4.403194503519902,0,0,0,4,-1,0,0,4,-7,-3,"",""
133,116042794,0,0,0,0,0,0,0,0,0,10,-2,0,1000,152,0,167,9,-8,-4,54,86,2033,128,246,311,335,1,8,0,1,1,0.04030305480423592,-0.040224752737023584,4.403296980903266,0,0,0,4,-1,0,0,5,-7,-4,"",""
134,116044145,0,0,0,0,0,0,0,0,0,10,-2,0,1000,152,0,167,9,-8,-4,55,86,2034,128,245,322,401,1,8,0,1,1,0.04053382207971424,-0.0402980957088339,4.403399232439839,0,0,0,4,-1,0,0,5,-7,-4,"",""
135,116045533,0,0,0,0,0,0,0,0,0,10,-2,0,1000,152,0,167,9,-9,-4,56,85,2036,128,243,323,360,1,8,0,1,1,0.04076413375139849,-0.04040429282556645,4.4035051768184585,0,0,0,4,-1,0,0,5,-8,-4,"",""
136,116046873,0,0,0,0,0,0,0,0,0,10,-2,0,1000,152,0,167,9,-9,-3,56,84,2038,128,255,337,377,1,8,0,1,1,0.04097959162742203,-0.04050359648386109,4.403583990511204,0,0,0,4,-1,0,0,5,-8,-3,"",""
137,116048201,0,0,0,0,0,0,0,0,0,10,-2,0,1000,152,0,167,8,-9,-2,57,82,2040,128,270,359,421,1,8,0,1,1,0.0411591374141125,-0.04060556748872899,4.403638747969882,0,0,0,4,-1,0,0,4,-8,-2,"",""
138,116049546,0,0,0,0,0,0,0,0,0,10,-2,0,1000,152,0,167,8,-9,-1,58,81,2043,128,288,379,387,1,8,0,1,1,0.04133425123055533,-0.04071445352767744,4.4036706434824895,0,0,0,4,-1,0,0,4,-8,-1,"",""
139,116050915,0,0,0,0,0,0,0,0,0,10,-2,0,1000,152,0,167,8,-9,0,60,79,2045,128,301,386,405,1,8,0,1,1,0.04150219897374852,-0.040835388609665756,4.403679046634892,0,0,0,4,-1,0,0,4,-8,0,"",""
140,116052411,0,0,0,0,0,0,0,0,0,10,-2,0,1000,152,0,167,9,-9,0,62,78,2048,128,314,385,389,1,8,0,1,1,0.04170806080592414,-0.04098308554388806,4.403688191178491,0,0,0,4,-1,0,0,5,-8,0,"",""
141,116053890,0,0,0,0,0,0,0,0,0,10,-2,0,1000,152,0,167,9,-8,0,65,76,2051,128,317,389,382,1,8,0,1,1,0.041901483343506046,-0.041113138290672854,4.403695965316957,0,0,0,4,-1,0,0,5,-7,0,"",""
142,116055220,0,0,0,0,0,0,0,0,0,10,-2,0,1000,152,0,167,9,-8,0,68,76,2054,128,308,376,387,1,8,0,1,1,0.04206987292986419,-0.04123314705590131,4.403702856121158,0,0,0,4,-1,0,0,5,-7,0,"",""
143,116056552,0,0,0,0,0,0,0,0,0,10,-2,0,1000,152,0,167,10,-8,-1,70,76,2058,128,298,373,380,1,8,0,1,1,0.04226086698720266,-0.04135897199686401,4.403732990773343,0,0,0,4,-1,0,0,6,-7,-1,"",""
144,116057889,0,0,0,0,0,0,0,0,0,10,-2,0,1000,152,0,167,10,-8,-2,71,77,2060,128,281,358,374,1,8,0,1,1,0.04245595875226301,-0.041487369953298756,4.403786656267845,0,0,0,4,-1,0,0,6,-7,-2,"",""
145,116059240,0,0,0,0,0,0,0,0,0,10,-2,0,1000,152,0,167,10,-8,-3,72,78,2063,128,268,344,382,1,8,0,1,1,0.04265651648715288,-0.04161933381703267,4.403864548438966,0,0,0,4,-1,0,0,6,-7,-3,"",""
146,116060608,0,0,0,0,0,0,0,0,0,10,-2,0,1000,152,0,167,10,-8,-4,73,80,2065,128,254,321,364,1,8,0,1,1,0.042866963840976775,-0.041755326300816624,4.403967476147476,0,0,0,4,-1,0,0,6,-7,-4,"",""
147,116061951,0,0,0,0,0,0,0,0,0,10,-2,0,1000,152,0,167,9,-8,-4,73,81,2067,128,247,328,395,1,8,0,1,1,0.04305175629776653,-0.041886847778142805,4.404068588792489,0,0,0,4,-1,0,0,5,-7,-4,"",""
148,116063278,0,0,0,0,0,0,0,0,0,10,-2,0,1000,152,0,167,9,-9,-4,73,83,2069,128,237,317,386,1,8,0,1,1,0.043239960076457605,-0.04203811593696353,4.404169658553969,0,0,0,4,-1,0,0,5,-8,-4,"",""
149,116064607,0,0,0,0,0,0,0,0,0,10,-2,0,1000,152,0,167,9,-9,-4,73,85,2070,128,236,316,386,1,8,0,1,1,0.04343445703966887,-0.04218865778495477,4.404271058318402,0,0,0,4,-1,0,0,5,-8,-4,"",""
150,116065945,0,0,0,0,0,0,0,0,0,10,-2,0,1000,152,0,167,9,-9,-4,73,86,2070,128,231,303,387,1,8,0,1,1,0.043632713947155115,-0.04233972027669705,4.404373240451169,0,0,0,4,-1,0,0,5,-8,-4,"",""
151,116067277,0,0,0,0,0,0,0,0,0,10,-2,0,1000,152,0,167,9,-10,-4,72,86,2070,128,219,271,321,1,8,0,1,1,0.043828668033695846,-0.04250841179181697,4.404475984905894,0,0,0,4,-1,0,0,5,-9,-4,"",""
152,116068641,0,0,0,0,0,0,0,0,0,10,-2,0,1000,152,0,167,10,-10,-4,72,84,2070,128,221,275,335,1,8,0,1,1,0.044044698888816854,-0.042681610739044244,4.404581038387441,0,0,0,4,-1,0,0,6,-9,-4,"",""
153,116070004,0,0,0,0,0,0,0,0,0,10,-2,0,1000,152,0,167,10,-9,-4,72,82,2069,128,216,254,299,1,8,0,1,1,0.044251975210498104,-0.04283025226493033,4.404684793202009,0,0,0,4,-1,0,0,6,-8,-4,"",""
154,116071338,0,0,0,0,0,0,0,0,0,10,-2,0,1000,152,0,167,11,-9,-3,71,79,2069,128,213,234,254,1,8,0,1,1,0.04446411788331959,-0.042971139637891356,4.404762771954729,0,0,0,4,-1,0,0,7,-8,-3,"",""
155,116072691,0,0,0,0,0,0,0,0,0,10,-2,0,1000,152,0,167,12,-9,-3,70,76,2068,128,216,233,252,1,8,0,1,1,0.04469149982843861,-0.04311085309884184,4.40484161305533,0,0,0,4,-1,0,0,8,-8,-3,"",""
156,116074019,0,0,0,0,0,0,0,0,0,10,-2,0,1000,152,0,167,13,-9,-3,70,73,2066,128,220,235,258,1,8,0,1,1,0.04492494409250074,-0.04324640733998877,4.404918706642874,0,0,0,4,-1,0,0,9,-8,-3,"",""
157,116075351,0,0,0,0,0,0,0,0,0,10,-2,0,1000,152,0,167,13,-9,-3,70,70,2065,128,232,258,293,1,8,0,1,1,0.045147546858656074,-0.04338213436481218,4.404995769550675,0,0,0,4,-1,0,0,9,-8,-3,"",""
158,116076704,0,0,0,0,0,0,0,0,0,10,-2,0,1000,152,0,167,13,-9,-3,70,68,2064,128,242,282,338,1,8,0,1,1,0.045366912929621445,-0.04352063959172473,4.405073902832539,0,0,0,4,-1,0,0,9,-8,-3,"",""
159,116078061,0,0,0,0,0,0,0,0,0,10,-2,0,1000,152,0,167,13,-9,-2,70,67,2063,128,248,297,362,1,8,0,1,1,0.045581755714008895,-0.04366036695395366,4.405128504068713,0,0,0,4,-1,0,0,9,-8,-2,"",""
160,116079418,0,0,0,0,0,0,0,0,0,10,-2,0,1000,152,0,167,12,-9,-2,71,67,2061,128,252,316,404,1,8,0,1,1,0.04577239635651161,-0.04380325529625682,4.405183112344548,0,0,0,4,-1,0,0,8,-8,-2,"",""
161,116080755,0,0,0,0,0,0,0,0,0,10,-2,0,1000,152,0,167,11,-9,-2,71,67,2059,128,257,327,410,1,8,0,1,1,0.04593516517423396,-0.04394270686625043,4.405236884026985,0,0,0,4,-1,0,0,7,-8,-2,"",""
162,116082103,0,0,0,0,0,0,0,0,0,10,-2,0,1000,152,0,167,11,-9,-1,72,67,2057,128,267,351,418,1,8,0,1,1,0.04609871560218299,-0.04408804934472385,4.405267600784723,0,0,0,4,-1,0,0,7,-8,-1,"",""
163,116083575,0,0,0,0,0,0,0,0,0,10,-2,0,1000,152,0,167,10,-9,-1,72,68,2055,128,268,349,419,1,8,0,1,1,0.04626364494267096,-0.044252229364619894,4.405301481099852,0,0,0,4,-1,0,0,6,-8,-1,"",""
164,116085047,0,0,0,0,0,0,0,0,0,10,-2,0,1000,152,0,167,10,-9,-1,72,69,2052,128,284,371,408,1,8,0,1,1,0.04643180678255306,-0.044416051008415385,4.4053354656827395,0,0,0,4,-1,0,0,6,-8,-1,"",""
165,116086410,0,0,0,0,0,0,0,0,0,10,-2,0,1000,152,0,167,10,-9,-1,72,70,2050,128,292,384,392,1,8,0,1,1,0.04658397607770408,-0.04456247619608975,4.4053668498567795,0,0,0,4,-1,0,0,6,-8,-1,"",""
166,116087774,0,0,0,0,0,0,0,0,0,10,-2,0,1000,152,0,167,10,-9,0,71,71,2047,128,305,386,349,1,8,0,1,1,0.046738516500236506,-0.04470657190272047,4.4053745581055,0,0,0,4,-1,0,0,6,-8,0,"",""
167,116089117,0,0,0,0,0,0,0,0,0,10,-2,0,1000,152,0,167,10,-9,0,71,71,2044,128,311,401,338,1,8,0,1,1,0.046889259965488005,-0.04484721938653218,4.405382122400679,0,0,0,4,-1,0,0,6,-8,0,"",""
168,116090456,0,0,0,0,0,0,0,0,0,10,-2,0,1000,152,0,167,10,-9,1,71,72,2041,128,315,398,338,1,8,0,1,1,0.04704147745535947,-0.04498818077711271,4.405366393668117,0,0,0,4,-1,0,0,6,-8,1,"",""
169,116091788,0,0,0,0,0,0,0,0,0,10,-2,0,1000,152,0,167,10,-9,1,71,73,2038,128,314,403,337,1,8,0,1,1,0.04719565403057199,-0.045127893843456814,4.405350839719931,0,0,0,4,-1,0,0,6,-8,1,"",""
170,116093117,0,0,0,0,0,0,0,0,0,10,-2,0,1000,152,0,167,10,-9,1,71,75,2036,128,304,399,383,1,8,0,1,1,0.047355582448015514,-0.045266840248515884,4.405335510290274,0,0,0,4,-1,0,0,6,-8,1,"",""
171,116094452,0,0,0,0,0,0,0,0,0,10,-2,0,1000,153,0,167,10,-9,0,70,76,2033,128,300,391,389,1,8,0,1,1,0.04752064163186535,-0.04540221219238655,4.405343523928505,0,0,0,4,-1,0,0,6,-8,0,"",""
172,116095810,0,0,0,0,0,0,0,0,0,10,-2,0,1000,153,0,167,9,-9,-1,70,78,2030,128,276,358,428,1,8,0,1,1,0.047673475837675665,-0.0455399457751792,4.405375609418649,0,0,0,4,-1,0,0,5,-8,-1,"",""
173,116097172,0,0,0,0,0,0,0,0,0,10,-2,0,1000,153,0,167,9,-9,-3,69,80,2029,128,263,353,436,1,8,0,1,1,0.04783506091686834,-0.0456723759834781,4.405455524720602,0,0,0,4,-1,0,0,5,-8,-3,"",""
174,116098503,0,0,0,0,0,0,0,0,0,10,-2,0,1000,153,0,167,8,-8,-5,69,83,2028,128,223,302,451,1,8,0,1,1,0.04797979782511049,-0.04577441337523228,4.405579211707934,0,0,0,4,-1,0,0,4,-7,-5,"",""
175,116099837,0,0,0,0,0,0,0,0,0,10,-2,0,1000,153,0,167,8,-8,-7,68,87,2028,128,186,270,455,1,8,0,1,1,0.0481392657054509,-0.04587107643913091,4.4057501166706245,0,0,0,4,-1,0,0,4,-7,-7,"",""
176,116101174,0,0,0,0,0,0,0,0,0,10,-2,0,1000,153,0,167,8,-8,-8,67,91,2028,128,138,206,393,1,8,0,1,1,0.048312201176199734,-0.04596352675801545,4.405945117111607,0,0,0,4,-1,0,0,4,-7,-8,"",""
177,116102512,0,0,0,0,0,0,0,0,0,10,-2,0,1000,153,0,167,8,-8,-9,66,96,2028,156,128,178,374,1,8,0,1,1,0.048501306747148316,-0.046051539519101466,4.40616408562995,0,0,0,4,-1,0,0,4,-7,-9,"",""
178,116103859,0,0,0,0,0,0,0,0,0,10,-2,0,1000,153,0,167,8,-8,-8,65,99,2029,162,128,175,365,1,8,0,1,1,0.04869885498742975,-0.04613834413467097,4.406361299870892,0,0,0,4,-1,0,0,4,-7,-8,"",""
179,116105218,0,0,0,0,0,0,0,0,0,10,-2,0,1000,153,0,167,8,-8,-7,63,101,2030,146,128,164,291,1,8,0,1,1,0.04890196898311189,-0.046221251694983354,4.406536738023649,0,0,0,4,-1,0,0,4,-7,-7,"",""
180,116106572,0,0,0,0,0,0,0,0,0,10,-2,0,1000,153,0,167,9,-9,-5,61,103,2032,128,162,205,288,1,8,0,1,1,0.04913038891774261,-0.04632256469646098,4.406665614232677,0,0,0,4,-1,0,0,5,-8,-5,"",""
181,116107902,0,0,0,0,0,0,0,0,0,10,-2,0,1000,153,0,167,9,-9,-2,59,103,2033,128,236,300,358,1,8,0,1,1,0.04935009791718869,-0.046417077074618535,4.40672257970975,0,0,0,4,-1,0,0,5,-8,-2,"",""
182,116109239,0,0,0,0,0,0,0,0,0,10,-2,0,1000,153,0,167,9,-9,0,57,103,2033,128,290,364,322,1,8,0,1,1,0.04956732695959248,-0.046508655542490014,4.40673318327538,0,0,0,4,-1,0,0,5,-8,0,"",""
183,116110566,0,0,0,0,0,0,0,0,0,10,-2,0,1000,153,0,167,9,-9,3,56,104,2034,128,315,436,392,1,8,0,1,1,0.049781312269224276,-0.04659883179599989,4.406674332518966,0,0,0,4,-1,0,0,5,-8,3,"",""
184,116111903,0,0,0,0,0,0,0,0,0,10,-2,0,1000,153,0,167,9,-9,5,56,104,2035,128,347,475,406,1,8,0,1,1,0.049993125476856234,-0.04669277454217208,4.406568373496151,0,0,0,4,-1,0,0,5,-8,5,"",""
185,116113255,0,0,0,0,0,0,0,0,0,10,-2,0,1000,153,0,167,9,-9,6,56,104,2037,128,365,502,426,1,8,0,1,1,0.050204450193447527,-0.046790005155296445,4.406437625905688,0,0,0,4,-1,0,0,5,-8,6,"",""
186,116114628,0,0,0,0,0,0,0,0,0,10,-2,0,1000,154,162,167,8,-8,5,56,105,2039,128,370,515,461,1,8,0,1,1,0.05039760450907379,-0.046865320352777046,4.406327687903954,0,0,0,4,-1,0,0,4,-7,5,"",""
187,116116119,0,0,0,0,0,0,0,0,0,10,-2,0,1000,154,162,167,8,-8,4,57,107,2042,128,362,526,468,1,8,0,1,1,0.05061229026428446,-0.04695890720526608,4.406234486509921,0,0,0,4,-1,0,0,4,-7,4,"",""
188,116117591,0,0,0,0,0,0,0,0,0,10,-2,0,1000,154,162,167,7,-7,2,58,110,2044,128,352,506,471,1,8,0,1,1,0.050808602940136595,-0.04702440312179485,4.406192828245348,0,0,0,4,-1,0,0,3,-6,2,"",""
189,116118920,0,0,0,0,0,0,0,0,0,10,-2,0,1000,154,162,167,7,-7,0,59,112,2047,128,333,464,467,1,8,0,1,1,0.050994191593448826,-0.0470726604395569,4.4062018284161395,0,0,0,4,-1,0,0,3,-6,0,"",""
190,116120252,0,0,0,0,0,0,0,0,0,10,-2,0,1000,154,162,167,6,-7,-3,59,116,2050,128,295,448,480,1,8,0,1,1,0.05117061456267536,-0.04711750001029561,4.406280944452445,0,0,0,4,-1,0,0,2,-6,-3,"",""
191,116121603,0,0,0,0,0,0,0,0,0,10,-2,0,1000,154,162,167,6,-7,-5,58,120,2053,128,267,416,439,1,8,0,1,1,0.05136154658955549,-0.04715897410799618,4.406408689693002,0,0,0,4,-1,0,0,2,-6,-5,"",""
192,116122975,0,0,0,0,0,0,0,0,0,10,-2,0,1000,154,162,167,6,-8,-6,57,124,2056,128,225,343,409,1,8,0,1,1,0.05156602621290409,-0.047222266510318744,4.406563941722024,0,0,0,4,-1,0,0,2,-7,-6,"",""
193,116124336,0,0,0,0,0,0,0,0,0,10,-2,0,1000,154,162,167,6,-8,-7,55,128,2059,128,200,333,383,1,8,0,1,1,0.051780332103216316,-0.047276625225329064,4.406742083378249,0,0,0,4,-1,0,0,2,-7,-7,"",""
194,116125668,0,0,0,0,0,0,0,0,0,10,-2,0,1000,154,162,167,6,-9,-7,53,132,2061,128,184,275,363,1,8,0,1,1,0.05200141533491728,-0.04734421646190665,4.406918058912359,0,0,0,4,-1,0,0,2,-8,-7,"",""
195,116127001,0,0,0,0,0,0,0,0,0,10,-2,0,1000,154,162,167,6,-9,-7,52,136,2064,128,179,250,362,1,8,0,1,1,0.05223223905299198,-0.047408715493354826,4.407094543709323,0,0,0,4,-1,0,0,2,-8,-7,"",""
196,116128373,0,0,0,0,0,0,0,0,0,10,-2,0,1000,154,162,167,6,-9,-6,52,138,2067,128,172,245,381,1,8,0,1,1,0.052469867932233266,-0.04748002938405073,4.407252358417052,0,0,0,4,-1,0,0,2,-8,-6,"",""
197,116129703,0,0,0,0,0,0,0,0,0,10,-2,0,1000,154,162,167,7,-8,-6,51,140,2070,128,185,235,387,1,8,0,1,1,0.05272947067196072,-0.04751877378219666,4.4074043899492725,0,0,0,4,-1,0,0,3,-7,-6,"",""
198,116131055,0,0,0,0,0,0,0,0,0,10,-2,0,1000,154,162,167,7,-8,-6,51,141,2072,128,175,227,347,1,8,0,1,1,0.0529925057643109,-0.04756049783048885,4.407558971413636,0,0,0,4,-1,0,0,3,-7,-6,"",""
199,116132418,0,0,0,0,0,0,0,0,0,10,-2,0,1000,154,162,167,8,-8,-6,52,142,2074,128,194,218,373,1,8,0,1,1,0.05328119665514899,-0.04760659520805902,4.407714871029179,0,0,0,4,-1,0,0,4,-7,-6,"",""
200,116133772,0,0,0,0,0,0,0,0,0,10,-2,0,1000,151,0,167,9,-7,-6,53,141,2076,128,181,211,336,1,8,0,1,1,0.053586728385760334,-0.04763090651130584,4.407868382157524,0,0,0,4,-1,0,0,5,-6,-6,"",""
201,116135124,0,0,0,0,0,0,0,0,0,10,-2,0,1000,151,0,167,9,-7,-5,54,140,2078,128,174,214,314,1,8,0,1,1,0.05388546689442721,-0.04765922120040523,4.4079979597762335,0,0,0,4,-1,0,0,5,-6,-5,"",""
202,116136450,0,0,0,0,0,0,0,0,0,10,-2,0,1000,151,0,167,9,-7,-4,54,139,2079,128,201,250,330,1,8,0,1,1,0.05417381707416438,-0.047685971370026656,4.408101845642992,0,0,0,4,-1,0,0,5,-6,-4,"",""
203,116137773,0,0,0,0,0,0,0,0,0,10,-2,0,1000,151,0,167,9,-8,-3,54,139,2079,128,246,313,376,1,8,0,1,1,0.0544586312117243,-0.04773690194984283,4.4081836648392585,0,0,0,4,-1,0,0,5,-7,-3,"",""
204,116139101,0,0,0,0,0,0,0,0,0,10,-2,0,1000,151,0,167,9,-8,-1,54,138,2079,128,280,368,372,1,8,0,1,1,0.0547372302529566,-0.04779126217292079,4.4082193421234654,0,0,0,4,-1,0,0,5,-7,-1,"",""
205,116140459,0,0,0,0,0,0,0,0,0,10,-2,0,1000,151,0,167,9,-8,0,54,137,2079,128,297,408,388,1,8,0,1,1,0.05501469210626296,-0.047851268835707256,4.408231978851022,0,0,0,4,-1,0,0,5,-7,0,"",""
206,116141822,0,0,0,0,0,0,0,0,0,10,-2,0,1000,151,0,167,9,-9,2,54,136,2078,128,309,471,409,1,8,0,1,1,0.05528619997071891,-0.04793852129597209,4.408198316112976,0,0,0,4,-1,0,0,5,-8,2,"",""
207,116143163,0,0,0,0,0,0,0,0,0,10,-2,0,1000,151,0,167,9,-9,3,55,135,2077,128,331,482,421,1,8,0,1,1,0.055548723580856,-0.04802655642308311,4.4081417473114115,0,0,0,4,-1,0,0,5,-8,3,"",""
208,116144499,0,0,0,0,0,0,0,0,0,10,-2,0,1000,151,0,167,8,-9,4,55,135,2076,128,346,493,405,1,8,0,1,1,0.055784584475679015,-0.04811524679079316,4.408062099300099,0,0,0,4,-1,0,0,4,-8,4,"",""
209,116145846,0,0,0,0,0,0,0,0,0,10,-2,0,1000,151,0,167,9,-9,3,56,135,2075,128,355,480,395,1,8,0,1,1,0.056045016908242797,-0.04820730933851899,4.408005292050461,0,0,0,4,-1,0,0,5,-8,3,"",""
210,116147329,0,0,0,0,0,0,0,0,0,10,-2,0,1000,151,0,167,9,-8,3,56,135,2073,128,366,458,368,1,8,0,1,1,0.056324939609048205,-0.04829553795921272,4.407941129218878,0,0,0,4,-1,0,0,5,-7,3,"",""
211,116148808,0,0,0,0,0,0,0,0,0,10,-2,0,1000,151,0,167,9,-8,1,57,134,2071,128,350,436,365,1,8,0,1,1,0.05660249965251948,-0.04838332308453664,4.407928664812888,0,0,0,4,-1,0,0,5,-7,1,"",""
212,116150168,0,0,0,0,0,0,0,0,0,10,-2,0,1000,151,0,167,10,-8,0,58,134,2070,128,318,392,362,1,8,0,1,1,0.05688467265286831,-0.0484560035488768,4.407941065600643,0,0,0,4,-1,0,0,6,-7,0,"",""
213,116151524,0,0,0,0,0,0,0,0,0,10,-2,0,1000,151,0,167,10,-8,-2,58,134,2069,128,282,357,367,1,8,0,1,1,0.057166825107240735,-0.048525626627304856,4.408000748731243,0,0,0,4,-1,0,0,6,-7,-2,"",""
214,116152857,0,0,0,0,0,0,0,0,0,10,-2,0,1000,151,0,167,10,-8,-5,58,135,2067,128,241,312,392,1,8,0,1,1,0.05744958660539637,-0.048588435504753766,4.408129314891512,0,0,0,4,-1,0,0,6,-7,-5,"",""
215,116154189,0,0,0,0,0,0,0,0,0,10,-2,0,1000,152,0,167,10,-8,-6,59,138,2065,128,188,253,385,1,8,0,1,1,0.05773995926105619,-0.048652784754008076,4.4082813279479325,0,0,0,4,-1,0,0,6,-7,-6,"",""
216,116155521,0,0,0,0,0,0,0,0,0,10,-2,0,1000,152,0,167,9,-8,-8,59,140,2063,128,159,226,399,1,8,0,1,1,0.05801335440150538,-0.048714746238929386,4.408480019112619,0,0,0,4,-1,0,0,5,-7,-8,"",""
217,116156850,0,0,0,0,0,0,0,0,0,10,-2,0,1000,152,0,167,9,-8,-9,58,142,2061,138,128,184,391,1,8,0,1,1,0.05829134066116782,-0.04877258438302382,4.40870165552153,0,0,0,4,-1,0,0,5,-7,-9,"",""
218,116158203,0,0,0,0,0,0,0,0,0,10,-2,0,1000,152,0,167,8,-8,-9,57,145,2059,152,128,180,398,1,8,0,1,1,0.058556355864357326,-0.04883117031790229,4.408927561510504,0,0,0,4,-1,0,0,4,-7,-9,"",""
219,116159564,0,0,0,0,0,0,0,0,0,10,-2,0,1000,152,0,167,8,-8,-9,57,148,2056,165,128,173,381,1,8,0,1,1,0.05882929781323026,-0.048891227026137137,4.409155102118597,0,0,0,4,-1,0,0,4,-7,-9,"",""
220,116160904,0,0,0,0,0,0,0,0,0,10,-2,0,1000,152,0,167,8,-9,-8,57,150,2054,175,128,163,334,1,8,0,1,1,0.05910194376715175,-0.04897345720506763,4.409357388538097,0,0,0,4,-1,0,0,4,-8,-8,"",""
221,116162249,0,0,0,0,0,0,0,0,0,10,-2,0,1000,152,0,167,9,-9,-7,56,150,2051,138,128,163,284,1,8,0,1,1,0.05939624118575307,-0.04905549676572794,4.409536977998849,0,0,0,4,-1,0,0,5,-8,-7,"",""
222,116163579,0,0,0,0,0,0,0,0,0,10,-2,0,1000,152,0,167,9,-9,-5,55,149,2049,128,163,193,261,1,8,0,1,1,0.059681658976587885,-0.049135647166286156,4.409668110420221,0,0,0,4,-1,0,0,5,-8,-5,"",""
223,116164919,0,0,0,0,0,0,0,0,0,10,-2,0,1000,152,0,167,10,-9,-3,54,148,2046,128,218,241,236,1,8,0,1,1,0.05998572400051648,-0.04921784926335474,4.409753381969665,0,0,0,4,-1,0,0,6,-8,-3,"",""
224,116166252,0,0,0,0,0,0,0,0,0,10,-2,0,1000,152,0,167,11,-10,0,52,147,2043,128,274,321,265,1,8,0,1,1,0.060304335607177253,-0.04932142998822716,4.409769792082305,0,0,0,4,-1,0,0,7,-9,0,"",""
225,116167613,0,0,0,0,0,0,0,0,0,10,-2,0,1000,152,0,167,11,-10,2,52,145,2040,128,315,383,292,1,8,0,1,1,0.06061932543070986,-0.04943303792504773,4.409738849784751,0,0,0,4,-1,0,0,7,-9,2,"",""
226,116168995,0,0,0,0,0,0,0,0,0,10,-2,0,1000,152,0,167,11,-10,3,51,144,2038,128,315,421,338,1,8,0,1,1,0.06093296508808848,-0.049547351441785806,4.409683219330985,0,0,0,4,-1,0,0,7,-9,3,"",""
227,116170348,0,0,0,0,0,0,0,0,0,10,-2,0,1000,152,0,167,11,-10,4,51,143,2035,128,318,445,386,1,8,0,1,1,0.061236010098613534,-0.04965826225996038,4.409605130619831,0,0,0,4,-1,0,0,7,-9,4,"",""
228,116171679,0,0,0,0,0,0,0,0,0,10,-2,0,1000,152,0,167,10,-10,3,52,143,2033,128,321,459,415,1,8,0,1,1,0.06151151172320123,-0.049766579244140144,4.409551582053734,0,0,0,4,-1,0,0,6,-9,3,"",""
229,116173013,0,0,0,0,0,0,0,0,0,10,-2,0,1000,152,0,167,9,-10,2,52,144,2031,128,298,477,443,1,8,0,1,1,0.061766794370127054,-0.04987414759764792,4.409521302208504,0,0,0,4,-1,0,0,5,-9,2,"",""
230,116174342,0,0,0,0,0,0,0,0,0,10,-2,0,1000,150,94,167,8,-9,1,53,146,2028,128,304,444,459,1,8,0,1,1,0.06200339274838952,-0.04995919569166301,4.409513118437572,0,0,0,4,-1,0,0,4,-8,1,"",""
231,116175693,0,0,0,0,0,0,0,0,0,10,-2,0,1000,150,94,167,7,-9,-1,54,149,2026,128,290,455,466,1,8,0,1,1,0.062228472605017626,-0.0500475559174512,4.409552217444115,0,0,0,4,-1,0,0,3,-8,-1,"",""
232,116177199,0,0,0,0,0,0,0,0,0,10,-2,0,1000,150,94,167,7,-9,-3,54,152,2025,128,265,410,484,1,8,0,1,1,0.06248163244848872,-0.050156725270204205,4.40964839403246,0,0,0,4,-1,0,0,3,-8,-3,"",""
233,116178689,0,0,0,0,0,0,0,0,0,10,-2,0,1000,150,94,167,6,-9,-5,55,155,2024,128,260,391,468,1,8,0,1,1,0.06271575239556548,-0.050262680488063725,4.409795877046462,0,0,0,4,-1,0,0,2,-8,-5,"",""
234,116180032,0,0,0,0,0,0,0,0,0,10,-2,0,1000,150,94,167,6,-9,-6,55,157,2022,128,226,345,418,1,8,0,1,1,0.06293893885814515,-0.050345121046312405,4.409952739634984,0,0,0,4,-1,0,0,2,-8,-6,"",""
235,116181364,0,0,0,0,0,0,0,0,0,10,-2,0,1000,150,94,167,6,-9,-6,55,158,2020,128,205,294,412,1,8,0,1,1,0.06316236192917657,-0.05042611758938171,4.41010846173584,0,0,0,4,-1,0,0,2,-8,-6,"",""
236,116182706,0,0,0,0,0,0,0,0,0,10,-2,0,1000,150,94,167,6,-9,-5,55,159,2019,128,207,302,366,1,8,0,1,1,0.06338698564718513,-0.050510160754027415,4.410242037842345,0,0,0,4,-1,0,0,2,-8,-5,"",""
237,116184040,0,0,0,0,0,0,0,0,0,10,-2,0,1000,150,94,167,6,-10,-5,55,158,2018,128,226,340,392,1,8,0,1,1,0.06360709752209262,-0.05061620156080609,4.41037622476013,0,0,0,4,-1,0,0,2,-9,-5,"",""
238,116185394,0,0,0,0,0,0,0,0,0,10,-2,0,1000,150,94,167,6,-10,-3,55,158,2018,128,254,356,424,1,8,0,1,1,0.06382566493467905,-0.05072843166242462,4.410465160893328,0,0,0,4,-1,0,0,2,-9,-3,"",""
239,116186757,0,0,0,0,0,0,0,0,0,10,-2,0,1000,150,94,167,6,-10,-2,55,157,2018,128,278,423,455,1,8,0,1,1,0.06404019356242148,-0.05084353008967327,4.4105308051518834,0,0,0,4,-1,0,0,2,-9,-2,"",""
240,116188101,0,0,0,0,0,0,0,0,0,10,-2,0,1000,150,94,167,5,-9,-2,56,158,2019,128,288,410,476,1,8,0,1,1,0.06423029552054475,-0.050934227499132435,4.410594175132364,0,0,0,4,-1,0,0,1,-8,-2,"",""
241,116189435,0,0,0,0,0,0,0,0,0,10,-2,0,1000,150,94,167,5,-9,-2,57,158,2019,128,296,416,477,1,8,0,1,1,0.06441833434049028,-0.0510257685147967,4.410657099522775,0,0,0,4,-1,0,0,1,-8,-2,"",""
242,116190772,0,0,0,0,0,0,0,0,0,10,-2,0,1000,150,94,167,5,-9,-2,59,159,2020,128,290,421,495,1,8,0,1,1,0.06460777793650065,-0.05112244613013241,4.410720261128888,0,0,0,4,-1,0,0,1,-8,-2,"",""
243,116192102,0,0,0,0,0,0,0,0,0,10,-2,0,1000,150,94,167,5,-8,-3,60,159,2022,128,282,379,489,1,8,0,1,1,0.06479622614082188,-0.051195565654135675,4.410804787102516,0,0,0,4,-1,0,0,1,-7,-3,"",""
244,116193431,0,0,0,0,0,0,0,0,0,10,-2,0,1000,150,94,167,5,-8,-4,62,161,2024,128,264,392,458,1,8,0,1,1,0.06498917059969533,-0.05127162740346006,4.410912622059653,0,0,0,4,-1,0,0,1,-7,-4,"",""
245,116194793,0,0,0,0,0,0,0,0,0,10,-2,0,1000,148,5,167,5,-8,-5,63,162,2027,128,234,353,422,1,8,0,1,1,0.06518710399079415,-0.051352560099926864,4.411046892600648,0,0,0,4,-1,0,0,1,-7,-5,"",""
246,116196155,0,0,0,0,0,0,0,0,0,10,-2,0,1000,148,5,167,5,-9,-6,64,164,2030,128,209,293,370,1,8,0,1,1,0.06538949945851992,-0.05145748520528231,4.411206657138095,0,0,0,4,-1,0,0,1,-8,-6,"",""
247,116197484,0,0,0,0,0,0,0,0,0,10,-2,0,1000,148,5,167,5,-9,-5,64,165,2032,128,202,305,328,1,8,0,1,1,0.06558851383284667,-0.05155851897641623,4.411339547170155,0,0,0,4,-1,0,0,1,-8,-5,"",""
248,116198822,0,0,0,0,0,0,0,0,0,10,-2,0,1000,148,5,167,6,-10,-5,65,164,2035,128,215,297,347,1,8,0,1,1,0.06580759053163246,-0.05168592821729222,4.411474728600611,0,0,0,4,-1,0,0,2,-9,-5,"",""
249,116200152,0,0,0,0,0,0,0,0,0,10,-2,0,1000,148,5,167,6,-10,-3,65,164,2037,128,241,327,338,1,8,0,1,1,0.06602179465261603,-0.05181445790234875,4.411562728535796,0,0,0,4,-1,0,0,2,-9,-3,"",""
250,116201485,0,0,0,0,0,0,0,0,0,10,-2,0,1000,148,5,167,6,-10,-2,66,163,2040,128,268,371,383,1,8,0,1,1,0.06623099731158028,-0.05194672086478359,4.411627556749115,0,0,0,4,-1,0,0,2,-9,-2,"",""
251,116202833,0,0,0,0,0,0,0,0,0,10,-2,0,1000,148,5,167,7,-10,-1,67,163,2043,128,291,379,415,1,8,0,1,1,0.06646229442643557,-0.05208475972553423,4.41166956335483,0,0,0,4,-1,0,0,3,-9,-1,"",""
252,116204186,0,0,0,0,0,0,0,0,0,10,-2,0,1000,148,5,167,7,-10,-1,70,161,2045,128,297,376,418,1,8,0,1,1,0.0666878247503109,-0.05223016057329579,4.411711499022109,0,0,0,4,-1,0,0,3,-9,-1,"",""
253,116205539,0,0,0,0,0,0,0,0,0,10,-2,0,1000,148,5,167,7,-9,-1,73,159,2048,128,296,354,421,1,8,0,1,1,0.06690679854565795,-0.052358413685939444,4.411751629173792,0,0,0,4,-1,0,0,3,-8,-1,"",""
254,116206873,0,0,0,0,0,0,0,0,0,10,-2,0,1000,148,5,167,8,-8,-2,75,157,2050,128,287,340,418,1,8,0,1,1,0.06714149139049788,-0.05246316368788136,4.41181270001009,0,0,0,4,-1,0,0,4,-7,-2,"",""
255,116208223,0,0,0,0,0,0,0,0,0,10,-2,0,1000,148,5,167,8,-8,-3,77,155,2053,128,267,334,419,1,8,0,1,1,0.06737323568634214,-0.052572584066965,4.411897779354362,0,0,0,4,-1,0,0,4,-7,-3,"",""
256,116209698,0,0,0,0,0,0,0,0,0,10,-2,0,1000,148,5,167,8,-8,-4,79,154,2055,128,241,315,389,1,8,0,1,1,0.06762021761067921,-0.052701289344356014,4.412016171110992,0,0,0,4,-1,0,0,4,-7,-4,"",""
257,116211183,0,0,0,0,0,0,0,0,0,10,-2,0,1000,148,5,167,8,-8,-4,81,153,2058,128,242,321,403,1,8,0,1,1,0.0678645397955141,-0.052835208220715336,4.412135224201388,0,0,0,4,-1,0,0,4,-7,-4,"",""
258,116212566,0,0,0,0,0,0,0,0,0,10,-2,0,1000,148,5,167,8,-8,-4,81,153,2060,128,244,336,403,1,8,0,1,1,0.06809268974544287,-0.05295475915367897,4.412246175558478,0,0,0,4,-1,0,0,4,-7,-4,"",""
259,116213934,0,0,0,0,0,0,0,0,0,10,-2,0,1000,151,0,167,8,-9,-3,81,153,2062,128,255,358,410,1,8,0,1,1,0.06831603073293982,-0.05309699397333119,4.4123336950744205,0,0,0,4,-1,0,0,4,-8,-3,"",""
260,116215349,0,0,0,0,0,0,0,0,0,10,-2,0,1000,151,0,167,7,-9,-2,80,153,2063,128,272,409,415,1,8,0,1,1,0.06851887345002305,-0.05324515249524453,4.412399498384707,0,0,0,4,-1,0,0,3,-8,-2,"",""
261,116216684,0,0,0,0,0,0,0,0,0,10,-2,0,1000,151,0,167,7,-9,-1,80,152,2064,128,284,413,423,1,8,0,1,1,0.06870705441472906,-0.053382000836012106,4.412438256541174,0,0,0,4,-1,0,0,3,-8,-1,"",""
262,116218017,0,0,0,0,0,0,0,0,0,10,-2,0,1000,151,0,167,7,-9,0,79,151,2065,128,299,421,412,1,8,0,1,1,0.06889033426203767,-0.05351728408727375,4.412453598682243,0,0,0,4,-1,0,0,3,-8,0,"",""
263,116219347,0,0,0,0,0,0,0,0,0,10,-2,0,1000,151,0,167,7,-9,0,78,149,2066,128,313,420,386,1,8,0,1,1,0.06906758267353072,-0.053649287688120335,4.41246868394207,0,0,0,4,-1,0,0,3,-8,0,"",""
264,116220688,0,0,0,0,0,0,0,0,0,10,-2,0,1000,151,0,167,8,-9,0,77,148,2067,128,317,401,376,1,8,0,1,1,0.06926614939264573,-0.053780218489498245,4.412483771361424,0,0,0,4,-1,0,0,4,-8,0,"",""
265,116222052,0,0,0,0,0,0,0,0,0,10,-2,0,1000,151,0,167,8,-9,-1,76,148,2066,128,303,385,356,1,8,0,1,1,0.06946839498086356,-0.05391056139780602,4.41252289847632,0,0,0,4,-1,0,0,4,-8,-1,"",""
266,116223420,0,0,0,0,0,0,0,0,0,10,-2,0,1000,151,0,167,9,-9,-2,75,147,2066,128,277,347,343,1,8,0,1,1,0.0696930074798137,-0.05403723668324835,4.412585881775303,0,0,0,4,-1,0,0,5,-8,-2,"",""
267,116224764,0,0,0,0,0,0,0,0,0,10,-2,0,1000,151,0,167,10,-9,-3,74,147,2065,128,246,302,313,1,8,0,1,1,0.06993751506758711,-0.05415610380114904,4.412671203341592,0,0,0,4,-1,0,0,6,-8,-3,"",""
268,116226091,0,0,0,0,0,0,0,0,0,10,-2,0,1000,151,0,167,10,-9,-5,73,147,2064,128,223,277,339,1,8,0,1,1,0.07018052457434237,-0.05426670308811321,4.412801726667978,0,0,0,4,-1,0,0,6,-8,-5,"",""
269,116227425,0,0,0,0,0,0,0,0,0,10,-2,0,1000,151,0,167,10,-10,-6,71,149,2063,128,189,245,343,1,8,0,1,1,0.0704296654250872,-0.054395169207735385,4.412958056923017,0,0,0,4,-1,0,0,6,-9,-6,"",""
270,116228758,0,0,0,0,0,0,0,0,0,10,-2,0,1000,151,0,167,9,-10,-7,70,152,2062,128,170,228,359,1,8,0,1,1,0.07066245589500601,-0.05451933944998718,4.413137846556521,0,0,0,4,-1,0,0,5,-9,-7,"",""
271,116230109,0,0,0,0,0,0,0,0,0,10,-2,0,1000,151,0,167,9,-10,-8,69,155,2060,128,143,196,348,1,8,0,1,1,0.07090540343736086,-0.05464246527407847,4.413343954162265,0,0,0,4,-1,0,0,5,-9,-8,"",""
272,116231463,0,0,0,0,0,0,0,0,0,10,-2,0,1000,151,0,167,9,-10,-8,68,159,2058,128,129,181,361,1,8,0,1,1,0.07115692422113336,-0.054763737055348184,4.413550971123977,0,0,0,4,-1,0,0,5,-9,-8,"",""
273,116232866,0,0,0,0,0,0,0,0,0,10,-2,0,1000,151,0,167,9,-10,-7,67,161,2056,137,128,176,356,1,8,0,1,1,0.07141872896731634,-0.054892444417625724,4.413741209105747,0,0,0,4,-1,0,0,5,-9,-7,"",""
274,116234216,0,0,0,0,0,0,0,0,0,10,-2,0,1000,152,0,167,9,-10,-7,66,164,2054,128,131,173,301,1,8,0,1,1,0.07167755504662617,-0.05501009639206954,4.413924664862887,0,0,0,4,-1,0,0,5,-9,-7,"",""
275,116235563,0,0,0,0,0,0,0,0,0,10,-2,0,1000,152,0,167,10,-10,-5,66,164,2051,128,159,203,305,1,8,0,1,1,0.07195592610892838,-0.05513070093329624,4.414060775332452,0,0,0,4,-1,0,0,6,-9,-5,"",""
276,116236904,0,0,0,0,0,0,0,0,0,10,-2,0,1000,152,0,167,10,-10,-3,66,164,2048,128,207,245,289,1,8,0,1,1,0.07222977633423298,-0.0552537475382421,4.414149556149558,0,0,0,4,-1,0,0,6,-9,-3,"",""
277,116238242,0,0,0,0,0,0,0,0,0,10,-2,0,1000,152,0,167,10,-11,-1,67,162,2045,128,248,298,304,1,8,0,1,1,0.07249537557051351,-0.05540513568624151,4.4141929910912925,0,0,0,4,-1,0,0,6,-10,-1,"",""
278,116239611,0,0,0,0,0,0,0,0,0,10,-2,0,1000,152,0,167,11,-11,1,68,160,2042,128,299,371,307,1,8,0,1,1,0.07278238700601004,-0.0555680216957316,4.414189481877286,0,0,0,4,-1,0,0,7,-10,1,"",""
279,116241114,0,0,0,0,0,0,0,0,0,10,-2,0,1000,152,0,167,11,-11,2,68,158,2038,128,308,407,357,1,8,0,1,1,0.07308844779891081,-0.05575858682030618,4.414159141283956,0,0,0,4,-1,0,0,7,-10,2,"",""
280,116242584,0,0,0,0,0,0,0,0,0,10,-2,0,1000,152,0,167,10,-11,3,69,156,2035,128,313,460,401,1,8,0,1,1,0.07335597335194387,-0.05594664967583331,4.414103682170179,0,0,0,4,-1,0,0,6,-10,3,"",""
281,116243937,0,0,0,0,0,0,0,0,0,10,-2,0,1000,152,0,167,9,-11,4,70,155,2031,128,316,499,438,1,8,0,1,1,0.07357582623322151,-0.05611580843581377,4.414029037758588,0,0,0,4,-1,0,0,5,-10,4,"",""
282,116245270,0,0,0,0,0,0,0,0,0,10,-2,0,1000,152,0,167,8,-10,3,72,155,2028,128,307,521,454,1,8,0,1,1,0.07377012693603573,-0.05626047349842497,4.413977059202096,0,0,0,4,-1,0,0,4,-9,3,"",""
283,116246606,0,0,0,0,0,0,0,0,0,10,-2,0,1000,152,0,167,7,-10,2,73,157,2025,128,303,536,470,1,8,0,1,1,0.07394683961970142,-0.056406086105499346,4.413948503957224,0,0,0,4,-1,0,0,3,-9,2,"",""
284,116247958,0,0,0,0,0,0,0,0,0,10,-2,0,1000,152,0,167,6,-10,0,73,159,2022,128,304,530,483,1,8,0,1,1,0.07410861047437209,-0.056550993497035955,4.413966988318837,0,0,0,4,-1,0,0,2,-9,0,"",""
285,116249316,0,0,0,0,0,0,0,0,0,10,-2,0,1000,152,0,167,5,-10,-1,74,162,2019,128,306,532,493,1,8,0,1,1,0.07425491928441125,-0.05669728430820648,4.414009589018952,0,0,0,4,-1,0,0,1,-9,-1,"",""
286,116250726,0,0,0,0,0,0,0,0,0,10,-2,0,1000,152,0,167,5,-10,-3,74,165,2016,128,298,491,494,1,8,0,1,1,0.0744148296590806,-0.05684881002767634,4.414103298807078,0,0,0,4,-1,0,0,1,-9,-3,"",""
287,116252073,0,0,0,0,0,0,0,0,0,10,-2,0,1000,152,0,167,4,-10,-4,74,167,2014,128,275,453,476,1,8,0,1,1,0.07455078772105857,-0.05698771272479053,4.414216623000051,0,0,0,4,-1,0,0,0,-9,-4,"",""
288,116253421,0,0,0,0,0,0,0,0,0,10,-2,0,1000,152,0,167,4,-10,-5,74,169,2012,128,234,387,397,1,8,0,1,1,0.07469207403094004,-0.05712488163620753,4.4143537756095075,0,0,0,4,-1,0,0,0,-9,-5,"",""
289,116254771,0,0,0,0,0,0,0,0,0,10,-2,0,1000,152,312,167,4,-10,-6,73,171,2010,128,208,331,373,1,8,0,1,1,0.07483873113847271,-0.05725835692502483,4.414514909572449,0,0,0,4,-1,0,0,0,-9,-6,"",""
290,116256118,0,0,0,0,0,0,0,0,0,10,-2,0,1000,152,312,167,5,-10,-6,73,172,2008,128,202,315,392,1,8,0,1,1,0.07501028744766144,-0.05739120900482565,4.414675824667616,0,0,0,4,-1,0,0,1,-9,-6,"",""
291,116257481,0,0,0,0,0,0,0,0,0,10,-2,0,1000,152,312,167,5,-10,-6,74,173,2007,128,191,272,379,1,8,0,1,1,0.07518478910257016,-0.05752857633516037,4.414838749482586,0,0,0,4,-1,0,0,1,-9,-6,"",""
292,116258839,0,0,0,0,0,0,0,0,0,10,-2,0,1000,152,312,167,5,-10,-6,75,174,2007,128,191,272,419,1,8,0,1,1,0.07536009188313066,-0.057666833198879414,4.415001203947947,0,0,0,4,-1,0,0,1,-9,-6,"",""
293,116260177,0,0,0,0,0,0,0,0,0,10,-2,0,1000,152,312,167,5,-10,-6,76,174,2008,128,201,272,472,1,8,0,1,1,0.07553251849986607,-0.057803372990308285,4.4151612990473375,0,0,0,4,-1,0,0,1,-9,-6,"",""
294,116261552,0,0,0,0,0,0,0,0,0,10,-2,0,1000,152,312,167,5,-9,-6,78,175,2009,128,197,270,469,1,8,0,1,1,0.07570941610548526,-0.05792588181595906,4.41532404440555,0,0,0,4,-1,0,0,1,-8,-6,"",""
295,116262892,0,0,0,0,0,0,0,0,0,10,-2,0,1000,152,312,167,5,-9,-7,79,175,2011,128,192,256,483,1,8,0,1,1,0.07588322010634993,-0.05804295708234453,4.415506053431713,0,0,0,4,-1,0,0,1,-8,-7,"",""
296,116264222,0,0,0,0,0,0,0,0,0,10,-2,0,1000,152,312,167,5,-8,-7,81,176,2013,128,182,260,462,1,8,0,1,1,0.07605690990862937,-0.05813911730135198,4.415685050922056,0,0,0,4,-1,0,0,1,-7,-7,"",""
297,116265558,0,0,0,0,0,0,0,0,0,10,-2,0,1000,152,312,167,5,-8,-7,82,176,2016,128,175,251,426,1,8,0,1,1,0.07622985599500544,-0.058237530836991985,4.415864811005448,0,0,0,4,-1,0,0,1,-7,-7,"",""
298,116266919,0,0,0,0,0,0,0,0,0,10,-2,0,1000,152,312,167,5,-8,-6,83,177,2019,128,196,281,383,1,8,0,1,1,0.07640456134426818,-0.05834243186129561,4.416024244197711,0,0,0,4,-1,0,0,1,-7,-6,"",""
299,116268330,0,0,0,0,0,0,0,0,0,10,-2,0,1000,152,312,167,5,-9,-4,83,177,2022,128,226,325,376,1,8,0,1,1,0.07657988291262473,-0.05848142287112197,4.416142103834105,0,0,0,4,-1,0,0,1,-8,-4,"",""
300,116269679,0,0,0,0,0,0,0,0,0,10,-2,0,1000,152,312,167,5,-9,-2,84,176,2025,128,268,392,384,1,8,0,1,1,0.07674339678486214,-0.05861596456890134,4.416207722341463,0,0,0,4,-1,0,0,1,-8,-2,"",""
301,116271040,0,0,0,0,0,0,0,0,0,10,-2,0,1000,152,312,167,6,-9,1,85,175,2028,128,309,479,392,1,8,0,1,1,0.07692415493138952,-0.05875911126256002,4.416202589053165,0,0,0,4,-1,0,0,2,-8,1,"",""
302,116272526,0,0,0,0,0,0,0,0,0,10,-2,0,1000,152,312,167,6,-10,3,86,173,2030,128,341,539,424,1,8,0,1,1,0.07710970076266638,-0.058953061174554,4.416146739561864,0,0,0,4,-1,0,0,2,-9,3,"",""
