"Product","Blackbox flight data recorder by Nicholas Sherlock"
"firmwareType",3
"firmware","3.3"
"firmwarePatch",3
"firmwareVersion","3.3.3"
"Firmware revision","Betaflight 3.3.3 (4dd6907a9) MATEKF722"
"Firmware date","Jun 11 2022 14:50:31"
"Log start datetime","0000-01-01T00:00:00.000+00:00"
"Craft name","NEUROFLIGHT"
"frameIntervalI",32
"frameIntervalPNum",1
"frameIntervalPDenom",1
"minthrottle",1070
"maxthrottle",2000
"gyroScale",1.7453292519943295e-8
"motorOutput","128,2047"
"acc_1G",2048
"vbatscale",110
"vbatmincellvoltage",33
"vbatwarningcellvoltage",35
"vbatmaxcellvoltage",43
"vbatref",154
"currentMeterOffset",0
"currentMeterScale",179
"looptime",125
"gyro_sync_denom",1
"pid_process_denom",8
"thrMid",50
"thrExpo",0
"dynThrPID",10
"tpa_breakpoint",1650
"rc_rates","100,100,100"
"rc_expo","0,0,0"
"rates","70,70,70"
"rollPID","40,40,30"
"pitchPID","58,50,35"
"yawPID","70,45,20"
"altPID","50,0,0"
"posPID","15,0,0"
"posrPID","34,14,53"
"navrPID","25,33,83"
"levelPID","50,50,75"
"magPID","40,,"
"velPID","55,55,75"
"dterm_filter_type",1
"dterm_lpf_hz",100
"yaw_lpf_hz",0
"dterm_notch_hz",260
"dterm_notch_cutoff",160
"itermWindupPointPercent",50
"vbat_pid_compensation",0
"pidAtMinThrottle",1
"anti_gravity_threshold",350
"anti_gravity_gain",1000
"setpointRelaxRatio",100
"dtermSetpointWeight",0
"yawRateAccelLimit",0.1
"rateAccelLimit",0
"pidSumLimit",500
"pidSumLimitYaw",400
"deadband",0
"yaw_deadband",0
"gyro_lpf",0
"gyro_soft_type",0
"gyro_lowpass_hz",90
"gyro_notch_hz","400,200"
"gyro_notch_cutoff","300,100"
"acc_lpf_hz",1000
"acc_hardware",0
"baro_hardware",0
"mag_hardware",0
"gyro_cal_on_first_arm",0
"rc_interpolation",2
"rc_interpolation_interval",19
"airmode_activate_throttle",32
"serialrx_provider",2
"unsynced_fast_pwm",0
"fast_pwm_protocol",7
"motor_pwm_rate",480
"digitalIdleOffset",400
"debug_mode",0
"features",263176
"loopIteration","time","axisP[0]","axisP[1]","axisP[2]","axisI[0]","axisI[1]","axisI[2]","axisD[0]","axisD[1]","axisD[2]","rcCommand[0]","rcCommand[1]","rcCommand[2]","rcCommand[3]","vbatLatest","amperageLatest","BaroAlt","gyroADC[0]","gyroADC[1]","gyroADC[2]","accSmooth[0]","accSmooth[1]","accSmooth[2]","motor[0]","motor[1]","motor[2]","motor[3]","flightModeFlags","stateFlags","failsafePhase","rxSignalReceived","rxFlightChannelsValid","heading[0]","heading[1]","heading[2]","axisSum[0]","axisSum[1]","axisSum[2]","rcCommands[0]","rcCommands[1]","rcCommands[2]","rcCommands[3]","axisError[0]","axisError[1]","axisError[2]"
0,339603448,0,0,0,0,0,0,0,0,0,10,-2,-1,1000,152,0,68,1,2,-7,106,-95,2111,130,0,81,309,"","","","","",-0.044972025611176907,-0.05012038944982372,4.39648450954796,0,0,0,4,-1,-1,0,-3,3,-6,"",""
1,339604793,0,0,0,0,0,0,0,0,0,10,-2,-1,1000,152,0,68,0,1,-7,102,-92,2113,129,0,266,326,1,8,0,1,1,-0.044237200922753614,-0.04914578651613429,4.396649909464527,0,0,0,4,-1,-1,0,-4,2,-6,"",""
2,339606281,0,0,0,0,0,0,0,0,0,10,-2,-1,1000,152,0,68,0,1,-5,99,-89,2114,131,0,137,260,1,8,0,1,1,-0.04351071883625827,-0.048333744491867836,4.396780903704273,0,0,0,4,-1,-1,0,-4,2,-4,"",""
3,339607799,0,0,0,0,0,0,0,0,0,10,-2,-1,1000,152,0,68,0,1,-2,96,-87,2115,109,0,280,222,1,8,0,1,1,-0.0429070244253804,-0.04756002721673973,4.396835008073395,0,0,0,4,-1,-1,0,-4,2,-1,"",""
4,339609162,0,0,0,0,0,0,0,0,0,10,-2,-1,1000,152,0,68,1,1,1,97,-86,2116,83,0,215,73,1,8,0,1,1,-0.042429582110088224,-0.047181000410291406,4.396812190608583,0,0,0,4,-1,-1,0,-3,2,2,"",""
5,339610501,0,0,0,0,0,0,0,0,0,10,-2,-1,1000,152,0,68,1,0,4,100,-85,2117,29,0,280,36,1,8,0,1,1,-0.04202841833587816,-0.04717480696352901,4.396718656341024,0,0,0,4,-1,-1,0,-3,1,5,"",""
6,339611833,0,0,0,0,0,0,0,0,0,10,-2,-1,1000,152,0,68,2,0,6,103,-83,2117,1,0,340,29,1,8,0,1,1,-0.041585800127725045,-0.04737150615503866,4.396579099611252,0,0,0,4,-1,-1,0,-2,1,7,"",""
7,339613165,0,0,0,0,0,0,0,0,0,10,-2,-1,1000,152,0,68,3,0,7,107,-78,2116,21,126,267,0,1,8,0,1,1,-0.04093533339009422,-0.0477579197384635,4.396416261049741,0,0,0,4,-1,-1,0,-1,1,8,"",""
8,339614552,0,0,0,0,0,0,0,0,0,10,-2,-1,1000,152,0,68,2,-1,7,111,-72,2115,0,24,418,63,1,8,0,1,1,-0.040127266338485595,-0.04829303277323305,4.396245693131852,0,0,0,4,-1,-1,0,-2,0,8,"",""
9,339615898,0,0,0,0,0,0,0,0,0,10,-2,-1,1000,153,0,68,2,-1,6,113,-67,2113,0,60,441,119,1,8,0,1,1,-0.039242830626385825,-0.04882339067051254,4.396103680333016,0,0,0,4,-1,-1,0,-2,0,7,"",""
10,339617263,0,0,0,0,0,0,0,0,0,10,-2,-1,1000,153,0,68,2,-1,5,113,-61,2110,0,52,359,72,1,8,0,1,1,-0.03825917292473529,-0.049267045088884624,4.395983520964482,0,0,0,4,-1,-1,0,-2,0,6,"",""
11,339618634,0,0,0,0,0,0,0,0,0,10,-2,-1,1000,153,0,68,1,0,4,113,-55,2108,0,33,465,157,1,8,0,1,1,-0.03722092736188485,-0.04962194152789257,4.395887698512052,0,0,0,4,-1,-1,0,-3,1,5,"",""
12,339619963,0,0,0,0,0,0,0,0,0,10,-2,-1,1000,153,0,68,1,-1,3,112,-53,2106,0,8,396,126,1,8,0,1,1,-0.03626927537240452,-0.049911582876007936,4.395817174403261,0,0,0,4,-1,-1,0,-3,0,4,"",""
13,339621298,0,0,0,0,0,0,0,0,0,10,-2,-1,1000,153,0,68,0,0,1,109,-53,2105,0,25,350,153,1,8,0,1,1,-0.035472279333868935,-0.050041002927928055,4.39579383223226,0,0,0,4,-1,-1,0,-4,1,2,"",""
14,339622627,0,0,0,0,0,0,0,0,0,10,-2,-1,1000,153,0,68,-1,0,0,107,-55,2104,0,37,353,205,1,8,0,1,1,-0.03486668915948739,-0.0500917513978451,4.3957938120237765,0,0,0,4,-1,-1,0,-5,1,1,"",""
15,339623951,0,0,0,0,0,0,0,0,0,10,-2,-1,1000,153,0,68,0,1,-1,106,-58,2103,5,0,187,134,1,8,0,1,1,-0.03440591679762461,-0.050086744838675694,4.395817717518698,0,0,0,4,-1,-1,0,-4,2,0,"",""
16,339625313,0,0,0,0,0,0,0,0,0,10,-2,-1,1000,153,0,68,0,1,-3,107,-60,2103,43,0,267,227,1,8,0,1,1,-0.03405321036345917,-0.05011000943760226,4.395889871030416,0,0,0,4,-1,-1,0,-4,2,-2,"",""
17,339626672,0,0,0,0,0,0,0,0,0,10,-2,-1,1000,153,0,68,0,2,-4,110,-61,2104,0,13,27,233,1,8,0,1,1,-0.033763966918393916,-0.050186404712163096,4.395986392084471,0,0,0,4,-1,-1,0,-4,3,-3,"",""
18,339628011,0,0,0,0,0,0,0,0,0,10,-2,-1,1000,153,0,68,1,2,-6,115,-60,2103,99,0,60,224,1,8,0,1,1,-0.03345610149139246,-0.050382084159699435,4.396128238924258,0,0,0,4,-1,-1,0,-3,3,-5,"",""
19,339629340,0,0,0,0,0,0,0,0,0,10,-2,-1,1000,153,0,68,1,3,-7,120,-60,2103,113,0,154,347,1,8,0,1,1,-0.03317647359836324,-0.050655183355806585,4.396292992322174,0,0,0,4,-1,-1,0,-3,4,-6,"",""
20,339630679,0,0,0,0,0,0,0,0,0,10,-2,-1,1000,153,0,68,2,3,-7,123,-59,2102,139,25,0,308,1,8,0,1,1,-0.03287724074723514,-0.05096868847766298,4.396458956394313,0,0,0,4,-1,-1,0,-2,4,-6,"",""
21,339632016,0,0,0,0,0,0,0,0,0,10,-2,-1,1000,153,0,68,2,3,-6,127,-58,2102,152,0,167,248,1,8,0,1,1,-0.032581919351824,-0.051337696849630125,4.396601291105809,0,0,0,4,-1,-1,0,-2,4,-5,"",""
22,339633361,0,0,0,0,0,0,0,0,0,10,-2,-1,1000,153,0,68,2,3,-3,128,-58,2101,113,0,126,227,1,8,0,1,1,-0.03231367260795596,-0.05169133397198477,4.39667397691324,0,0,0,4,-1,-1,0,-2,4,-2,"",""
23,339634715,0,0,0,0,0,0,0,0,0,10,-2,-1,1000,153,0,68,2,2,0,129,-59,2099,67,0,112,96,1,8,0,1,1,-0.0320902450542622,-0.05205492746992769,4.396675425365275,0,0,0,4,-1,-1,0,-2,3,1,"",""
24,339636085,0,0,0,0,0,0,0,0,0,10,-2,-1,1000,154,0,68,3,2,4,128,-62,2098,55,0,298,68,1,8,0,1,1,-0.03192269490616379,-0.05236584540840445,4.3965811834900475,0,0,0,4,-1,-1,0,-1,3,5,"",""
25,339637569,0,0,0,0,0,0,0,0,0,10,-2,-1,1000,154,0,68,3,1,8,128,-64,2097,0,40,317,20,1,8,0,1,1,-0.03180323028140261,-0.052669608384458215,4.3963745939638805,0,0,0,4,-1,-1,0,-1,2,9,"",""
26,339639052,0,0,0,0,0,0,0,0,0,10,-2,-1,1000,154,0,68,3,1,11,127,-66,2096,7,78,395,0,1,8,0,1,1,-0.0317306533828179,-0.05293045674060008,4.39609043717138,0,0,0,4,-1,-1,0,-1,2,12,"",""
27,339640384,0,0,0,0,0,0,0,0,0,10,-2,-1,1000,154,0,68,3,1,12,127,-67,2094,0,154,446,98,1,8,0,1,1,-0.03168687702182361,-0.05317608731479987,4.395811946859795,0,0,0,4,-1,-1,0,-1,2,13,"",""
28,339641715,0,0,0,0,0,0,0,0,0,10,-2,-1,1000,154,0,68,3,1,12,127,-67,2093,0,113,418,38,1,8,0,1,1,-0.03164489625485084,-0.05340472150144909,4.3955336587020915,0,0,0,4,-1,-1,0,-1,2,13,"",""
29,339643067,0,0,0,0,0,0,0,0,0,10,-2,-1,1000,154,0,68,3,1,10,127,-66,2092,0,149,511,151,1,8,0,1,1,-0.0315850260893372,-0.053619020440510624,4.395298200546715,0,0,0,4,-1,-1,0,-1,2,11,"",""
30,339644429,0,0,0,0,0,0,0,0,0,10,-2,-1,1000,154,0,68,3,1,8,127,-64,2091,0,280,460,203,1,8,0,1,1,-0.0314934502677856,-0.05382074168218932,4.395108561715572,0,0,0,4,-1,-1,0,-1,2,9,"",""
31,339645780,0,0,0,0,0,0,0,0,0,10,-2,-1,1000,154,0,68,2,2,5,128,-61,2091,0,54,432,127,1,8,0,1,1,-0.03137967099314647,-0.05400387395924117,4.394991962646602,0,0,0,4,-1,-1,0,-2,3,6,"",""
32,339647111,0,0,0,0,0,0,0,0,0,10,-2,-1,1000,154,0,68,1,2,2,128,-58,2090,128,198,463,291,1,8,0,1,1,-0.03124716212339491,-0.05417821338905823,4.3949468065645885,0,0,0,4,-1,-1,0,-3,3,3,"",""
33,339648453,0,0,0,0,0,0,0,0,0,10,-2,-1,1000,154,0,68,1,2,-1,126,-55,2089,129,128,340,269,1,8,0,1,1,-0.031075340946515127,-0.05431496388760919,4.394971575193478,0,0,0,4,-1,-1,0,-3,3,0,"",""
34,339649780,0,0,0,0,0,0,0,0,0,10,-2,-1,1000,154,0,68,1,2,-3,125,-52,2087,193,128,461,346,1,8,0,1,1,-0.03086939920824877,-0.05443223496155153,4.395042391930667,0,0,0,4,-1,-1,0,-3,3,-2,"",""
35,339651113,0,0,0,0,0,0,0,0,0,10,-2,-1,1000,154,0,68,1,2,-5,123,-50,2086,191,128,243,388,1,8,0,1,1,-0.030644747979920926,-0.05451672384344298,4.395160078910424,0,0,0,4,-1,-1,0,-3,3,-4,"",""
36,339652471,0,0,0,0,0,0,0,0,0,10,-2,-1,1000,154,0,68,1,2,-6,121,-50,2085,258,128,238,383,1,8,0,1,1,-0.030429968724362395,-0.054569781611110216,4.395303699302001,0,0,0,4,-1,-1,0,-3,3,-5,"",""
37,339653833,0,0,0,0,0,0,0,0,0,10,-2,-1,1000,154,0,68,1,3,-8,119,-52,2084,267,128,232,466,1,8,0,1,1,-0.030249135007769854,-0.05457203995838204,4.395496078605129,0,0,0,4,-1,-1,0,-3,4,-7,"",""
38,339655179,0,0,0,0,0,0,0,0,0,10,-2,-1,1000,154,0,68,2,3,-8,117,-54,2084,321,128,176,415,1,8,0,1,1,-0.03007933152494515,-0.05454814227073031,4.395686213392566,0,0,0,4,-1,-1,0,-2,4,-7,"",""
39,339656518,0,0,0,0,0,0,0,0,0,10,-2,-1,1000,157,0,68,1,2,-8,114,-56,2084,310,128,325,446,1,8,0,1,1,-0.029964231472686533,-0.054510154465833995,4.395874678882606,0,0,0,4,-1,-1,0,-3,3,-7,"",""
40,339657843,0,0,0,0,0,0,0,0,0,10,-2,-1,1000,157,0,68,2,2,-7,109,-58,2084,313,128,190,426,1,8,0,1,1,-0.029856930149706334,-0.054412916994816506,4.396038050515019,0,0,0,4,-1,-1,0,-2,3,-6,"",""
41,339659174,0,0,0,0,0,0,0,0,0,10,-2,-1,1000,157,0,68,2,1,-6,104,-60,2085,332,128,297,302,1,8,0,1,1,-0.029777566983697143,-0.05428199068745483,4.396178241487126,0,0,0,4,-1,-1,0,-2,2,-5,"",""
42,339660571,0,0,0,0,0,0,0,0,0,10,-2,-1,1000,157,0,68,2,1,-2,99,-60,2085,253,128,445,328,1,8,0,1,1,-0.029703234106467975,-0.054095780042079,4.396227756027847,0,0,0,4,-1,-1,0,-2,2,-1,"",""
43,339661926,0,0,0,0,0,0,0,0,0,10,-2,-1,1000,157,0,68,2,0,2,94,-61,2086,211,128,382,220,1,8,0,1,1,-0.029648568504262948,-0.053881970896302395,4.396180400384609,0,0,0,4,-1,-1,0,-2,1,3,"",""
44,339663296,0,0,0,0,0,0,0,0,0,10,-2,-1,1000,157,0,68,2,-1,6,91,-62,2088,190,128,522,200,1,8,0,1,1,-0.029610269818907922,-0.05366412740034356,4.396036087883951,0,0,0,4,-1,-1,0,-2,0,7,"",""
45,339664644,0,0,0,0,0,0,0,0,0,10,-2,-1,1000,157,0,68,2,-1,9,89,-65,2090,128,194,554,214,1,8,0,1,1,-0.02960868368530067,-0.05343114309506655,4.395823485413178,0,0,0,4,-1,-1,0,-2,0,10,"",""
46,339666115,0,0,0,0,0,0,0,0,0,10,-2,-1,1000,157,0,68,2,-1,11,90,-67,2091,128,232,592,201,1,8,0,1,1,-0.02962662145693549,-0.05321834113622432,4.395540109694095,0,0,0,4,-1,-1,0,-2,0,12,"",""
47,339667591,0,0,0,0,0,0,0,0,0,10,-2,-1,1000,157,0,68,2,-1,12,93,-68,2093,128,253,572,178,1,8,0,1,1,-0.02965395439531403,-0.053043777034047904,4.395229997008359,0,0,0,4,-1,-1,0,-2,0,13,"",""
48,339668924,0,0,0,0,0,0,0,0,0,10,-2,-1,1000,157,0,68,2,0,11,95,-67,2096,128,440,652,363,1,8,0,1,1,-0.029670501492623992,-0.05287155871405471,4.394973903174091,0,0,0,4,-1,-1,0,-2,1,12,"",""
49,339670282,0,0,0,0,0,0,0,0,0,10,-2,-1,1000,157,0,68,3,0,8,99,-65,2100,128,281,526,205,1,8,0,1,1,-0.02963720854026915,-0.052745512513346055,4.394784152476628,0,0,0,4,-1,-1,0,-1,1,9,"",""
50,339671639,0,0,0,0,0,0,0,0,0,10,-2,-1,1000,157,0,68,3,1,4,105,-63,2105,128,309,432,253,1,8,0,1,1,-0.029578262912554918,-0.052659581186365614,4.39469004119492,0,0,0,4,-1,-1,0,-1,2,5,"",""
51,339672978,0,0,0,0,0,0,0,0,0,10,-2,-1,1000,157,0,68,3,1,0,112,-60,2109,128,192,332,275,1,8,0,1,1,-0.029486627466523738,-0.05264424841245016,4.394690704352067,0,0,0,4,-1,-1,0,-1,2,1,"",""
52,339674306,0,0,0,0,0,0,0,0,0,10,-2,-1,1000,157,0,68,2,1,-4,120,-58,2111,189,128,353,360,1,8,0,1,1,-0.02939639472871318,-0.052705799650802306,4.394784131331793,0,0,0,4,-1,-1,0,-2,2,-3,"",""
53,339675631,0,0,0,0,0,0,0,0,0,10,-2,-1,1000,157,0,68,2,2,-7,128,-55,2112,245,128,304,445,1,8,0,1,1,-0.029277210530072102,-0.052817101464981676,4.394947428625008,0,0,0,4,-1,-1,0,-2,3,-6,"",""
54,339676967,0,0,0,0,0,0,0,0,0,10,-2,-1,1000,153,111,68,2,2,-9,137,-54,2113,302,128,316,452,1,8,0,1,1,-0.02914924038943509,-0.05300533897110283,4.395158744449961,0,0,0,4,-1,-1,0,-2,3,-8,"",""
55,339678300,0,0,0,0,0,0,0,0,0,10,-2,-1,1000,153,111,68,2,1,-9,146,-55,2114,365,128,286,390,1,8,0,1,1,-0.029033632652390663,-0.05328832590277057,4.395368918333525,0,0,0,4,-1,-1,0,-2,2,-8,"",""
56,339679662,0,0,0,0,0,0,0,0,0,10,-2,-1,1000,153,111,68,2,1,-9,154,-59,2113,369,128,201,412,1,8,0,1,1,-0.02895506586493211,-0.053630790371869144,4.395583719981233,0,0,0,4,-1,-1,0,-2,2,-8,"",""
57,339681037,0,0,0,0,0,0,0,0,0,10,-2,-1,1000,153,111,68,2,0,-7,164,-64,2111,357,128,253,375,1,8,0,1,1,-0.028923665974089973,-0.05406968013056779,4.395751896991291,0,0,0,4,-1,-1,0,-2,1,-6,"",""
58,339682368,0,0,0,0,0,0,0,0,0,10,-2,-1,1000,153,111,68,3,0,-5,172,-69,2108,312,128,253,312,1,8,0,1,1,-0.02891680584487426,-0.05456098497597656,4.395868247724573,0,0,0,4,-1,-1,0,-1,1,-4,"",""
59,339683703,0,0,0,0,0,0,0,0,0,10,-2,-1,1000,153,111,68,3,-1,-3,179,-75,2107,263,128,262,280,1,8,0,1,1,-0.028961395902441275,-0.055115921735536394,4.395937692239715,0,0,0,4,-1,-1,0,-1,0,-2,"",""
60,339685037,0,0,0,0,0,0,0,0,0,10,-2,-1,1000,153,111,68,4,-1,0,182,-82,2105,225,128,366,285,1,8,0,1,1,-0.029042112400109822,-0.055676286384776695,4.395937231048092,0,0,0,4,-1,-1,0,0,0,1,"",""
61,339686364,0,0,0,0,0,0,0,0,0,10,-2,-1,1000,153,111,68,3,-1,2,184,-87,2103,166,128,429,302,1,8,0,1,1,-0.029185376928560262,-0.05623433175063371,4.395890439063032,0,0,0,4,-1,-1,0,-1,0,3,"",""
62,339687696,0,0,0,0,0,0,0,0,0,10,-2,-1,1000,153,111,68,3,-1,4,183,-90,2102,132,128,463,247,1,8,0,1,1,-0.029349494728094942,-0.0567661473441012,4.395796932845628,0,0,0,4,-1,-1,0,-1,0,5,"",""
63,339689058,0,0,0,0,0,0,0,0,0,10,-2,-1,1000,153,111,68,3,-1,6,178,-92,2101,128,148,507,222,1,8,0,1,1,-0.029524683256854905,-0.05724205220449731,4.395653715153842,0,0,0,4,-1,-1,0,-1,0,7,"",""
64,339690409,0,0,0,0,0,0,0,0,0,10,-2,-1,1000,153,111,68,2,-1,7,171,-92,2101,128,214,581,280,1,8,0,1,1,-0.02971864729768638,-0.05764884926313471,4.395488027458003,0,0,0,4,-1,-1,0,-2,0,8,"",""
65,339691748,0,0,0,0,0,0,0,0,0,10,-2,-1,1000,153,111,68,2,0,8,166,-92,2101,128,218,546,223,1,8,0,1,1,-0.02990786309744139,-0.05798178631205002,4.395301094894023,0,0,0,4,-1,-1,0,-2,1,9,"",""
66,339693078,0,0,0,0,0,0,0,0,0,10,-2,-1,1000,153,111,68,1,0,8,164,-94,2100,128,214,600,244,1,8,0,1,1,-0.030129275734697553,-0.0582901384077297,4.395115428374397,0,0,0,4,-1,-1,0,-3,1,9,"",""
67,339694411,0,0,0,0,0,0,0,0,0,10,-2,-1,1000,153,111,68,1,0,7,164,-97,2099,128,264,530,239,1,8,0,1,1,-0.030365086273694823,-0.05859035043625168,4.394952653134309,0,0,0,4,-1,-1,0,-3,1,8,"",""
68,339695884,0,0,0,0,0,0,0,0,0,10,-2,-1,1000,153,111,68,1,1,5,165,-101,2098,128,313,486,283,1,8,0,1,1,-0.03061886336230638,-0.058865103067313816,4.394825047743608,0,0,0,4,-1,-1,0,-3,2,6,"",""
69,339697381,0,0,0,0,0,0,0,0,0,10,-2,-1,1000,153,33,68,1,1,3,168,-103,2096,128,213,390,197,1,8,0,1,1,-0.03087668131664528,-0.05915499017306546,4.39474769935033,0,0,0,4,-1,-1,0,-3,2,4,"",""
70,339698746,0,0,0,0,0,0,0,0,0,10,-2,-1,1000,153,33,68,2,2,-1,173,-104,2095,128,210,279,288,1,8,0,1,1,-0.031107098940451855,-0.05945400117477521,4.394773368560247,0,0,0,4,-1,-1,0,-2,3,0,"",""
71,339700086,0,0,0,0,0,0,0,0,0,10,-2,-1,1000,153,33,68,2,3,-3,177,-104,2093,162,128,287,347,1,8,0,1,1,-0.03132901739565208,-0.059752100195679315,4.394846156528206,0,0,0,4,-1,-1,0,-2,4,-2,"",""
72,339701430,0,0,0,0,0,0,0,0,0,10,-2,-1,1000,153,33,68,2,3,-6,182,-102,2091,235,128,274,391,1,8,0,1,1,-0.03152650510295826,-0.060078457309333116,4.394989628673755,0,0,0,4,-1,-1,0,-2,4,-5,"",""
73,339702759,0,0,0,0,0,0,0,0,0,10,-2,-1,1000,153,33,68,1,3,-8,185,-100,2088,270,128,326,466,1,8,0,1,1,-0.0317256472990743,-0.060419036241303806,4.395177961577582,0,0,0,4,-1,-1,0,-3,4,-7,"",""
74,339704091,0,0,0,0,0,0,0,0,0,10,-2,-1,1000,153,33,68,1,2,-8,186,-100,2086,283,128,347,456,1,8,0,1,1,-0.03191940156915736,-0.060780099207637245,4.395366003322302,0,0,0,4,-1,-1,0,-3,3,-7,"",""
75,339705427,0,0,0,0,0,0,0,0,0,10,-2,-1,1000,153,33,68,1,2,-7,187,-102,2082,314,128,357,375,1,8,0,1,1,-0.032123059343792545,-0.0611386098026529,4.395531299782776,0,0,0,4,-1,-1,0,-3,3,-6,"",""
76,339706794,0,0,0,0,0,0,0,0,0,10,-2,-1,1000,153,33,68,0,1,-4,186,-106,2078,255,128,433,386,1,8,0,1,1,-0.03237529523136112,-0.061502700352537756,4.39562803943558,0,0,0,4,-1,-1,0,-4,2,-3,"",""
77,339708170,0,0,0,0,0,0,0,0,0,10,-2,-1,1000,153,33,68,0,1,-1,186,-112,2074,243,128,419,320,1,8,0,1,1,-0.03266519965176064,-0.061856383969275126,4.395653338133662,0,0,0,4,-1,-1,0,-4,2,0,"",""
78,339709503,0,0,0,0,0,0,0,0,0,10,-2,-1,1000,153,33,68,0,1,1,186,-119,2070,201,128,423,266,1,8,0,1,1,-0.0329965194971731,-0.062201640355877816,4.395631346019602,0,0,0,4,-1,-1,0,-4,2,2,"",""
79,339710829,0,0,0,0,0,0,0,0,0,10,-2,-1,1000,153,33,68,0,1,2,186,-125,2067,130,128,428,248,1,8,0,1,1,-0.033359830413908796,-0.06253854416218567,4.395586364971889,0,0,0,4,-1,-1,0,-4,2,3,"",""
80,339712153,0,0,0,0,0,0,0,0,0,10,-2,-1,1000,153,33,68,1,1,3,187,-129,2064,128,167,379,207,1,8,0,1,1,-0.03371869927155035,-0.06287358387702106,4.395518357577126,0,0,0,4,-1,-1,0,-3,2,4,"",""
81,339713482,0,0,0,0,0,0,0,0,0,10,-2,-1,1000,153,33,64,1,1,2,188,-132,2062,128,169,399,244,1,8,0,1,1,-0.03408629014310422,-0.06320784484671059,4.395473353475699,0,0,0,4,-1,-1,0,-3,2,3,"",""
82,339714826,0,0,0,0,0,0,0,0,0,10,-2,-1,1000,153,33,64,1,1,1,188,-132,2060,128,170,367,277,1,8,0,1,1,-0.03444368061159895,-0.06353515169734521,4.395451326659151,0,0,0,4,-1,-1,0,-3,2,2,"",""
83,339716187,0,0,0,0,0,0,0,0,0,10,-2,-1,1000,153,33,64,1,2,-1,187,-131,2059,131,128,329,273,1,8,0,1,1,-0.034783295544735145,-0.06382671404157912,4.395477408301004,0,0,0,4,-1,-1,0,-3,3,0,"",""
84,339717552,0,0,0,0,0,0,0,0,0,10,-2,-1,1000,154,0,64,1,2,-1,185,-128,2059,146,128,360,327,1,8,0,1,1,-0.035096673041030285,-0.06409894702158754,4.3955035502133,0,0,0,4,-1,-1,0,-3,3,0,"",""
85,339718887,0,0,0,0,0,0,0,0,0,10,-2,-1,1000,154,0,64,1,2,-2,182,-126,2059,178,128,296,297,1,8,0,1,1,-0.03538979213226434,-0.06434852651832586,4.395552459966054,0,0,0,4,-1,-1,0,-3,3,-1,"",""
86,339720212,0,0,0,0,0,0,0,0,0,10,-2,-1,1000,154,0,64,1,2,-2,179,-125,2058,210,128,365,316,1,8,0,1,1,-0.035670513952601984,-0.06457513129998692,4.395601013281466,0,0,0,4,-1,-1,0,-3,3,-1,"",""
87,339721544,0,0,0,0,0,0,0,0,0,10,-2,-1,1000,154,0,64,1,2,-1,176,-125,2058,197,128,353,303,1,8,0,1,1,-0.03594602147452056,-0.06477775828602689,4.395626554226827,0,0,0,4,-1,-1,0,-3,3,0,"",""
88,339722878,0,0,0,0,0,0,0,0,0,10,-2,-1,1000,154,0,64,2,1,0,173,-125,2058,200,128,306,206,1,8,0,1,1,-0.03619367677312505,-0.06498031033402933,4.3956279863456515,0,0,0,4,-1,-1,0,-2,2,1,"",""
89,339724235,0,0,0,0,0,0,0,0,0,10,-2,-1,1000,154,0,64,2,1,0,171,-126,2058,203,128,417,262,1,8,0,1,1,-0.03644035001362339,-0.06516641323218449,4.3956294463640715,0,0,0,4,-1,-1,0,-2,2,1,"",""
90,339725604,0,0,0,0,0,0,0,0,0,10,-2,-1,1000,154,0,64,2,1,0,169,-126,2059,196,128,357,211,1,8,0,1,1,-0.03668058886870687,-0.06533641922807773,4.395630915179661,0,0,0,4,-1,-1,0,-2,2,1,"",""
91,339727083,0,0,0,0,0,0,0,0,0,10,-2,-1,1000,154,0,64,2,0,0,168,-124,2058,199,128,451,280,1,8,0,1,1,-0.03690049801758262,-0.06552096434089495,4.3956314784122155,0,0,0,4,-1,-1,0,-2,1,1,"",""
92,339728546,0,0,0,0,0,0,0,0,0,10,-2,-1,1000,154,0,64,2,0,-1,166,-121,2058,200,128,447,319,1,8,0,1,1,-0.037097538656365746,-0.06569153400917443,4.395657568336742,0,0,0,4,-1,-1,0,-2,1,0,"",""
93,339729900,0,0,0,0,0,0,0,0,0,10,-2,-1,1000,154,0,64,1,0,-2,164,-118,2058,207,128,476,318,1,8,0,1,1,-0.037299207072896134,-0.06584845065359896,4.395705375475737,0,0,0,4,-1,-1,0,-3,1,-1,"",""
94,339731233,0,0,0,0,0,0,0,0,0,10,-2,-1,1000,154,0,64,1,-1,-2,162,-114,2057,203,128,505,327,1,8,0,1,1,-0.03747538508667899,-0.06601468754421794,4.395751521120428,0,0,0,4,-1,-1,0,-3,0,-1,"",""
95,339732580,0,0,0,0,0,0,0,0,0,10,-2,-1,1000,154,0,64,0,0,-2,159,-112,2057,187,128,454,375,1,8,0,1,1,-0.037659857776439376,-0.06613873372831741,4.395798995187268,0,0,0,4,-1,-1,0,-4,1,-1,"",""
96,339733941,0,0,0,0,0,0,0,0,0,10,-2,-1,1000,154,0,64,0,-1,-2,156,-112,2057,128,44,404,258,1,8,0,1,1,-0.037840574448637,-0.0662678530785858,4.395846051136739,0,0,0,4,-1,-1,0,-4,0,-1,"",""
97,339735304,0,0,0,0,0,0,0,0,0,10,-2,-1,1000,154,0,64,0,-1,-2,154,-113,2058,101,44,368,279,1,8,0,1,1,-0.03802269573866095,-0.06638377377762207,4.395893170509957,0,0,0,4,-1,-1,0,-4,0,-1,"",""
98,339736637,0,0,0,0,0,0,0,0,0,10,-2,-1,1000,154,0,64,0,0,-1,152,-114,2059,79,44,284,262,1,8,0,1,1,-0.038207724660351605,-0.06646241410233823,4.3959168465454015,0,0,0,4,-1,-1,0,-4,1,0,"",""
99,339737974,0,0,0,0,0,0,0,0,0,10,-2,-1,1000,154,55,62,0,0,-2,151,-116,2060,74,44,253,258,1,8,0,1,1,-0.038397711198323914,-0.06653486268533795,4.395963975502946,0,0,0,4,-1,-1,0,-4,1,-1,"",""
100,339739305,0,0,0,0,0,0,0,0,0,10,-2,-1,1000,154,55,62,0,1,-2,150,-117,2062,47,44,135,238,1,8,0,1,1,-0.03858864619187147,-0.06657712940887284,4.39601179494273,0,0,0,4,-1,-1,0,-4,2,-1,"",""
101,339740634,0,0,0,0,0,0,0,0,0,10,-2,-1,1000,154,55,62,1,1,-3,150,-116,2063,90,44,194,268,1,8,0,1,1,-0.03874608593550184,-0.06661898358491787,4.396082762659128,0,0,0,4,-1,-1,0,-3,2,-2,"",""
102,339741984,0,0,0,0,0,0,0,0,0,10,-2,-1,1000,154,55,62,1,2,-3,149,-114,2064,87,44,156,283,1,8,0,1,1,-0.03888947050115776,-0.06663090750509554,4.39615574325097,0,0,0,4,-1,-1,0,-3,3,-2,"",""
103,339743343,0,0,0,0,0,0,0,0,0,10,-2,-1,1000,154,55,62,1,2,-3,148,-112,2065,131,44,189,256,1,8,0,1,1,-0.03901949087035378,-0.06663664523437926,4.396229194017344,0,0,0,4,-1,-1,0,-3,3,-2,"",""
104,339744700,0,0,0,0,0,0,0,0,0,10,-2,-1,1000,154,55,62,1,2,-3,147,-109,2066,149,44,273,256,1,8,0,1,1,-0.039131782852767166,-0.06663673239738976,4.396302511216919,0,0,0,4,-1,-1,0,-3,3,-2,"",""
105,339746029,0,0,0,0,0,0,0,0,0,10,-2,-1,1000,154,55,62,1,2,-1,145,-107,2066,123,44,331,243,1,8,0,1,1,-0.03923554129021038,-0.06662578944938445,4.396327847678941,0,0,0,4,-1,-1,0,-3,3,0,"",""
106,339747363,0,0,0,0,0,0,0,0,0,10,-2,-1,1000,154,55,62,1,1,1,142,-106,2065,130,44,420,154,1,8,0,1,1,-0.039335523555593006,-0.06662148781708507,4.3963057230466305,0,0,0,4,-1,-1,0,-3,2,2,"",""
107,339748695,0,0,0,0,0,0,0,0,0,10,-2,-1,1000,154,55,62,1,0,4,138,-107,2065,106,44,459,133,1,8,0,1,1,-0.039443018459110406,-0.06661810282440576,4.396212881287113,0,0,0,4,-1,-1,0,-3,1,5,"",""
108,339750029,0,0,0,0,0,0,0,0,0,10,-2,-1,1000,154,55,62,0,-1,6,135,-109,2065,50,44,490,129,1,8,0,1,1,-0.03958416799545351,-0.06662159225393079,4.3960723618246105,0,0,0,4,-1,-1,0,-4,0,7,"",""
109,339751395,0,0,0,0,0,0,0,0,0,10,-2,-1,1000,154,55,62,0,-1,7,132,-113,2066,44,45,484,72,1,8,0,1,1,-0.03974347635568314,-0.06661005280677484,4.395904621492081,0,0,0,4,-1,-1,0,-4,0,8,"",""
110,339752794,0,0,0,0,0,0,0,0,0,10,-2,-1,1000,154,55,62,0,-2,7,132,-116,2066,44,89,496,106,1,8,0,1,1,-0.039914509593354915,-0.06662336466912228,4.3957318647265655,0,0,0,4,-1,-1,0,-4,-1,8,"",""
111,339754135,0,0,0,0,0,0,0,0,0,10,-2,-1,1000,154,55,62,0,-1,6,133,-118,2068,44,120,470,144,1,8,0,1,1,-0.04008950285610582,-0.06661680381982014,4.395590662718556,0,0,0,4,-1,-1,0,-4,0,7,"",""
112,339755465,0,0,0,0,0,0,0,0,0,10,-2,-1,1000,154,55,62,0,-1,3,135,-119,2070,44,116,409,159,1,8,0,1,1,-0.04026108434752188,-0.06662171264541691,4.395520355362368,0,0,0,4,-1,-1,0,-4,0,4,"",""
113,339756811,0,0,0,0,0,0,0,0,0,10,-2,-1,1000,154,55,62,0,-1,-1,137,-119,2072,44,67,318,200,1,8,0,1,1,-0.04042318609121033,-0.06663923497916148,4.395543283890488,0,0,0,4,-1,-1,0,-4,0,0,"",""
114,339758277,0,0,0,0,0,0,0,0,0,10,-2,-1,1000,154,139,62,0,0,-4,138,-116,2075,63,44,263,299,1,8,0,1,1,-0.04056293815159325,-0.06664023055774473,4.395646087451451,0,0,0,4,-1,-1,0,-4,1,-3,"",""
115,339759760,0,0,0,0,0,0,0,0,0,10,-2,-1,1000,154,139,62,-1,0,-6,140,-114,2078,124,44,312,380,1,8,0,1,1,-0.04071275657540522,-0.06665153686282793,4.39580189023212,0,0,0,4,-1,-1,0,-5,1,-5,"",""
116,339761122,0,0,0,0,0,0,0,0,0,10,-2,-1,1000,154,139,62,-1,1,-8,141,-112,2081,184,44,254,400,1,8,0,1,1,-0.04084613277487246,-0.06664420614164518,4.395993558918314,0,0,0,4,-1,-1,0,-5,2,-7,"",""
117,339762474,0,0,0,0,0,0,0,0,0,10,-2,-1,1000,154,139,62,-1,1,-8,142,-112,2084,218,44,191,393,1,8,0,1,1,-0.0409767029617044,-0.06664057456096915,4.3961838203944135,0,0,0,4,-1,-1,0,-5,2,-7,"",""
118,339763802,0,0,0,0,0,0,0,0,0,10,-2,-1,1000,154,139,61,-1,1,-7,143,-113,2087,217,44,212,366,1,8,0,1,1,-0.04111037729517811,-0.06663976244841147,4.396347506939094,0,0,0,4,-1,-1,0,-5,2,-6,"",""
119,339765129,0,0,0,0,0,0,0,0,0,10,-2,-1,1000,154,139,61,0,0,-6,146,-113,2089,244,44,196,280,1,8,0,1,1,-0.041220177689454324,-0.0666734074154283,4.3964869204987025,0,0,0,4,-1,-1,0,-4,1,-5,"",""
120,339766452,0,0,0,0,0,0,0,0,0,10,-2,-1,1000,154,139,61,1,0,-4,150,-113,2091,167,44,171,276,1,8,0,1,1,-0.04130792032336915,-0.06672145120605376,4.3965796647461275,0,0,0,4,-1,-1,0,-3,1,-3,"",""
121,339767779,0,0,0,0,0,0,0,0,0,10,-2,-1,1000,154,139,61,1,0,-2,155,-113,2092,164,44,293,263,1,8,0,1,1,-0.0413967917357395,-0.06678813708461853,4.396626299858852,0,0,0,4,-1,-1,0,-3,1,-1,"",""
122,339769134,0,0,0,0,0,0,0,0,0,10,-2,-1,1000,154,139,61,1,0,-1,159,-114,2094,128,44,268,187,1,8,0,1,1,-0.04148897021935051,-0.06686936307660953,4.3966502370845015,0,0,0,4,-1,-1,0,-3,1,0,"",""
123,339770493,0,0,0,0,0,0,0,0,0,10,-2,-1,1000,154,139,61,1,0,1,162,-114,2095,44,442,403,266,1,8,0,1,1,-0.04158235850708625,-0.06695979831304706,4.396626736819145,0,0,0,4,-1,-1,0,-3,1,2,"",""
124,339771854,0,0,0,0,0,0,0,0,0,10,-2,-1,1000,154,139,61,1,-1,4,165,-115,2097,92,44,408,135,1,8,0,1,1,-0.04168273175073862,-0.06708143120625816,4.39653085393137,0,0,0,4,-1,-1,0,-3,0,5,"",""
125,339773192,0,0,0,0,0,0,0,0,0,10,-2,-1,1000,154,139,61,1,-1,5,167,-115,2099,49,44,401,96,1,8,0,1,1,-0.04178287642965937,-0.06720776574675275,4.396413200571277,0,0,0,4,-1,-1,0,-3,0,6,"",""
126,339774524,0,0,0,0,0,0,0,0,0,10,-2,-1,1000,154,139,61,1,-1,6,168,-115,2101,44,92,464,157,1,8,0,1,1,-0.041882601039484435,-0.06733476220336332,4.396272785506438,0,0,0,4,-1,-1,0,-3,0,7,"",""
127,339775857,0,0,0,0,0,0,0,0,0,10,-2,-1,1000,154,139,61,1,-1,8,170,-116,2103,44,104,451,106,1,8,0,1,1,-0.04198756492062946,-0.06746563125238515,4.39608566761316,0,0,0,4,-1,-1,0,-3,0,9,"",""
128,339777193,0,0,0,0,0,0,0,0,0,10,-2,-1,1000,154,139,61,1,-1,8,173,-118,2105,128,237,574,246,1,8,0,1,1,-0.04209869234504587,-0.06760629119644794,4.39589813390657,0,0,0,4,-1,-1,0,-3,0,9,"",""
129,339778555,0,0,0,0,0,0,0,0,0,10,-2,-1,1000,149,0,61,1,0,7,177,-120,2108,128,338,530,297,1,8,0,1,1,-0.04221382474460965,-0.06773802360067793,4.395731760309898,0,0,0,4,-1,-1,0,-3,1,8,"",""
130,339779921,0,0,0,0,0,0,0,0,0,10,-2,-1,1000,149,0,61,1,1,5,182,-123,2111,128,298,461,239,1,8,0,1,1,-0.042335457609983904,-0.06786536251535703,4.395613676428739,0,0,0,4,-1,-1,0,-3,2,6,"",""
131,339781255,0,0,0,0,0,0,0,0,0,10,-2,-1,1000,149,0,61,1,2,2,188,-124,2114,128,332,410,335,1,8,0,1,1,-0.04245423803331769,-0.06799432419367886,4.395569309687777,0,0,0,4,-1,-1,0,-3,3,3,"",""
132,339782582,0,0,0,0,0,0,0,0,0,10,-2,-1,1000,149,0,61,2,3,-1,195,-124,2117,128,202,236,272,1,8,0,1,1,-0.04254294594500763,-0.06812830396209471,4.395595748590145,0,0,0,4,-1,-1,0,-2,4,0,"",""
133,339783912,0,0,0,0,0,0,0,0,0,10,-2,-1,1000,149,0,61,2,3,-4,203,-122,2119,166,128,211,312,1,8,0,1,1,-0.04261687058034908,-0.06829372775547722,4.395691976070746,0,0,0,4,-1,-1,0,-2,4,-3,"",""
134,339785257,0,0,0,0,0,0,0,0,0,10,-2,-1,1000,149,0,61,2,4,-7,208,-119,2120,195,128,202,434,1,8,0,1,1,-0.04267186320346087,-0.06845462552553867,4.395860797990311,0,0,0,4,-1,-1,0,-2,5,-6,"",""
135,339786738,0,0,0,0,0,0,0,0,0,10,-2,-1,1000,149,0,61,2,3,-8,212,-116,2120,307,128,194,410,1,8,0,1,1,-0.04270629831048024,-0.06864618981961707,4.396071431983613,0,0,0,4,-1,-1,0,-2,4,-7,"",""
136,339788236,0,0,0,0,0,0,0,0,0,10,-2,-1,1000,149,0,60,2,3,-8,214,-114,2120,292,128,283,485,1,8,0,1,1,-0.04273119535514784,-0.06884144715819067,4.396284474960256,0,0,0,4,-1,-1,0,-2,4,-7,"",""
137,339789590,0,0,0,0,0,0,0,0,0,10,-2,-1,1000,149,0,60,2,3,-6,216,-114,2119,306,128,235,349,1,8,0,1,1,-0.04276501233741064,-0.0690459560240929,4.396429739413919,0,0,0,4,-1,-1,0,-2,4,-5,"",""
138,339790924,0,0,0,0,0,0,0,0,0,10,-2,-1,1000,149,0,60,2,2,-2,217,-115,2117,275,128,291,254,1,8,0,1,1,-0.04280938722685874,-0.06927146272885018,4.39647861520648,0,0,0,4,-1,-1,0,-2,3,-1,"",""
139,339792253,0,0,0,0,0,0,0,0,0,10,-2,-1,1000,149,0,60,2,2,2,218,-117,2115,201,128,392,271,1,8,0,1,1,-0.04286731311154806,-0.06949393486114562,4.3964344144128376,0,0,0,4,-1,-1,0,-2,3,3,"",""
140,339793585,0,0,0,0,0,0,0,0,0,10,-2,-1,1000,149,0,60,3,1,6,220,-120,2113,186,156,389,128,1,8,0,1,1,-0.04291917531410179,-0.06973991455134805,4.396296015863359,0,0,0,4,-1,-1,0,-1,2,7,"",""
141,339794914,0,0,0,0,0,0,0,0,0,10,-2,-1,1000,149,0,60,3,0,8,221,-123,2111,128,134,519,165,1,8,0,1,1,-0.04298500736239148,-0.07000749937699095,4.3961104971604446,0,0,0,4,-1,-1,0,-1,1,9,"",""
142,339796274,0,0,0,0,0,0,0,0,0,10,-2,-1,1000,149,0,60,3,1,9,222,-125,2108,128,294,563,275,1,8,0,1,1,-0.04305784376550897,-0.0702509860931257,4.3958979069262645,0,0,0,4,-1,-1,0,-1,2,10,"",""
143,339797635,0,0,0,0,0,0,0,0,0,10,-2,-1,1000,149,0,60,3,1,9,221,-127,2105,128,211,559,189,1,8,0,1,1,-0.043137247123622637,-0.07048783866208908,4.395685177486541,0,0,0,4,-1,-1,0,-1,2,10,"",""
144,339799076,0,0,0,0,0,0,0,0,0,10,-2,-1,1000,152,89,60,1,1,8,218,-126,2102,128,245,627,286,1,8,0,1,1,-0.043256887964868214,-0.0707100264497026,4.395485099771597,0,0,0,4,-1,-1,0,-3,2,9,"",""
145,339800406,0,0,0,0,0,0,0,0,0,10,-2,-1,1000,152,89,60,1,2,6,213,-124,2099,128,291,547,285,1,8,0,1,1,-0.0433654746315682,-0.07089293813155903,4.395347947570147,0,0,0,4,-1,-1,0,-3,3,7,"",""
146,339801748,0,0,0,0,0,0,0,0,0,10,-2,-1,1000,152,89,60,1,1,4,205,-122,2097,128,133,537,206,1,8,0,1,1,-0.04346217169806495,-0.07106915943252917,4.3952554393876175,0,0,0,4,-1,-1,0,-3,2,5,"",""
147,339803079,0,0,0,0,0,0,0,0,0,10,-2,-1,1000,152,89,60,0,2,2,196,-119,2095,128,204,483,307,1,8,0,1,1,-0.043566713536336725,-0.07118995272095928,4.395211212413864,0,0,0,4,-1,-1,0,-4,3,3,"",""
148,339804413,0,0,0,0,0,0,0,0,0,10,-2,-1,1000,152,89,60,0,2,0,186,-117,2093,138,128,401,246,1,8,0,1,1,-0.04365966850189216,-0.07127526068278733,4.395213512421141,0,0,0,4,-1,-1,0,-4,3,1,"",""
149,339805775,0,0,0,0,0,0,0,0,0,10,-2,-1,1000,152,89,60,0,2,-2,176,-116,2091,184,128,476,308,1,8,0,1,1,-0.04374472905086285,-0.07132497626738075,4.3952634721070485,0,0,0,4,-1,-1,0,-4,3,-1,"",""
150,339807129,0,0,0,0,0,0,0,0,0,10,-2,-1,1000,152,89,60,0,2,-4,167,-115,2090,176,128,338,372,1,8,0,1,1,-0.043821891692636575,-0.07134433122731398,4.39536047564976,0,0,0,4,-1,-1,0,-4,3,-3,"",""
151,339808462,0,0,0,0,0,0,0,0,0,10,-2,-1,1000,152,89,60,0,2,-5,160,-114,2089,247,128,348,371,1,8,0,1,1,-0.04389305425138092,-0.0713403674692939,4.395479276199307,0,0,0,4,-1,-1,0,-4,3,-4,"",""
152,339809793,0,0,0,0,0,0,0,0,0,10,-2,-1,1000,152,89,60,0,2,-7,155,-111,2089,245,128,336,468,1,8,0,1,1,-0.04394936230641156,-0.07132076095489892,4.39564440405593,0,0,0,4,-1,-1,0,-4,3,-6,"",""
153,339811127,0,0,0,0,0,0,0,0,0,10,-2,-1,1000,152,89,60,0,1,-8,151,-108,2088,340,128,240,375,1,8,0,1,1,-0.04399288648228746,-0.07131150808860676,4.3958321662401385,0,0,0,4,-1,-1,0,-4,2,-7,"",""
154,339812459,0,0,0,0,0,0,0,0,0,10,-2,-1,1000,152,89,60,0,1,-9,148,-103,2088,339,128,422,439,1,8,0,1,1,-0.04401669020684937,-0.07129295903312723,4.396042875574944,0,0,0,4,-1,-1,0,-4,2,-8,"",""
155,339813803,0,0,0,0,0,0,0,0,0,10,-2,-1,1000,152,89,60,0,1,-9,144,-98,2086,325,128,310,469,1,8,0,1,1,-0.04402292098907254,-0.07126116768137651,4.396255426786496,0,0,0,4,-1,-1,0,-4,2,-8,"",""
156,339815163,0,0,0,0,0,0,0,0,0,10,-2,-1,1000,152,89,60,0,-1,-6,141,-94,2084,383,128,357,282,1,8,0,1,1,-0.04402049264152867,-0.07126373156764391,4.396397047284694,0,0,0,4,-1,-1,0,-4,0,-5,"",""
157,339816522,0,0,0,0,0,0,0,0,0,10,-2,-1,1000,152,89,60,-1,-1,-4,138,-91,2080,241,128,513,422,1,8,0,1,1,-0.044035260920945625,-0.0712550858088185,4.396491018607875,0,0,0,4,-1,-1,0,-5,0,-3,"",""
158,339817995,0,0,0,0,0,0,0,0,0,10,-2,-1,1000,152,89,60,-1,-1,0,134,-92,2076,239,128,454,316,1,8,0,1,1,-0.04406265541550305,-0.07123188363823882,4.396489888343724,0,0,0,4,-1,-1,0,-5,0,1,"",""
159,339819461,0,0,0,0,0,0,0,0,0,10,-2,-1,1000,154,122,60,-1,-2,4,131,-95,2071,179,128,525,238,1,8,0,1,1,-0.044107993028651905,-0.07122091675651347,4.3963851585686955,0,0,0,4,-1,-1,0,-5,-1,5,"",""
160,339820796,0,0,0,0,0,0,0,0,0,10,-2,-1,1000,154,122,60,0,-1,6,130,-101,2067,128,238,480,244,1,8,0,1,1,-0.04415096553744435,-0.07117857256507888,4.396244210539703,0,0,0,4,-1,-1,0,-4,0,7,"",""
161,339822129,0,0,0,0,0,0,0,0,0,10,-2,-1,1000,154,122,60,0,-1,7,132,-107,2062,128,241,461,160,1,8,0,1,1,-0.044215993791803236,-0.07114360754631555,4.396080234131529,0,0,0,4,-1,-1,0,-4,0,8,"",""
162,339823486,0,0,0,0,0,0,0,0,0,10,-2,-1,1000,154,122,60,0,0,6,134,-112,2057,128,271,510,235,1,8,0,1,1,-0.04429619682419168,-0.07109475973647864,4.395938124233379,0,0,0,4,-1,-1,0,-4,1,7,"",""
163,339824845,0,0,0,0,0,0,0,0,0,10,-2,-1,1000,154,122,60,1,1,5,135,-118,2052,128,367,439,284,1,8,0,1,1,-0.04437087332197179,-0.07102838591858758,4.395820677503926,0,0,0,4,-1,-1,0,-3,2,6,"",""
164,339826188,0,0,0,0,0,0,0,0,0,10,-2,-1,1000,154,122,60,2,1,3,135,-122,2046,138,181,346,128,1,8,0,1,1,-0.04443227613394447,-0.07096641418750535,4.395751614554834,0,0,0,4,-1,-1,0,-2,2,4,"",""
165,339827521,0,0,0,0,0,0,0,0,0,10,-2,-1,1000,154,122,60,2,1,1,134,-126,2041,128,209,357,297,1,8,0,1,1,-0.04450366052314204,-0.0709051271711993,4.395729715412515,0,0,0,4,-1,-1,0,-2,2,2,"",""
166,339828849,0,0,0,0,0,0,0,0,0,10,-2,-1,1000,154,122,60,2,2,-1,129,-130,2037,137,128,278,246,1,8,0,1,1,-0.044584490176686586,-0.07080814752550484,4.395755407207943,0,0,0,4,-1,-1,0,-2,3,0,"",""
167,339830181,0,0,0,0,0,0,0,0,0,10,-2,-1,1000,154,122,60,2,1,-1,122,-134,2034,208,128,385,292,1,8,0,1,1,-0.044677537634010826,-0.07071293795881685,4.395780184280362,0,0,0,4,-1,-1,0,-2,2,0,"",""
168,339831519,0,0,0,0,0,0,0,0,0,10,-2,-1,1000,154,122,60,2,2,-2,113,-138,2032,154,128,313,328,1,8,0,1,1,-0.04478060144482668,-0.07056783252740678,4.39582955113109,0,0,0,4,-1,-1,0,-2,3,-1,"",""
169,339832883,0,0,0,0,0,0,0,0,0,10,-2,-1,1000,154,122,60,2,1,-1,105,-142,2031,219,128,295,193,1,8,0,1,1,-0.04489606522077793,-0.07042036395297523,4.395855005149088,0,0,0,4,-1,-1,0,-2,2,0,"",""
170,339834240,0,0,0,0,0,0,0,0,0,10,-2,-1,1000,154,122,60,2,1,-1,97,-146,2032,184,128,420,346,1,8,0,1,1,-0.04502292069347553,-0.07024873588729236,4.395880374962104,0,0,0,4,-1,-1,0,-2,2,0,"",""
171,339835582,0,0,0,0,0,0,0,0,0,10,-2,-1,1000,154,122,60,2,1,-1,91,-148,2035,179,128,311,257,1,8,0,1,1,-0.04515459492476563,-0.07005941183246396,4.3959054919784215,0,0,0,4,-1,-1,0,-2,2,0,"",""
172,339836907,0,0,0,0,0,0,0,0,0,10,-2,-1,1000,154,122,60,2,0,-1,88,-147,2039,214,128,441,267,1,8,0,1,1,-0.04528147500150559,-0.06988497807700256,4.3959292374283745,0,0,0,4,-1,-1,0,-2,1,0,"",""
173,339838247,0,0,0,0,0,0,0,0,0,10,-2,-1,1000,154,122,60,1,1,-2,83,-143,2043,151,128,421,370,1,8,0,1,1,-0.0454144651194355,-0.06967376798865814,4.395977679338524,0,0,0,4,-1,-1,0,-3,2,-1,"",""
174,339839587,0,0,0,0,0,0,0,0,0,10,-2,-1,1000,154,0,60,1,0,-2,81,-135,2046,235,128,408,309,1,8,0,1,1,-0.04552029284058308,-0.06948119638031144,4.396024967947051,0,0,0,4,-1,-1,0,-3,1,-1,"",""
175,339840933,0,0,0,0,0,0,0,0,0,10,-2,-1,1000,154,0,60,0,0,-2,82,-126,2050,185,128,550,369,1,8,0,1,1,-0.045619263729911055,-0.06929314700434391,4.396072363497758,0,0,0,4,-1,-1,0,-4,1,-1,"",""
176,339842293,0,0,0,0,0,0,0,0,0,10,-2,-1,1000,154,0,60,-1,1,-3,83,-116,2055,156,128,443,403,1,8,0,1,1,-0.045707064584332276,-0.06908687726084911,4.396144991621382,0,0,0,4,-1,-1,0,-5,2,-2,"",""
177,339843647,0,0,0,0,0,0,0,0,0,10,-2,-1,1000,154,0,60,0,0,-2,87,-105,2060,247,128,430,313,1,8,0,1,1,-0.04573727118552759,-0.06891669066624422,4.396192434499476,0,0,0,4,-1,-1,0,-4,1,-1,"",""
178,339845051,0,0,0,0,0,0,0,0,0,10,-2,-1,1000,154,0,60,-1,1,-1,92,-98,2063,137,128,418,365,1,8,0,1,1,-0.045770917452924255,-0.06873786663472696,4.396218134916834,0,0,0,4,-1,-1,0,-5,2,0,"",""
179,339846395,0,0,0,0,0,0,0,0,0,10,-2,-1,1000,154,0,60,0,1,-1,100,-92,2065,152,128,307,273,1,8,0,1,1,-0.04576129985106872,-0.06858604327417957,4.396242674148232,0,0,0,4,-1,-1,0,-4,2,0,"",""
180,339847869,0,0,0,0,0,0,0,0,0,10,-2,-1,1000,154,0,60,0,1,0,110,-88,2066,128,140,278,281,1,8,0,1,1,-0.04574099482966266,-0.06846278601210504,4.396243786246003,0,0,0,4,-1,-1,0,-4,2,1,"",""
181,339849337,0,0,0,0,0,0,0,0,0,10,-2,-1,1000,154,0,60,1,2,0,121,-86,2066,128,142,256,265,1,8,0,1,1,-0.04568928087029777,-0.06834883200099695,4.396246044503268,0,0,0,4,-1,-1,0,-3,3,1,"",""
182,339850698,0,0,0,0,0,0,0,0,0,10,-2,-1,1000,154,0,60,1,2,-1,131,-85,2066,147,128,309,288,1,8,0,1,1,-0.045635234141873704,-0.06827088648448208,4.396271902998491,0,0,0,4,-1,-1,0,-3,3,0,"",""
183,339852096,0,0,0,0,0,0,0,0,0,10,-2,-1,1000,154,0,60,1,2,-1,140,-84,2066,128,128,304,319,1,8,0,1,1,-0.04557795073399891,-0.06821939153666261,4.396298453567365,0,0,0,4,-1,-1,0,-3,3,0,"",""
184,339853429,0,0,0,0,0,0,0,0,0,10,-2,-1,1000,154,0,60,1,2,-1,147,-83,2064,216,128,365,254,1,8,0,1,1,-0.045519647617204576,-0.06819180543684326,4.396323752107815,0,0,0,4,-1,-1,0,-3,3,0,"",""
185,339854767,0,0,0,0,0,0,0,0,0,10,-2,-1,1000,154,0,60,0,1,0,150,-83,2062,189,128,513,292,1,8,0,1,1,-0.04548689831520758,-0.06819561306913323,4.396324698059535,0,0,0,4,-1,-1,0,-4,2,1,"",""
186,339856105,0,0,0,0,0,0,0,0,0,10,-2,-1,1000,154,0,60,0,2,1,150,-84,2060,131,128,486,306,1,8,0,1,1,-0.04545925594349074,-0.06817543048308206,4.396303336562624,0,0,0,4,-1,-1,0,-4,3,2,"",""
187,339857549,0,0,0,0,0,0,0,0,0,10,-2,-1,1000,154,0,60,0,0,3,148,-85,2059,218,128,504,178,1,8,0,1,1,-0.045438698337134986,-0.06819354585022944,4.396227535921432,0,0,0,4,-1,-1,0,-4,1,4,"",""
188,339858901,0,0,0,0,0,0,0,0,0,10,-2,-1,1000,151,50,60,-1,0,4,144,-87,2058,151,128,613,234,1,8,0,1,1,-0.04544914371528661,-0.06819902849783958,4.396132953813703,0,0,0,4,-1,-1,0,-5,1,5,"",""
189,339860258,0,0,0,0,0,0,0,0,0,10,-2,-1,1000,151,50,60,-1,0,4,139,-91,2057,128,160,558,250,1,8,0,1,1,-0.04547160806670075,-0.0681899453473287,4.396038066533682,0,0,0,4,-1,-1,0,-5,1,5,"",""
190,339861607,0,0,0,0,0,0,0,0,0,10,-2,-1,1000,151,50,60,-1,-1,4,136,-97,2056,148,128,506,132,1,8,0,1,1,-0.04551155125761546,-0.06819574051328674,4.3959427303743075,0,0,0,4,-1,-1,0,-5,0,5,"",""
191,339862946,0,0,0,0,0,0,0,0,0,10,-2,-1,1000,151,50,60,-1,0,2,132,-103,2054,128,192,498,271,1,8,0,1,1,-0.04556548616158044,-0.06816905762613076,4.395896031900169,0,0,0,4,-1,-1,0,-5,1,3,"",""
192,339864278,0,0,0,0,0,0,0,0,0,10,-2,-1,1000,151,50,60,0,0,0,128,-106,2054,128,145,367,242,1,8,0,1,1,-0.045601279820275294,-0.06813317051245117,4.395896165126359,0,0,0,4,-1,-1,0,-4,1,1,"",""
193,339865610,0,0,0,0,0,0,0,0,0,10,-2,-1,1000,151,50,60,0,0,-3,122,-109,2055,196,128,444,347,1,8,0,1,1,-0.045640511210505705,-0.06808332609097,4.395966161707585,0,0,0,4,-1,-1,0,-4,1,-2,"",""
194,339866945,0,0,0,0,0,0,0,0,0,10,-2,-1,1000,151,50,60,0,1,-6,114,-109,2057,194,128,295,419,1,8,0,1,1,-0.045674250216648525,-0.06799073679704724,4.396107368759344,0,0,0,4,-1,-1,0,-4,2,-5,"",""
195,339868301,0,0,0,0,0,0,0,0,0,10,-2,-1,1000,151,50,60,0,1,-8,106,-108,2060,293,128,266,431,1,8,0,1,1,-0.045701013657506215,-0.06787751017038617,4.39629817410363,0,0,0,4,-1,-1,0,-4,2,-7,"",""
196,339869658,0,0,0,0,0,0,0,0,0,10,-2,-1,1000,151,50,60,-1,1,-9,96,-107,2063,285,128,384,524,1,8,0,1,1,-0.04574616754491402,-0.06773746452733044,4.39651281852275,0,0,0,4,-1,-1,0,-5,2,-8,"",""
197,339871009,0,0,0,0,0,0,0,0,0,10,-2,-1,1000,151,50,60,0,1,-9,86,-107,2066,320,128,189,471,1,8,0,1,1,-0.0457670632100308,-0.06756997620762747,4.39672650834657,0,0,0,4,-1,-1,0,-4,2,-8,"",""
198,339872349,0,0,0,0,0,0,0,0,0,10,-2,-1,1000,151,50,60,0,1,-6,78,-107,2070,339,128,275,382,1,8,0,1,1,-0.04579203661904689,-0.06737774223478898,4.396868203573747,0,0,0,4,-1,-1,0,-4,2,-5,"",""
199,339873683,0,0,0,0,0,0,0,0,0,10,-2,-1,1000,151,50,60,1,1,-4,72,-109,2074,246,128,306,408,1,8,0,1,1,-0.045801875745262656,-0.06716771655116703,4.396962658323851,0,0,0,4,-1,-1,0,-3,2,-3,"",""
200,339875032,0,0,0,0,0,0,0,0,0,10,-2,-1,1000,151,50,60,2,0,-1,69,-109,2078,240,128,235,187,1,8,0,1,1,-0.045792049420765375,-0.06697053542074693,4.396986370753098,0,0,0,4,-1,-1,0,-2,1,0,"",""
201,339876509,0,0,0,0,0,0,0,0,0,10,-2,-1,1000,151,50,60,2,0,2,71,-109,2082,194,128,441,277,1,8,0,1,1,-0.04578217232036209,-0.06677672559765595,4.396934890079349,0,0,0,4,-1,-1,0,-2,1,3,"",""
202,339878015,0,0,0,0,0,0,0,0,0,10,-2,-1,1000,151,50,60,2,0,4,74,-106,2086,128,138,402,177,1,8,0,1,1,-0.04576588796145681,-0.06658999182059717,4.39682973290494,0,0,0,4,-1,-1,0,-2,1,5,"",""
203,339879365,0,0,0,0,0,0,0,0,0,10,-2,-1,1000,155,0,60,2,-1,6,79,-101,2089,137,128,552,214,1,8,0,1,1,-0.04574322450061301,-0.06644012811130418,4.396687169775055,0,0,0,4,-1,-1,0,-2,0,7,"",""
204,339880696,0,0,0,0,0,0,0,0,0,10,-2,-1,1000,155,0,60,1,-1,7,85,-97,2090,128,172,634,268,1,8,0,1,1,-0.04573461422911493,-0.06630685442884292,4.396523317529671,0,0,0,4,-1,-1,0,-3,0,8,"",""
205,339882043,0,0,0,0,0,0,0,0,0,10,-2,-1,1000,155,0,60,0,-1,8,90,-91,2091,128,182,626,226,1,8,0,1,1,-0.04573419517234757,-0.06618762203152552,4.396333899390743,0,0,0,4,-1,-1,0,-4,0,9,"",""
206,339883375,0,0,0,0,0,0,0,0,0,10,-2,-1,1000,155,0,60,-1,-1,8,95,-88,2091,128,165,737,242,1,8,0,1,1,-0.0457485816885086,-0.06608309861670965,4.396146562042257,0,0,0,4,-1,-1,0,-5,0,9,"",""
207,339884708,0,0,0,0,0,0,0,0,0,10,-2,-1,1000,155,0,60,-1,-1,8,99,-87,2090,128,245,640,254,1,8,0,1,1,-0.04576038066714215,-0.06599070528547997,4.3959590770175385,0,0,0,4,-1,-1,0,-5,0,9,"",""
208,339886054,0,0,0,0,0,0,0,0,0,10,-2,-1,1000,155,0,60,-1,-1,7,102,-89,2088,128,183,582,174,1,8,0,1,1,-0.04577666747743511,-0.06590892639292087,4.395793306266862,0,0,0,4,-1,-1,0,-5,0,8,"",""
209,339887412,0,0,0,0,0,0,0,0,0,10,-2,-1,1000,155,0,60,-2,0,5,104,-94,2087,128,277,578,302,1,8,0,1,1,-0.04582724250233546,-0.06581227209198187,4.395674653279389,0,0,0,4,-1,-1,0,-6,1,6,"",""
210,339888762,0,0,0,0,0,0,0,0,0,10,-2,-1,1000,155,0,60,-1,0,3,105,-99,2086,128,216,432,202,1,8,0,1,1,-0.045864279628799735,-0.06572151733657862,4.395603926491292,0,0,0,4,-1,-1,0,-5,1,4,"",""
211,339890091,0,0,0,0,0,0,0,0,0,10,-2,-1,1000,155,0,60,-1,1,0,105,-104,2085,128,181,382,288,1,8,0,1,1,-0.04590953655566962,-0.06561193100643702,4.39560508032324,0,0,0,4,-1,-1,0,-5,2,1,"",""
212,339891440,0,0,0,0,0,0,0,0,0,10,-2,-1,1000,155,0,60,-1,2,-3,105,-108,2085,128,170,328,380,1,8,0,1,1,-0.04596080107374299,-0.06548275146223254,4.395678085044578,0,0,0,4,-1,-1,0,-5,3,-2,"",""
213,339892773,0,0,0,0,0,0,0,0,0,10,-2,-1,1000,155,0,60,0,2,-7,103,-109,2087,229,128,189,358,1,8,0,1,1,-0.04598466169058156,-0.06535373549681572,4.395843396841747,0,0,0,4,-1,-1,0,-4,3,-6,"",""
214,339894101,0,0,0,0,0,0,0,0,0,10,-2,-1,1000,155,0,60,-1,2,-9,100,-109,2088,256,128,370,547,1,8,0,1,1,-0.046028232097519176,-0.0652199620541431,4.396054493630694,0,0,0,4,-1,-1,0,-5,3,-8,"",""
215,339895463,0,0,0,0,0,0,0,0,0,10,-2,-1,1000,155,0,60,-1,2,-10,95,-109,2090,314,128,228,519,1,8,0,1,1,-0.04606991352196474,-0.06507397005321675,4.396294785512171,0,0,0,4,-1,-1,0,-5,3,-9,"",""
216,339896822,0,0,0,0,0,0,0,0,0,10,-2,-1,1000,155,0,60,0,2,-9,91,-110,2092,391,128,245,362,1,8,0,1,1,-0.0460915853791158,-0.06491737104596516,4.396510810723257,0,0,0,4,-1,-1,0,-4,3,-8,"",""
217,339898164,0,0,0,0,0,0,0,0,0,10,-2,-1,1000,155,0,60,0,2,-6,86,-113,2094,288,128,332,462,1,8,0,1,1,-0.04612535751114497,-0.06474592674869876,4.396653822752462,0,0,0,4,-1,-1,0,-4,3,-5,"",""
218,339899505,0,0,0,0,0,0,0,0,0,10,-2,-1,1000,157,117,60,0,1,-2,81,-117,2097,288,128,298,260,1,8,0,1,1,-0.046174977941119445,-0.0645813774637829,4.396701969514248,0,0,0,4,-1,-1,0,-4,2,-1,"",""
219,339900829,0,0,0,0,0,0,0,0,0,10,-2,-1,1000,157,117,60,0,0,1,78,-122,2100,221,128,482,252,1,8,0,1,1,-0.04624132607119738,-0.06443000412357024,4.396679093425078,0,0,0,4,-1,-1,0,-4,1,2,"",""
220,339902173,0,0,0,0,0,0,0,0,0,10,-2,-1,1000,157,117,60,1,0,5,77,-125,2104,128,183,382,202,1,8,0,1,1,-0.046297055794859474,-0.06427242670082996,4.396561973135699,0,0,0,4,-1,-1,0,-3,1,6,"",""
221,339903510,0,0,0,0,0,0,0,0,0,10,-2,-1,1000,157,117,60,1,-1,7,80,-126,2108,214,191,540,128,1,8,0,1,1,-0.046357432373947884,-0.0641443813694879,4.3963976738592985,0,0,0,4,-1,-1,0,-3,0,8,"",""
222,339904870,0,0,0,0,0,0,0,0,0,10,-2,-1,1000,157,117,60,1,0,8,84,-125,2111,128,246,585,262,1,8,0,1,1,-0.046415479109850055,-0.06400291465853937,4.396207873933509,0,0,0,4,-1,-1,0,-3,1,9,"",""
223,339906246,0,0,0,0,0,0,0,0,0,10,-2,-1,1000,157,117,60,1,0,8,90,-121,2113,128,324,512,218,1,8,0,1,1,-0.04646231262193505,-0.06387760992245836,4.396015797897422,0,0,0,4,-1,-1,0,-3,1,9,"",""
224,339907720,0,0,0,0,0,0,0,0,0,10,-2,-1,1000,157,117,60,2,0,7,96,-117,2115,128,173,538,155,1,8,0,1,1,-0.046470160815738536,-0.06376892586506483,4.395835736254477,0,0,0,4,-1,-1,0,-2,1,8,"",""
225,339909187,0,0,0,0,0,0,0,0,0,10,-2,-1,1000,157,117,60,1,0,5,103,-115,2117,128,262,501,269,1,8,0,1,1,-0.046494858908830934,-0.06368101850424027,4.395707766629547,0,0,0,4,-1,-1,0,-3,1,6,"",""
226,339910523,0,0,0,0,0,0,0,0,0,10,-2,-1,1000,157,117,60,2,1,3,109,-115,2117,128,202,393,187,1,8,0,1,1,-0.046494589398633254,-0.06358853962658062,4.395639004925975,0,0,0,4,-1,-1,0,-2,2,4,"",""
227,339911853,0,0,0,0,0,0,0,0,0,10,-2,-1,1000,157,117,60,2,1,1,115,-116,2117,128,153,398,242,1,8,0,1,1,-0.04649393393336458,-0.0635141368154889,4.395617032560676,0,0,0,4,-1,-1,0,-2,2,2,"",""
228,339913204,0,0,0,0,0,0,0,0,0,10,-2,-1,1000,157,117,60,2,1,-1,120,-120,2117,128,155,272,277,1,8,0,1,1,-0.046499479254795424,-0.06345460479454318,4.3956419539766545,0,0,0,4,-1,-1,0,-2,2,0,"",""
229,339914564,0,0,0,0,0,0,0,0,0,10,-2,-1,1000,157,117,60,3,2,-3,125,-124,2116,171,128,215,261,1,8,0,1,1,-0.04648792851037846,-0.06338658767053967,4.395715703379098,0,0,0,4,-1,-1,0,-1,3,-2,"",""
230,339915913,0,0,0,0,0,0,0,0,0,10,-2,-1,1000,157,117,60,3,2,-4,131,-128,2115,174,128,197,352,1,8,0,1,1,-0.046485427351291624,-0.0633355046188287,4.395812467158541,0,0,0,4,-1,-1,0,-1,3,-3,"",""
231,339917248,0,0,0,0,0,0,0,0,0,10,-2,-1,1000,157,117,60,3,2,-6,137,-130,2115,273,128,182,292,1,8,0,1,1,-0.04648550272619132,-0.06330216201364908,4.3959548952473595,0,0,0,4,-1,-1,0,-1,3,-5,"",""
232,339918577,0,0,0,0,0,0,0,0,0,10,-2,-1,1000,157,117,60,3,2,-7,141,-130,2113,285,128,312,435,1,8,0,1,1,-0.04648442139206167,-0.06328040658390732,4.396119904004945,0,0,0,4,-1,-1,0,-1,3,-6,"",""
233,339919904,0,0,0,0,0,0,0,0,0,10,-2,-1,1000,154,0,60,3,2,-7,144,-130,2112,278,128,256,472,1,8,0,1,1,-0.046483301889354595,-0.0632662968406771,4.396284667142573,0,0,0,4,-1,-1,0,-1,3,-6,"",""
234,339921234,0,0,0,0,0,0,0,0,0,10,-2,-1,1000,154,0,60,3,1,-6,145,-130,2110,323,128,346,284,1,8,0,1,1,-0.046483485098223615,-0.06327684297428275,4.396425489856321,0,0,0,4,-1,-1,0,-1,2,-5,"",""
235,339922593,0,0,0,0,0,0,0,0,0,10,-2,-1,1000,154,0,60,2,1,-4,143,-132,2108,242,128,465,399,1,8,0,1,1,-0.04651339443760233,-0.06328009823717169,4.396521916379607,0,0,0,4,-1,-1,0,-2,2,-3,"",""
236,339923955,0,0,0,0,0,0,0,0,0,10,-2,-1,1000,154,0,60,2,0,0,139,-134,2107,231,128,432,304,1,8,0,1,1,-0.046553790081629264,-0.06329285200887264,4.396522295358765,0,0,0,4,-1,-1,0,-2,1,1,"",""
237,339925292,0,0,0,0,0,0,0,0,0,10,-2,-1,1000,154,0,60,2,-1,3,134,-136,2107,234,128,517,203,1,8,0,1,1,-0.04660388416591903,-0.06331330641804034,4.396451534194418,0,0,0,4,-1,-1,0,-2,0,4,"",""
238,339926626,0,0,0,0,0,0,0,0,0,10,-2,-1,1000,154,0,60,1,-1,6,130,-136,2107,128,175,540,261,1,8,0,1,1,-0.046681063201498556,-0.06332070025410218,4.396311014170032,0,0,0,4,-1,-1,0,-3,0,7,"",""
239,339927969,0,0,0,0,0,0,0,0,0,10,-2,-1,1000,154,0,60,2,-1,8,128,-136,2107,145,197,500,128,1,8,0,1,1,-0.04673707212148011,-0.06332120118875037,4.396122616177995,0,0,0,4,-1,-1,0,-2,0,9,"",""
240,339929300,0,0,0,0,0,0,0,0,0,10,-2,-1,1000,154,0,60,1,-1,9,127,-134,2108,128,228,581,226,1,8,0,1,1,-0.04681244372537497,-0.06331798478290418,4.3959126273541385,0,0,0,4,-1,-1,0,-3,0,10,"",""
241,339930640,0,0,0,0,0,0,0,0,0,10,-2,-1,1000,154,0,60,1,0,7,126,-130,2111,128,425,597,374,1,8,0,1,1,-0.046874119383942384,-0.06329103156466383,4.395749084913132,0,0,0,4,-1,-1,0,-3,1,8,"",""
242,339932002,0,0,0,0,0,0,0,0,0,10,-2,-1,1000,154,0,60,1,1,5,128,-125,2114,128,236,485,221,1,8,0,1,1,-0.046919652522376884,-0.06324708651209264,4.395631501622829,0,0,0,4,-1,-1,0,-3,2,6,"",""
243,339933384,0,0,0,0,0,0,0,0,0,10,-2,-1,1000,154,0,60,0,2,3,131,-119,2115,128,255,464,296,1,8,0,1,1,-0.04697098346319441,-0.06318827553810429,4.3955615461473085,0,0,0,4,-1,-1,0,-4,3,4,"",""
244,339934722,0,0,0,0,0,0,0,0,0,10,-2,-1,1000,154,0,60,0,2,-1,135,-112,2116,128,181,346,299,1,8,0,1,1,-0.04699914844481575,-0.06314515083373165,4.395587247074812,0,0,0,4,-1,-1,0,-4,3,0,"",""
245,339936066,0,0,0,0,0,0,0,0,0,10,-2,-1,1000,154,0,60,0,2,-2,140,-106,2116,181,128,443,335,1,8,0,1,1,-0.047011392080798284,-0.06311497013868946,4.39563647873792,0,0,0,4,-1,-1,0,-4,3,-1,"",""
246,339937564,0,0,0,0,0,0,0,0,0,10,-2,-1,1000,154,0,60,0,3,-4,143,-101,2116,178,128,374,396,1,8,0,1,1,-0.0470080209288804,-0.06306335152150638,4.395744859022443,0,0,0,4,-1,-1,0,-4,4,-3,"",""
247,339939035,0,0,0,0,0,0,0,0,0,10,-2,-1,1000,154,0,60,0,2,-4,148,-98,2115,250,128,340,341,1,8,0,1,1,-0.04699791360545834,-0.06305064174182982,4.3958500451576645,0,0,0,4,-1,-1,0,-4,3,-3,"",""
248,339940393,0,0,0,0,0,0,0,0,0,10,-2,-1,1000,155,0,60,0,2,-4,155,-95,2114,245,128,402,349,1,8,0,1,1,-0.0469814558775476,-0.06305795756353737,4.395947117241623,0,0,0,4,-1,-1,0,-4,3,-3,"",""
249,339941776,0,0,0,0,0,0,0,0,0,10,-2,-1,1000,155,0,60,0,2,-4,164,-91,2111,227,128,309,354,1,8,0,1,1,-0.046955988272128,-0.06308571190575363,4.396045934648036,0,0,0,4,-1,-1,0,-4,3,-3,"",""
250,339943118,0,0,0,0,0,0,0,0,0,10,-2,-1,1000,155,0,60,0,1,-3,176,-87,2108,254,128,417,315,1,8,0,1,1,-0.04692344343462704,-0.06316489101804403,4.396117232675826,0,0,0,4,-1,-1,0,-4,2,-2,"",""
251,339944452,0,0,0,0,0,0,0,0,0,10,-2,-1,1000,155,0,60,0,1,-3,188,-84,2105,215,128,436,375,1,8,0,1,1,-0.046884535720362094,-0.06327169935277772,4.39618807412887,0,0,0,4,-1,-1,0,-4,2,-2,"",""
252,339945789,0,0,0,0,0,0,0,0,0,10,-2,-1,1000,155,0,60,0,0,-3,202,-81,2101,278,128,375,245,1,8,0,1,1,-0.04683947330290082,-0.06343361660707036,4.39625795048104,0,0,0,4,-1,-1,0,-4,1,-2,"",""
253,339947116,0,0,0,0,0,0,0,0,0,10,-2,-1,1000,155,0,60,0,0,-3,214,-78,2096,224,128,535,313,1,8,0,1,1,-0.046788404187857326,-0.06362254756597358,4.396327276088648,0,0,0,4,-1,-1,0,-4,1,-2,"",""
254,339948450,0,0,0,0,0,0,0,0,0,10,-2,-1,1000,155,0,60,-1,-1,-2,223,-78,2092,218,128,479,355,1,8,0,1,1,-0.04676283603809882,-0.06385325831795834,4.396372578368563,0,0,0,4,-1,-1,0,-5,0,-1,"",""
255,339949811,0,0,0,0,0,0,0,0,0,10,-2,-1,1000,155,0,60,0,-2,-1,230,-80,2087,255,128,498,206,1,8,0,1,1,-0.04672099332690799,-0.06412193737199931,4.39639394240715,0,0,0,4,-1,-1,0,-4,-1,0,"",""
256,339951174,0,0,0,0,0,0,0,0,0,10,-2,-1,1013,155,0,60,-1,-2,0,233,-84,2082,128,88,480,298,1,8,0,1,1,-0.046714333266934,-0.06439514192367789,4.396391574211813,0,0,0,4,-1,-1,0,-5,-1,1,"",""
257,339952515,0,0,0,0,0,0,0,0,0,10,-2,-1,1013,155,0,60,0,-2,1,234,-89,2078,119,88,337,207,1,8,0,1,1,-0.04669743359331247,-0.06466731592955301,4.396365870543509,0,0,0,4,-1,-1,0,-4,-1,2,"",""
258,339953842,0,0,0,0,0,0,0,0,0,10,-2,-1,1013,155,0,60,0,-2,1,233,-94,2076,126,88,442,242,1,8,0,1,1,-0.046692222460080916,-0.06493502406927956,4.396340487204811,0,0,0,4,-1,-1,0,-4,-1,2,"",""
259,339955180,0,0,0,0,0,0,0,0,0,10,-2,-1,1013,155,0,60,0,-1,0,230,-99,2074,88,150,280,254,1,8,0,1,1,-0.04669702265417184,-0.0651725191302525,4.396339413699499,0,0,0,4,-1,-1,0,-4,0,1,"",""
260,339956512,0,0,0,0,0,0,0,0,0,10,-2,-1,1013,155,0,60,1,0,-1,228,-103,2074,88,91,202,188,1,8,0,1,1,-0.04668609313141978,-0.06538158159782385,4.396362745057388,0,0,0,4,-1,-1,0,-3,1,0,"",""
261,339957864,0,0,0,0,0,0,0,0,0,10,-2,-1,1013,155,0,60,1,0,-2,229,-106,2073,118,88,282,300,1,8,0,1,1,-0.04668011520349957,-0.0655925134661707,4.396410078879662,0,0,0,4,-1,-1,0,-3,1,-1,"",""
262,339959225,0,0,0,0,0,0,0,0,0,10,-2,-1,1013,155,0,60,1,1,-5,230,-107,2073,104,88,144,308,1,8,0,1,1,-0.046671434889100076,-0.06578376356723112,4.396530187674995,0,0,0,4,-1,-1,0,-3,2,-4,"",""
263,339960574,0,0,0,0,0,0,0,0,0,10,-2,-1,1022,155,0,60,1,1,-5,232,-107,2072,214,88,304,350,1,8,0,1,1,-0.0466630855421423,-0.0659782570163925,4.396649242259236,0,0,0,4,-1,-1,0,-3,2,-4,"",""
264,339961904,0,0,0,0,0,0,0,0,0,10,-2,-1,1022,155,0,60,1,1,-4,235,-109,2070,198,88,318,360,1,8,0,1,1,-0.04666131480143891,-0.06617733403239362,4.396743407379896,0,0,0,4,-1,-1,0,-3,2,-3,"",""
265,339963233,0,0,0,0,0,0,0,0,0,10,-2,-1,1022,155,0,60,1,1,-3,238,-111,2068,201,88,266,298,1,8,0,1,1,-0.04666565509140179,-0.06638070755658251,4.396814304357717,0,0,0,4,-1,-1,0,-3,2,-2,"",""
266,339964562,0,0,0,0,0,0,0,0,0,10,-2,-1,1022,155,0,60,1,0,0,242,-115,2065,189,88,412,255,1,8,0,1,1,-0.04668371188278909,-0.06661156855654841,4.3968144954431425,0,0,0,4,-1,-1,0,-3,1,1,"",""
267,339965902,0,0,0,0,0,0,0,0,0,10,-2,-1,1022,155,0,60,2,0,3,247,-119,2061,145,88,375,146,1,8,0,1,1,-0.04669200038309989,-0.066849010285313,4.396744485152633,0,0,0,4,-1,-1,0,-2,1,4,"",""
268,339967396,0,0,0,0,0,0,0,0,0,10,-2,-1,1022,155,0,60,2,-1,5,253,-124,2056,125,88,452,146,1,8,0,1,1,-0.04671039561301935,-0.06712167739380201,4.396613019883976,0,0,0,4,-1,-1,0,-2,0,6,"",""
269,339968900,0,0,0,0,0,0,0,0,0,10,-2,-1,1022,155,0,60,2,-1,6,261,-129,2052,88,139,430,140,1,8,0,1,1,-0.04674142947611256,-0.06740935902584044,4.396454435241294,0,0,0,4,-1,-1,0,-2,0,7,"",""
270,339970237,0,0,0,0,0,0,0,0,0,10,-2,-1,1022,155,0,60,2,-1,7,270,-133,2047,88,135,440,102,1,8,0,1,1,-0.04678762398714082,-0.06771215229640584,4.3962901644578976,0,0,0,4,-1,-1,0,-2,0,8,"",""
271,339971566,0,0,0,0,0,0,0,0,0,10,-2,-1,1022,155,0,60,2,-1,6,280,-137,2042,88,161,510,205,1,8,0,1,1,-0.04684132785336435,-0.06803622541123551,4.396150132311358,0,0,0,4,-1,-1,0,-2,0,7,"",""
272,339972892,0,0,0,0,0,0,0,0,0,10,-2,-1,1022,155,0,60,2,0,4,288,-142,2037,88,219,416,236,1,8,0,1,1,-0.04690285764872035,-0.06835514786471744,4.396057887428537,0,0,0,4,-1,-1,0,-2,1,5,"",""
273,339974220,0,0,0,0,0,0,0,0,0,10,-2,-1,1022,155,0,60,1,0,3,296,-148,2032,92,88,466,201,1,8,0,1,1,-0.04699884471484136,-0.06869082742208092,4.395988763152193,0,0,0,4,-1,-1,0,-3,1,4,"",""
274,339975562,0,0,0,0,0,0,0,0,0,10,-2,-1,1022,155,0,60,0,1,1,301,-154,2028,88,179,481,364,1,8,0,1,1,-0.04712736818016558,-0.0690142761635442,4.395966968329439,0,0,0,4,-1,-1,0,-4,2,2,"",""
275,339976925,0,0,0,0,0,0,0,0,0,10,-2,-1,1022,155,0,60,0,1,-1,303,-159,2024,88,108,341,272,1,8,0,1,1,-0.04726295189905646,-0.06934204706841014,4.395992514365393,0,0,0,4,-1,-1,0,-4,2,0,"",""
276,339978283,0,0,0,0,0,0,0,0,0,10,-2,-1,1034,155,0,60,-1,1,-1,303,-166,2020,127,88,409,295,1,8,0,1,1,-0.047436656802677425,-0.06966804833336031,4.396018041928596,0,0,0,4,-1,-1,0,-5,2,0,"",""
277,339979612,0,0,0,0,0,0,0,0,0,10,-2,-1,1034,155,0,60,-1,2,-1,301,-173,2017,88,97,334,309,1,8,0,1,1,-0.0476239931551617,-0.06996520420506161,4.396044218546389,0,0,0,4,-1,-1,0,-5,3,0,"",""
278,339980944,0,0,0,0,0,0,0,0,0,10,-2,-1,1034,154,72,60,0,2,-2,299,-179,2016,124,88,236,244,1,8,0,1,1,-0.047798306439548,-0.07025697656325372,4.396093802013105,0,0,0,4,-1,-1,0,-4,3,-1,"",""
279,339982272,0,0,0,0,0,0,0,0,0,10,-2,-1,1034,154,72,60,0,2,-2,296,-182,2016,109,88,258,303,1,8,0,1,1,-0.047977798429572484,-0.07054030435202942,4.396143281104239,0,0,0,4,-1,-1,0,-4,3,-1,"",""
280,339983624,0,0,0,0,0,0,0,0,0,10,-2,-1,1034,154,72,60,0,3,-2,294,-184,2016,121,88,213,280,1,8,0,1,1,-0.04816013793165291,-0.07079300971375257,4.396194810792589,0,0,0,4,-1,-1,0,-4,4,-1,"",""
281,339984973,0,0,0,0,0,0,0,0,0,10,-2,-1,1034,154,72,60,0,3,-3,292,-186,2017,172,88,313,302,1,8,0,1,1,-0.0483436843547682,-0.07104065045251431,4.396269845810213,0,0,0,4,-1,-1,0,-4,4,-2,"",""
282,339986334,0,0,0,0,0,0,0,0,0,10,-2,-1,1034,154,72,60,0,3,-3,287,-186,2019,156,88,303,329,1,8,0,1,1,-0.04852567196210652,-0.07127493950723747,4.396345561630855,0,0,0,4,-1,-1,0,-4,4,-2,"",""
283,339987681,0,0,0,0,0,0,0,0,0,10,-2,-1,1042,154,72,60,0,2,-2,282,-185,2020,205,88,346,251,1,8,0,1,1,-0.048705951849532796,-0.07151969241367258,4.396395829139151,0,0,0,4,-1,-1,0,-4,3,-1,"",""
284,339989038,0,0,0,0,0,0,0,0,0,10,-2,-1,1042,154,72,60,0,1,-1,276,-183,2022,168,88,463,238,1,8,0,1,1,-0.04888228292727825,-0.07177181876453163,4.396421576414534,0,0,0,4,-1,-1,0,-4,2,0,"",""
285,339990370,0,0,0,0,0,0,0,0,0,10,-2,-1,1042,154,72,60,0,1,1,269,-180,2025,156,88,446,216,1,8,0,1,1,-0.04905412370518303,-0.07200519489570895,4.396400275191239,0,0,0,4,-1,-1,0,-4,2,2,"",""
286,339991709,0,0,0,0,0,0,0,0,0,10,-2,-1,1042,154,72,60,0,0,3,263,-177,2028,172,88,497,153,1,8,0,1,1,-0.0492216314264875,-0.0722447508374506,4.396330868379544,0,0,0,4,-1,-1,0,-4,1,4,"",""
287,339993096,0,0,0,0,0,0,0,0,0,10,-2,-1,1042,154,72,60,0,-1,5,257,-176,2029,99,88,521,194,1,8,0,1,1,-0.04938957734411577,-0.07249156164865886,4.396209245072566,0,0,0,4,-1,-1,0,-4,0,6,"",""
288,339994471,0,0,0,0,0,0,0,0,0,10,-2,-1,1042,154,72,60,0,-1,5,253,-174,2031,128,168,524,218,1,8,0,1,1,-0.04955196898651847,-0.072727940372795,4.396088643810953,0,0,0,4,-1,-1,0,-4,0,6,"",""
289,339995854,0,0,0,0,0,0,0,0,0,10,-2,-1,1042,154,72,60,0,-1,5,253,-173,2032,128,173,526,226,1,8,0,1,1,-0.04971116858286625,-0.07296268274180819,4.395967310675763,0,0,0,4,-1,-1,0,-4,0,6,"",""
290,339997340,0,0,0,0,0,0,0,0,0,10,-2,-1,1053,154,72,60,-1,0,3,253,-173,2033,128,192,504,271,1,8,0,1,1,-0.04989184964430248,-0.07317380695336918,4.395890112664542,0,0,0,4,-1,-1,0,-5,1,4,"",""
291,339998808,0,0,0,0,0,0,0,0,0,10,-2,-1,1053,154,72,60,-1,0,0,256,-173,2034,133,175,416,301,1,8,0,1,1,-0.05006531130778488,-0.07339336581805184,4.395890826296581,0,0,0,4,-1,-1,0,-5,1,1,"",""
292,340000137,0,0,0,0,0,0,0,0,0,10,-2,-1,1053,154,0,60,-1,1,-3,257,-172,2033,154,133,426,361,1,8,0,1,1,-0.05022811277218059,-0.07359404447415797,4.395962380075648,0,0,0,4,-1,-1,0,-5,2,-2,"",""
293,340001474,0,0,0,0,0,0,0,0,0,10,-2,-1,1053,154,0,60,-1,1,-6,257,-170,2034,211,133,359,425,1,8,0,1,1,-0.05038059713469299,-0.07379656752474417,4.396104450060782,0,0,0,4,-1,-1,0,-5,2,-5,"",""
294,340002815,0,0,0,0,0,0,0,0,0,10,-2,-1,1053,154,0,60,-1,1,-7,255,-168,2033,241,132,387,481,1,8,0,1,1,-0.05052636972068024,-0.0739948973895168,4.39627036694987,0,0,0,4,-1,-1,0,-5,2,-6,"",""
295,340004179,0,0,0,0,0,0,0,0,0,10,-2,-1,1053,154,0,60,-2,1,-7,251,-166,2033,260,132,385,483,1,8,0,1,1,-0.05069095721245015,-0.07418347005979004,4.396439102670342,0,0,0,4,-1,-1,0,-6,2,-6,"",""
296,340005536,0,0,0,0,0,0,0,0,0,10,-2,-1,1053,154,0,60,-1,1,-7,244,-166,2034,303,133,254,416,1,8,0,1,1,-0.050830631325080505,-0.07435643264135544,4.396606979720993,0,0,0,4,-1,-1,0,-5,2,-6,"",""
297,340006865,0,0,0,0,0,0,0,0,0,10,-2,-1,1053,154,0,60,-1,1,-5,236,-167,2035,293,133,291,388,1,8,0,1,1,-0.05097451295121161,-0.07450977753637013,4.3967249597902915,0,0,0,4,-1,-1,0,-5,2,-4,"",""
298,340008199,0,0,0,0,0,0,0,0,0,10,-2,-1,1053,154,0,60,0,1,-4,228,-168,2036,259,133,299,342,1,8,0,1,1,-0.05109798175952521,-0.07464445544139857,4.396820076350655,0,0,0,4,-1,-1,0,-4,2,-3,"",""
299,340009536,0,0,0,0,0,0,0,0,0,10,-2,-1,1053,154,0,60,1,1,-2,221,-168,2038,225,133,248,265,1,8,0,1,1,-0.051200608501971084,-0.07476133636044716,4.39686866683154,0,0,0,4,-1,-1,0,-3,2,-1,"",""
300,340010926,0,0,0,0,0,0,0,0,0,10,-2,-1,1053,154,0,60,1,0,0,213,-169,2041,224,133,381,282,1,8,0,1,1,-0.05130683853235179,-0.07488163556228801,4.3968693276366535,0,0,0,4,-1,-1,0,-3,1,1,"",""
