"Product","Blackbox flight data recorder by Nicholas Sherlock"
"firmwareType",3
"firmware","3.3"
"firmwarePatch",3
"firmwareVersion","3.3.3"
"Firmware revision","Betaflight 3.3.3 (6bfd3c22e) MATEKF722"
"Firmware date","May 29 2020 01:30:45"
"Log start datetime","0000-01-01T00:00:00.000+00:00"
"Craft name","neuroflight"
"frameIntervalI",32
"frameIntervalPNum",1
"frameIntervalPDenom",1
"minthrottle",1070
"maxthrottle",2000
"gyroScale",1.7453292519943295e-8
"motorOutput","138,2047"
"acc_1G",0
"vbatscale",110
"vbatmincellvoltage",33
"vbatwarningcellvoltage",35
"vbatmaxcellvoltage",43
"vbatref",159
"currentMeterOffset",0
"currentMeterScale",179
"looptime",250
"gyro_sync_denom",2
"pid_process_denom",4
"thrMid",50
"thrExpo",0
"dynThrPID",10
"tpa_breakpoint",1650
"rc_rates","100,100,100"
"rc_expo","0,0,0"
"rates","70,70,70"
"rollPID","40,40,30"
"pitchPID","58,50,35"
"yawPID","70,45,20"
"altPID","50,0,0"
"posPID","15,0,0"
"posrPID","34,14,53"
"navrPID","25,33,83"
"levelPID","50,50,75"
"magPID","40,,"
"velPID","55,55,75"
"dterm_filter_type",1
"dterm_lpf_hz",100
"yaw_lpf_hz",0
"dterm_notch_hz",260
"dterm_notch_cutoff",160
"itermWindupPointPercent",50
"vbat_pid_compensation",0
"pidAtMinThrottle",1
"anti_gravity_threshold",350
"anti_gravity_gain",1000
"setpointRelaxRatio",100
"dtermSetpointWeight",0
"yawRateAccelLimit",0.1
"rateAccelLimit",0
"pidSumLimit",500
"pidSumLimitYaw",400
"deadband",0
"yaw_deadband",0
"gyro_lpf",0
"gyro_soft_type",0
"gyro_lowpass_hz",100
"gyro_notch_hz","400,200"
"gyro_notch_cutoff","300,100"
"acc_lpf_hz",1000
"acc_hardware",1
"baro_hardware",1
"mag_hardware",1
"gyro_cal_on_first_arm",0
"rc_interpolation",2
"rc_interpolation_interval",19
"airmode_activate_throttle",32
"serialrx_provider",2
"unsynced_fast_pwm",0
"fast_pwm_protocol",7
"motor_pwm_rate",480
"digitalIdleOffset",450
"debug_mode",31
"features",4457480
"loopIteration","time","axisP[0]","axisP[1]","axisP[2]","axisI[0]","axisI[1]","axisI[2]","axisD[0]","axisD[1]","axisD[2]","rcCommand[0]","rcCommand[1]","rcCommand[2]","rcCommand[3]","vbatLatest","amperageLatest","rssi","gyroADC[0]","gyroADC[1]","gyroADC[2]","debug[0]","debug[1]","debug[2]","debug[3]","motor[0]","motor[1]","motor[2]","motor[3]","flightModeFlags","stateFlags","failsafePhase","rxSignalReceived","rxFlightChannelsValid","heading[0]","heading[1]","heading[2]","axisSum[0]","axisSum[1]","axisSum[2]","rcCommands[0]","rcCommands[1]","rcCommands[2]","rcCommands[3]","axisError[0]","axisError[1]","axisError[2]"
0,51384361,0,0,0,0,0,0,0,0,0,0,0,-8,1000,159,0,512,0,0,0,0,0,-3236,0,138,157,152,134,"","","","","",0,0,4.396484385773716,0,0,0,0,0,-4,0,0,0,4,"",""
1,51385687,0,0,0,0,0,0,0,0,0,0,0,-8,1000,159,0,512,0,0,0,0,0,-3236,0,138,157,152,134,1,8,0,1,1,0,0,4.396484385773716,0,0,0,0,0,-4,0,0,0,4,"",""
2,51387151,0,0,0,0,0,0,0,0,0,0,0,-8,1000,159,0,512,0,0,0,0,0,-3236,0,139,157,152,134,1,8,0,1,1,0,0,4.396484385773716,0,0,0,0,0,-4,0,0,0,4,"",""
3,51388603,0,0,0,0,0,0,0,0,0,0,0,-8,1000,159,0,512,0,0,0,0,0,-3236,0,138,157,152,134,1,8,0,1,1,0,0,4.396484385773716,0,0,0,0,0,-4,0,0,0,4,"",""
4,51389920,0,0,0,0,0,0,0,0,0,0,0,-8,1000,159,0,512,0,0,0,0,0,-3236,0,138,157,152,134,1,8,0,1,1,0,0,4.396484385773716,0,0,0,0,0,-4,0,0,0,4,"",""
5,51391230,0,0,0,0,0,0,0,0,0,0,0,-8,1000,159,0,512,0,0,0,0,0,-3236,0,138,157,152,134,1,8,0,1,1,0,0,4.396484385773716,0,0,0,0,0,-4,0,0,0,4,"",""
6,51392559,0,0,0,0,0,0,0,0,0,0,0,-8,1000,159,0,512,0,0,0,0,0,-3236,0,138,157,152,134,1,8,0,1,1,0,0,4.396484385773716,0,0,0,0,0,-4,0,0,0,4,"",""
7,51393885,0,0,0,0,0,0,0,0,0,0,0,-8,1000,159,0,512,0,0,0,0,0,-3236,0,137,157,152,134,1,8,0,1,1,0,0,4.396484385773716,0,0,0,0,0,-4,0,0,0,4,"",""
8,51395204,0,0,0,0,0,0,0,0,0,0,0,-8,1000,159,0,512,0,0,0,0,0,-3236,0,138,158,152,134,1,8,0,1,1,0,0,4.396484385773716,0,0,0,0,0,-4,0,0,0,4,"",""
9,51396522,0,0,0,0,0,0,0,0,0,0,0,-8,1000,159,0,512,0,0,0,0,0,-3236,0,137,158,152,134,1,8,0,1,1,0,0,4.396484385773716,0,0,0,0,0,-4,0,0,0,4,"",""
10,51397829,0,0,0,0,0,0,0,0,0,0,0,-8,1000,159,0,512,0,0,0,0,0,-3236,0,137,158,152,134,1,8,0,1,1,0,0,4.396484385773716,0,0,0,0,0,-4,0,0,0,4,"",""
11,51399159,0,0,0,0,0,0,0,0,0,0,0,-8,1000,159,0,512,0,0,0,0,0,-3236,0,137,158,152,134,1,8,0,1,1,0,0,4.396484385773716,0,0,0,0,0,-4,0,0,0,4,"",""
12,51400480,0,0,0,0,0,0,0,0,0,0,0,-8,1000,159,0,512,0,0,0,0,0,-3236,0,137,158,151,134,1,8,0,1,1,0,0,4.396484385773716,0,0,0,0,0,-4,0,0,0,4,"",""
13,51401808,0,0,0,0,0,0,0,0,0,0,0,-8,1000,159,0,512,0,0,0,0,0,-3236,0,137,158,151,134,1,8,0,1,1,0,0,4.396484385773716,0,0,0,0,0,-4,0,0,0,4,"",""
14,51403134,0,0,0,0,0,0,0,0,0,0,0,-8,1000,159,0,512,0,0,0,0,0,-3236,0,137,158,151,134,1,8,0,1,1,0,0,4.396484385773716,0,0,0,0,0,-4,0,0,0,4,"",""
15,51404450,0,0,0,0,0,0,0,0,0,0,0,-8,1000,159,0,512,0,0,0,0,0,-3236,0,137,158,151,134,1,8,0,1,1,0,0,4.396484385773716,0,0,0,0,0,-4,0,0,0,4,"",""
16,51405764,0,0,0,0,0,0,0,0,0,0,0,-8,1000,159,0,512,0,0,0,0,0,-3236,0,137,158,151,134,1,8,0,1,1,0,0,4.396484385773716,0,0,0,0,0,-4,0,0,0,4,"",""
17,51407075,0,0,0,0,0,0,0,0,0,0,0,-8,1000,159,0,512,0,0,0,0,0,-3236,0,137,158,151,134,1,8,0,1,1,0,0,4.396484385773716,0,0,0,0,0,-4,0,0,0,4,"",""
18,51408393,0,0,0,0,0,0,0,0,0,0,0,-8,1000,159,0,512,0,0,0,0,0,-3236,0,137,158,151,134,1,8,0,1,1,0,0,4.396484385773716,0,0,0,0,0,-4,0,0,0,4,"",""
19,51409721,0,0,0,0,0,0,0,0,0,0,0,-8,1000,159,0,512,0,0,0,0,0,-3236,0,137,158,151,134,1,8,0,1,1,0,0,4.396484385773716,0,0,0,0,0,-4,0,0,0,4,"",""
20,51411047,0,0,0,0,0,0,0,0,0,0,0,-8,1000,159,0,512,0,0,0,0,0,-3236,0,137,158,151,134,1,8,0,1,1,0,0,4.396484385773716,0,0,0,0,0,-4,0,0,0,4,"",""
21,51412372,0,0,0,0,0,0,0,0,0,0,0,-8,1000,159,0,512,0,0,0,0,0,-3236,0,137,158,151,134,1,8,0,1,1,0,0,4.396484385773716,0,0,0,0,0,-4,0,0,0,4,"",""
22,51413688,0,0,0,0,0,0,0,0,0,0,0,-8,1000,159,0,512,0,0,0,0,0,-3236,0,137,158,151,134,1,8,0,1,1,0,0,4.396484385773716,0,0,0,0,0,-4,0,0,0,4,"",""
23,51414999,0,0,0,0,0,0,0,0,0,0,0,-8,1000,159,0,512,0,0,0,0,0,-3236,0,137,159,151,134,1,8,0,1,1,0,0,4.396484385773716,0,0,0,0,0,-4,0,0,0,4,"",""
24,51416327,0,0,0,0,0,0,0,0,0,0,0,-8,1000,159,0,512,0,0,0,0,0,-3236,0,137,158,151,134,1,8,0,1,1,0,0,4.396484385773716,0,0,0,0,0,-4,0,0,0,4,"",""
25,51417786,0,0,0,0,0,0,0,0,0,0,0,-8,1000,159,0,512,0,0,0,0,0,-3236,0,137,158,151,134,1,8,0,1,1,0,0,4.396484385773716,0,0,0,0,0,-4,0,0,0,4,"",""
26,51419261,0,0,0,0,0,0,0,0,0,0,0,-8,1000,159,0,512,0,0,0,0,0,-3236,0,136,158,150,134,1,8,0,1,1,0,0,4.396484385773716,0,0,0,0,0,-4,0,0,0,4,"",""
27,51420593,0,0,0,0,0,0,0,0,0,0,0,-8,1000,159,0,512,0,0,0,0,0,-3236,0,136,158,151,134,1,8,0,1,1,0,0,4.396484385773716,0,0,0,0,0,-4,0,0,0,4,"",""
28,51421915,0,0,0,0,0,0,0,0,0,0,0,-8,1000,159,0,512,0,0,0,0,0,-3236,0,136,158,151,134,1,8,0,1,1,0,0,4.396484385773716,0,0,0,0,0,-4,0,0,0,4,"",""
29,51423229,0,0,0,0,0,0,0,0,0,0,0,-8,1000,159,0,512,0,0,0,0,0,-3236,0,137,158,151,134,1,8,0,1,1,0,0,4.396484385773716,0,0,0,0,0,-4,0,0,0,4,"",""
30,51424546,0,0,0,0,0,0,0,0,0,0,0,-8,1000,159,0,512,0,0,0,0,0,-3236,0,136,158,151,134,1,8,0,1,1,0,0,4.396484385773716,0,0,0,0,0,-4,0,0,0,4,"",""
31,51425857,0,0,0,0,0,0,0,0,0,0,0,-8,1000,159,0,512,0,0,0,0,0,-3236,0,136,158,151,134,1,8,0,1,1,0,0,4.396484385773716,0,0,0,0,0,-4,0,0,0,4,"",""
32,51427185,0,0,0,0,0,0,0,0,0,0,0,-8,1000,159,0,512,0,0,0,0,0,-3236,0,138,160,153,136,1,8,0,1,1,0,0,4.396484385773716,0,0,0,0,0,-4,0,0,0,4,"",""
33,51428518,0,0,0,0,0,0,0,0,0,0,0,-8,1000,159,0,512,0,0,0,0,0,-3236,0,138,160,153,136,1,8,0,1,1,0,0,4.396484385773716,0,0,0,0,0,-4,0,0,0,4,"",""
34,51429845,0,0,0,0,0,0,0,0,0,0,0,-8,1000,159,0,512,0,0,0,0,0,-3236,0,138,160,153,136,1,8,0,1,1,0,0,4.396484385773716,0,0,0,0,0,-4,0,0,0,4,"",""
35,51431162,0,0,0,0,0,0,0,0,0,0,0,-8,1000,159,0,512,0,0,0,0,0,-3236,0,138,160,153,136,1,8,0,1,1,0,0,4.396484385773716,0,0,0,0,0,-4,0,0,0,4,"",""
36,51432478,0,0,0,0,0,0,0,0,0,0,0,-8,1000,159,0,512,0,0,0,0,0,-3236,0,138,160,153,136,1,8,0,1,1,0,0,4.396484385773716,0,0,0,0,0,-4,0,0,0,4,"",""
37,51433791,0,0,0,0,0,0,0,0,0,0,0,-8,1000,159,0,512,0,0,0,0,0,-3236,0,138,160,153,136,1,8,0,1,1,0,0,4.396484385773716,0,0,0,0,0,-4,0,0,0,4,"",""
38,51435115,0,0,0,0,0,0,0,0,0,0,0,-8,1000,159,0,512,0,0,0,0,0,-3236,0,138,159,153,136,1,8,0,1,1,0,0,4.396484385773716,0,0,0,0,0,-4,0,0,0,4,"",""
39,51436436,0,0,0,0,0,0,0,0,0,0,0,-8,1000,159,0,512,0,0,0,0,0,-3236,0,138,159,153,136,1,8,0,1,1,0,0,4.396484385773716,0,0,0,0,0,-4,0,0,0,4,"",""
40,51437766,0,0,0,0,0,0,0,0,0,0,0,-8,1000,159,0,512,0,0,0,0,0,-3236,0,139,160,153,136,1,8,0,1,1,0,0,4.396484385773716,0,0,0,0,0,-4,0,0,0,4,"",""
41,51439098,0,0,0,0,0,0,0,0,0,0,0,-8,1000,159,0,512,0,0,0,0,0,-3236,0,138,159,153,136,1,8,0,1,1,0,0,4.396484385773716,0,0,0,0,0,-4,0,0,0,4,"",""
42,51440417,0,0,0,0,0,0,0,0,0,0,0,-8,1000,159,0,512,0,0,0,0,0,-3236,0,139,160,153,136,1,8,0,1,1,0,0,4.396484385773716,0,0,0,0,0,-4,0,0,0,4,"",""
43,51441730,0,0,0,0,0,0,0,0,0,0,0,-8,1000,159,0,512,0,0,0,0,0,-3236,0,139,160,153,136,1,8,0,1,1,0,0,4.396484385773716,0,0,0,0,0,-4,0,0,0,4,"",""
44,51443039,0,0,0,0,0,0,0,0,0,0,0,-8,1000,159,0,512,0,0,0,0,0,-3236,0,138,160,153,136,1,8,0,1,1,0,0,4.396484385773716,0,0,0,0,0,-4,0,0,0,4,"",""
45,51444359,0,0,0,0,0,0,0,0,0,0,0,-8,1000,159,0,512,0,0,0,0,0,-3236,0,138,159,153,136,1,8,0,1,1,0,0,4.396484385773716,0,0,0,0,0,-4,0,0,0,4,"",""
46,51445699,0,0,0,0,0,0,0,0,0,0,0,-8,1000,159,0,512,0,0,0,0,0,-3236,0,137,159,153,136,1,8,0,1,1,0,0,4.396484385773716,0,0,0,0,0,-4,0,0,0,4,"",""
47,51447178,0,0,0,0,0,0,0,0,0,0,0,-8,1000,159,0,512,0,0,0,0,0,-3236,0,138,159,153,136,1,8,0,1,1,0,0,4.396484385773716,0,0,0,0,0,-4,0,0,0,4,"",""
48,51448657,0,0,0,0,0,0,0,0,0,0,0,-8,1000,159,0,512,0,0,0,0,0,-3236,0,138,159,153,136,1,8,0,1,1,0,0,4.396484385773716,0,0,0,0,0,-4,0,0,0,4,"",""
49,51449976,0,0,0,0,0,0,0,0,0,0,0,-8,1000,159,0,512,0,0,0,0,0,-3236,0,138,159,153,136,1,8,0,1,1,0,0,4.396484385773716,0,0,0,0,0,-4,0,0,0,4,"",""
50,51451289,0,0,0,0,0,0,0,0,0,0,0,-8,1000,159,0,512,0,0,0,0,0,-3236,0,138,159,153,136,1,8,0,1,1,0,0,4.396484385773716,0,0,0,0,0,-4,0,0,0,4,"",""
51,51452603,0,0,0,0,0,0,0,0,0,0,0,-8,1000,159,0,512,0,0,0,0,0,-3236,0,138,159,153,136,1,8,0,1,1,0,0,4.396484385773716,0,0,0,0,0,-4,0,0,0,4,"",""
52,51453915,0,0,0,0,0,0,0,0,0,0,0,-8,1000,159,0,512,0,0,0,0,0,-3236,0,138,159,153,136,1,8,0,1,1,0,0,4.396484385773716,0,0,0,0,0,-4,0,0,0,4,"",""
53,51455237,0,0,0,0,0,0,0,0,0,0,0,-8,1000,159,0,512,0,0,0,0,0,-3236,0,138,159,153,136,1,8,0,1,1,0,0,4.396484385773716,0,0,0,0,0,-4,0,0,0,4,"",""
54,51456584,0,0,0,0,0,0,0,0,0,0,0,-10,1000,159,0,512,0,0,0,0,0,-3236,0,138,159,153,136,1,8,0,1,1,0,0,4.396484385773716,0,0,0,0,0,-4,0,0,0,4,"",""
55,51457910,0,0,0,0,0,0,0,0,0,0,0,-10,1000,159,0,512,0,0,0,0,0,-4056,0,138,164,158,136,1,8,0,1,1,0,0,4.396484385773716,0,0,0,0,0,-4,0,0,0,4,"",""
56,51459228,0,0,0,0,0,0,0,0,0,0,0,-10,1000,159,0,512,0,0,0,0,0,-4056,0,139,164,158,136,1,8,0,1,1,0,0,4.396484385773716,0,0,0,0,0,-4,0,0,0,4,"",""
57,51460545,0,0,0,0,0,0,0,0,0,0,0,-10,1000,159,0,512,0,0,0,0,0,-4056,0,139,164,158,136,1,8,0,1,1,0,0,4.396484385773716,0,0,0,0,0,-4,0,0,0,4,"",""
58,51461859,0,0,0,0,0,0,0,0,0,0,0,-10,1000,159,0,512,0,0,0,0,0,-4056,0,139,164,158,136,1,8,0,1,1,0,0,4.396484385773716,0,0,0,0,0,-4,0,0,0,4,"",""
59,51463179,0,0,0,0,0,0,0,0,0,0,0,-10,1000,159,0,512,0,0,0,0,0,-4056,0,139,164,158,136,1,8,0,1,1,0,0,4.396484385773716,0,0,0,0,0,-4,0,0,0,4,"",""
60,51464510,0,0,0,0,0,0,0,0,0,0,0,-10,1000,159,0,512,0,0,0,0,0,-4056,0,139,164,158,136,1,8,0,1,1,0,0,4.396484385773716,0,0,0,0,0,-4,0,0,0,4,"",""
61,51465839,0,0,0,0,0,0,0,0,0,0,0,-10,1000,159,0,512,0,0,0,0,0,-4056,0,139,164,158,136,1,8,0,1,1,0,0,4.396484385773716,0,0,0,0,0,-4,0,0,0,4,"",""
62,51467152,0,0,0,0,0,0,0,0,0,0,0,-10,1000,159,0,512,0,0,0,0,0,-4056,0,139,164,158,136,1,8,0,1,1,0,0,4.396484385773716,0,0,0,0,0,-4,0,0,0,4,"",""
63,51468469,0,0,0,0,0,0,0,0,0,0,0,-10,1000,159,0,512,0,0,0,0,0,-4056,0,139,164,158,136,1,8,0,1,1,0,0,4.396484385773716,0,0,0,0,0,-4,0,0,0,4,"",""
64,51469783,0,0,0,0,0,0,0,0,0,0,0,-10,1000,159,0,512,0,0,0,0,0,-4056,0,138,163,157,135,1,8,0,1,1,0,0,4.396484385773716,0,0,0,0,0,-4,0,0,0,4,"",""
65,51471101,0,0,0,0,0,0,0,0,0,0,0,-10,1000,159,0,512,0,0,0,0,0,-4056,0,138,162,157,135,1,8,0,1,1,0,0,4.396484385773716,0,0,0,0,0,-4,0,0,0,4,"",""
66,51472429,0,0,0,0,0,0,0,0,0,0,0,-10,1000,159,0,512,0,0,0,0,0,-4056,0,137,162,157,135,1,8,0,1,1,0,0,4.396484385773716,0,0,0,0,0,-4,0,0,0,4,"",""
67,51473763,0,0,0,0,0,0,0,0,0,0,0,-10,1000,159,0,512,0,0,0,0,0,-4056,0,137,162,157,135,1,8,0,1,1,0,0,4.396484385773716,0,0,0,0,0,-4,0,0,0,4,"",""
68,51475101,0,0,0,0,0,0,0,0,0,0,0,-10,1000,159,0,512,0,0,0,0,0,-4056,0,137,162,156,135,1,8,0,1,1,0,0,4.396484385773716,0,0,0,0,0,-4,0,0,0,4,"",""
69,51476553,0,0,0,0,0,0,0,0,0,0,0,-10,1000,159,0,512,0,0,0,0,0,-4056,0,137,163,157,135,1,8,0,1,1,0,0,4.396484385773716,0,0,0,0,0,-4,0,0,0,4,"",""
70,51478013,0,0,0,0,0,0,0,0,0,0,0,-10,1000,159,0,512,0,0,0,0,0,-4056,0,138,163,157,135,1,8,0,1,1,0,0,4.396484385773716,0,0,0,0,0,-4,0,0,0,4,"",""
71,51479333,0,0,0,0,0,0,0,0,0,0,0,-10,1000,159,0,512,0,0,0,0,0,-4056,0,138,163,157,135,1,8,0,1,1,0,0,4.396484385773716,0,0,0,0,0,-4,0,0,0,4,"",""
72,51480650,0,0,0,0,0,0,0,0,0,0,0,-10,1000,159,0,512,0,0,0,0,0,-4056,0,138,163,157,135,1,8,0,1,1,0,0,4.396484385773716,0,0,0,0,0,-4,0,0,0,4,"",""
73,51481986,0,0,0,0,0,0,0,0,0,0,0,-10,1000,159,0,512,0,0,0,0,0,-4056,0,138,163,157,135,1,8,0,1,1,0,0,4.396484385773716,0,0,0,0,0,-4,0,0,0,4,"",""
74,51483319,0,0,0,0,0,0,0,0,0,0,0,-10,1000,159,0,512,0,0,0,0,0,-4056,0,138,163,157,135,1,8,0,1,1,0,0,4.396484385773716,0,0,0,0,0,-4,0,0,0,4,"",""
75,51484640,0,0,0,0,0,0,0,0,0,0,0,-10,1000,159,0,512,0,0,0,0,0,-4056,0,137,163,157,135,1,8,0,1,1,0,0,4.396484385773716,0,0,0,0,0,-4,0,0,0,4,"",""
76,51485961,0,0,0,0,0,0,0,0,0,0,0,-10,1000,159,0,512,0,0,0,0,0,-4056,0,138,163,157,135,1,8,0,1,1,0,0,4.396484385773716,0,0,0,0,0,-4,0,0,0,4,"",""
77,51487273,0,0,0,0,0,0,0,0,0,0,0,-10,1000,159,0,512,0,0,0,0,0,-4056,0,138,164,157,135,1,8,0,1,1,0,0,4.396484385773716,0,0,0,0,0,-4,0,0,0,4,"",""
78,51488588,0,0,0,0,0,0,0,0,0,0,0,-10,1000,159,0,512,0,0,0,0,0,-4056,0,138,163,157,135,1,8,0,1,1,0,0,4.396484385773716,0,0,0,0,0,-4,0,0,0,4,"",""
79,51489900,0,0,0,0,0,0,0,0,0,0,0,-10,1000,159,0,512,0,0,0,0,0,-4056,0,138,163,157,135,1,8,0,1,1,0,0,4.396484385773716,0,0,0,0,0,-4,0,0,0,4,"",""
80,51491233,0,0,0,0,0,0,0,0,0,0,0,-10,1000,159,0,512,0,0,0,0,0,-4056,0,137,163,157,135,1,8,0,1,1,0,0,4.396484385773716,0,0,0,0,0,-4,0,0,0,4,"",""
81,51492584,0,0,0,0,0,0,0,0,0,0,0,-10,1000,159,0,512,0,0,0,0,0,-4056,0,137,163,157,135,1,8,0,1,1,0,0,4.396484385773716,0,0,0,0,0,-4,0,0,0,4,"",""
82,51493902,0,0,0,0,0,0,0,0,0,0,0,-10,1000,159,0,512,0,0,0,0,0,-4056,0,137,163,156,135,1,8,0,1,1,0,0,4.396484385773716,0,0,0,0,0,-4,0,0,0,4,"",""
83,51495221,0,0,0,0,0,0,0,0,0,0,0,-10,1000,159,0,512,0,0,0,0,0,-4056,0,137,163,156,135,1,8,0,1,1,0,0,4.396484385773716,0,0,0,0,0,-4,0,0,0,4,"",""
84,51496542,0,0,0,0,0,0,0,0,0,0,0,-10,1000,159,0,512,0,0,0,0,0,-4056,0,136,163,156,135,1,8,0,1,1,0,0,4.396484385773716,0,0,0,0,0,-4,0,0,0,4,"",""
85,51497860,0,0,0,0,0,0,0,0,0,0,0,-10,1000,159,0,512,0,0,0,0,0,-4056,0,137,163,156,135,1,8,0,1,1,0,0,4.396484385773716,0,0,0,0,0,-4,0,0,0,4,"",""
86,51499177,0,0,0,0,0,0,0,0,0,0,0,-10,1000,159,0,512,0,0,0,0,0,-4056,0,137,163,156,135,1,8,0,1,1,0,0,4.396484385773716,0,0,0,0,0,-4,0,0,0,4,"",""
87,51500506,0,0,0,0,0,0,0,0,0,0,0,-10,1000,159,0,512,0,0,0,0,0,-4056,0,137,163,157,135,1,8,0,1,1,0,0,4.396484385773716,0,0,0,0,0,-4,0,0,0,4,"",""
88,51501837,0,0,0,0,0,0,0,0,0,0,0,-10,1000,159,0,512,0,0,0,0,0,-4056,0,137,163,157,135,1,8,0,1,1,0,0,4.396484385773716,0,0,0,0,0,-4,0,0,0,4,"",""
89,51503158,0,0,0,0,0,0,0,0,0,0,0,-10,1000,159,0,512,0,0,0,0,0,-4056,0,137,163,156,135,1,8,0,1,1,0,0,4.396484385773716,0,0,0,0,0,-4,0,0,0,4,"",""
90,51504475,0,0,0,0,0,0,0,0,0,0,0,-10,1000,159,0,512,0,0,0,0,0,-4056,0,136,162,156,135,1,8,0,1,1,0,0,4.396484385773716,0,0,0,0,0,-4,0,0,0,4,"",""
91,51505787,0,0,0,0,0,0,0,0,0,0,0,-10,1000,159,0,512,0,0,0,0,0,-4056,0,137,162,156,135,1,8,0,1,1,0,0,4.396484385773716,0,0,0,0,0,-4,0,0,0,4,"",""
92,51507105,0,0,0,0,0,0,0,0,0,0,0,-10,1000,159,0,512,0,0,0,0,0,-4056,0,137,163,156,135,1,8,0,1,1,0,0,4.396484385773716,0,0,0,0,0,-4,0,0,0,4,"",""
93,51508562,0,0,0,0,0,0,0,0,0,0,0,-10,1000,159,0,512,0,0,0,0,0,-4056,0,137,163,156,135,1,8,0,1,1,0,0,4.396484385773716,0,0,0,0,0,-4,0,0,0,4,"",""
94,51510036,0,0,0,0,0,0,0,0,0,0,0,-10,1000,159,0,512,0,0,0,0,0,-4056,0,137,163,156,135,1,8,0,1,1,0,0,4.396484385773716,0,0,0,0,0,-4,0,0,0,4,"",""
95,51511373,0,0,0,0,0,0,0,0,0,0,0,-10,1000,159,0,512,0,0,0,0,0,-4056,0,137,164,156,135,1,8,0,1,1,0,0,4.396484385773716,0,0,0,0,0,-4,0,0,0,4,"",""
96,51512690,0,0,0,0,0,0,0,0,0,0,0,-10,1000,159,0,512,0,0,0,0,0,-4056,0,138,164,157,136,1,8,0,1,1,0,0,4.396484385773716,0,0,0,0,0,-4,0,0,0,4,"",""
97,51514008,0,0,0,0,0,0,0,0,0,0,0,-10,1000,159,0,512,0,0,0,0,0,-4056,0,138,164,157,136,1,8,0,1,1,0,0,4.396484385773716,0,0,0,0,0,-4,0,0,0,4,"",""
98,51515324,0,0,0,0,0,0,0,0,0,0,0,-10,1000,159,0,512,0,0,0,0,0,-4056,0,138,164,157,136,1,8,0,1,1,0,0,4.396484385773716,0,0,0,0,0,-4,0,0,0,4,"",""
99,51516641,0,0,0,0,0,0,0,0,0,0,0,-10,1000,159,0,512,0,0,0,0,0,-4056,0,138,164,157,136,1,8,0,1,1,0,0,4.396484385773716,0,0,0,0,0,-4,0,0,0,4,"",""
100,51517971,0,0,0,0,0,0,0,0,0,0,0,-10,1000,159,0,512,0,0,0,0,0,-4056,0,138,164,157,136,1,8,0,1,1,0,0,4.396484385773716,0,0,0,0,0,-4,0,0,0,4,"",""
101,51519308,0,0,0,0,0,0,0,0,0,0,0,-10,1000,159,0,512,0,0,0,0,0,-4056,0,138,164,157,136,1,8,0,1,1,0,0,4.396484385773716,0,0,0,0,0,-4,0,0,0,4,"",""
102,51520628,0,0,0,0,0,0,0,0,0,0,0,-10,1000,159,0,512,0,0,0,0,0,-4056,0,138,164,157,136,1,8,0,1,1,0,0,4.396484385773716,0,0,0,0,0,-4,0,0,0,4,"",""
103,51521939,0,0,0,0,0,0,0,0,0,0,0,-10,1000,159,0,512,0,0,0,0,0,-4056,0,138,165,157,136,1,8,0,1,1,0,0,4.396484385773716,0,0,0,0,0,-4,0,0,0,4,"",""
104,51523265,0,0,0,0,0,0,0,0,0,0,0,-10,1000,159,0,512,0,0,0,0,0,-4056,0,138,164,157,136,1,8,0,1,1,0,0,4.396484385773716,0,0,0,0,0,-4,0,0,0,4,"",""
105,51524584,0,0,0,0,0,0,0,0,0,0,0,-10,1000,159,0,512,0,0,0,0,0,-4056,0,138,164,157,136,1,8,0,1,1,0,0,4.396484385773716,0,0,0,0,0,-4,0,0,0,4,"",""
106,51525905,0,0,0,0,0,0,0,0,0,0,0,-10,1000,159,0,512,0,0,0,0,0,-4056,0,139,165,157,136,1,8,0,1,1,0,0,4.396484385773716,0,0,0,0,0,-4,0,0,0,4,"",""
107,51527235,0,0,0,0,0,0,0,0,0,0,0,-10,1000,159,0,512,0,0,0,0,0,-4056,0,138,164,157,136,1,8,0,1,1,0,0,4.396484385773716,0,0,0,0,0,-4,0,0,0,4,"",""
108,51528593,0,0,0,0,0,0,0,0,0,0,0,-10,1000,159,0,512,0,0,0,0,0,-4056,0,139,164,157,136,1,8,0,1,1,0,0,4.396484385773716,0,0,0,0,0,-4,0,0,0,4,"",""
109,51529911,0,0,0,0,0,0,0,0,0,0,0,-10,1000,159,0,512,0,0,0,0,0,-4056,0,139,164,157,136,1,8,0,1,1,0,0,4.396484385773716,0,0,0,0,0,-4,0,0,0,4,"",""
110,51531227,0,0,0,0,0,0,0,0,0,0,0,-10,1000,159,0,512,0,0,0,0,0,-4056,0,138,164,157,136,1,8,0,1,1,0,0,4.396484385773716,0,0,0,0,0,-4,0,0,0,4,"",""
111,51532545,0,0,0,0,0,0,0,0,0,0,0,-10,1000,159,0,512,0,0,0,0,0,-4056,0,139,164,157,136,1,8,0,1,1,0,0,4.396484385773716,0,0,0,0,0,-4,0,0,0,4,"",""
112,51533858,0,0,0,0,0,0,0,0,0,0,0,-10,1000,159,0,512,0,0,0,0,0,-4056,0,139,165,157,136,1,8,0,1,1,0,0,4.396484385773716,0,0,0,0,0,-4,0,0,0,4,"",""
113,51535172,0,0,0,0,0,0,0,0,0,0,0,-10,1000,159,0,512,0,0,0,0,0,-4056,0,139,165,157,136,1,8,0,1,1,0,0,4.396484385773716,0,0,0,0,0,-4,0,0,0,4,"",""
114,51536516,0,0,0,0,0,0,0,0,0,0,0,-10,1000,159,0,512,0,0,0,0,0,-4056,0,139,165,157,136,1,8,0,1,1,0,0,4.396484385773716,0,0,0,0,0,-4,0,0,0,4,"",""
115,51537983,0,0,0,0,0,0,0,0,0,0,0,-10,1000,159,0,512,0,0,0,0,0,-4056,0,138,165,157,136,1,8,0,1,1,0,0,4.396484385773716,0,0,0,0,0,-4,0,0,0,4,"",""
116,51539434,0,0,0,0,0,0,0,0,0,0,0,-10,1000,159,0,512,0,0,0,0,0,-4056,0,138,164,157,136,1,8,0,1,1,0,0,4.396484385773716,0,0,0,0,0,-4,0,0,0,4,"",""
117,51540753,0,0,0,0,0,0,0,0,0,0,0,-10,1000,159,0,512,0,0,0,0,0,-4056,0,138,164,157,136,1,8,0,1,1,0,0,4.396484385773716,0,0,0,0,0,-4,0,0,0,4,"",""
118,51542067,0,0,0,0,0,0,0,0,0,0,0,-10,1000,159,0,512,0,0,0,0,0,-4056,0,138,164,157,136,1,8,0,1,1,0,0,4.396484385773716,0,0,0,0,0,-4,0,0,0,4,"",""
119,51543389,0,0,0,0,0,0,0,0,0,0,0,-10,1000,159,0,512,0,0,0,0,0,-4056,0,138,164,157,136,1,8,0,1,1,0,0,4.396484385773716,0,0,0,0,0,-4,0,0,0,4,"",""
120,51544722,0,0,0,0,0,0,0,0,0,0,0,-10,1000,159,0,512,0,0,0,0,0,-4056,0,138,164,157,136,1,8,0,1,1,0,0,4.396484385773716,0,0,0,0,0,-4,0,0,0,4,"",""
121,51546060,0,0,0,0,0,0,0,0,0,0,0,-10,1000,159,0,512,0,0,0,0,0,-4056,0,138,164,157,136,1,8,0,1,1,0,0,4.396484385773716,0,0,0,0,0,-4,0,0,0,4,"",""
122,51547390,0,0,0,0,0,0,0,0,0,0,0,-10,1000,159,0,512,0,0,0,0,0,-4056,0,138,164,157,136,1,8,0,1,1,0,0,4.396484385773716,0,0,0,0,0,-4,0,0,0,4,"",""
123,51548706,0,0,0,0,0,0,0,0,0,0,0,-10,1000,159,0,512,0,0,0,0,0,-4056,0,138,164,157,136,1,8,0,1,1,0,0,4.396484385773716,0,0,0,0,0,-4,0,0,0,4,"",""
124,51550024,0,0,0,0,0,0,0,0,0,0,0,-10,1000,159,0,512,0,0,0,0,0,-4056,0,138,164,157,136,1,8,0,1,1,0,0,4.396484385773716,0,0,0,0,0,-4,0,0,0,4,"",""
125,51551341,0,0,0,0,0,0,0,0,0,0,0,-10,1000,159,0,512,0,0,0,0,0,-4056,0,137,164,156,136,1,8,0,1,1,0,0,4.396484385773716,0,0,0,0,0,-4,0,0,0,4,"",""
126,51552660,0,0,0,0,0,0,0,0,0,0,0,-10,1000,159,0,512,0,0,0,0,0,-4056,0,137,163,156,136,1,8,0,1,1,0,0,4.396484385773716,0,0,0,0,0,-4,0,0,0,4,"",""
127,51553985,0,0,0,0,0,0,0,0,0,0,0,-10,1000,159,0,512,0,0,0,0,0,-4056,0,137,163,156,136,1,8,0,1,1,0,0,4.396484385773716,0,0,0,0,0,-4,0,0,0,4,"",""
128,51555319,0,0,0,0,0,0,0,0,0,0,0,-10,1000,159,0,512,0,0,0,0,0,-4056,0,138,164,158,137,1,8,0,1,1,0,0,4.396484385773716,0,0,0,0,0,-4,0,0,0,4,"",""
129,51556646,0,0,0,0,0,0,0,0,0,0,0,-10,1000,159,0,512,0,0,0,0,0,-4056,0,139,165,158,137,1,8,0,1,1,0,0,4.396484385773716,0,0,0,0,0,-4,0,0,0,4,"",""
130,51557965,0,0,0,0,0,0,0,0,0,0,0,-10,1000,159,0,512,0,0,0,0,0,-4056,0,138,165,158,137,1,8,0,1,1,0,0,4.396484385773716,0,0,0,0,0,-4,0,0,0,4,"",""
131,51559282,0,0,0,0,0,0,0,0,0,0,0,-10,1000,159,0,512,0,0,0,0,0,-4056,0,138,165,158,137,1,8,0,1,1,0,0,4.396484385773716,0,0,0,0,0,-4,0,0,0,4,"",""
132,51560596,0,0,0,0,0,0,0,0,0,0,0,-10,1000,159,0,512,0,0,0,0,0,-4056,0,139,165,158,137,1,8,0,1,1,0,0,4.396484385773716,0,0,0,0,0,-4,0,0,0,4,"",""
133,51561908,0,0,0,0,0,0,0,0,0,0,0,-10,1000,159,0,512,0,0,0,0,0,-4056,0,139,165,158,137,1,8,0,1,1,0,0,4.396484385773716,0,0,0,0,0,-4,0,0,0,4,"",""
134,51563234,0,0,0,0,0,0,0,0,0,0,0,-10,1000,159,0,512,0,0,0,0,0,-4056,0,139,165,158,137,1,8,0,1,1,0,0,4.396484385773716,0,0,0,0,0,-4,0,0,0,4,"",""
135,51564605,0,0,0,0,0,0,0,0,0,0,0,-10,1000,159,0,512,0,0,0,0,0,-4056,0,139,165,158,137,1,8,0,1,1,0,0,4.396484385773716,0,0,0,0,0,-4,0,0,0,4,"",""
136,51565937,0,0,0,0,0,0,0,0,0,0,0,-10,1000,159,0,512,0,0,0,0,0,-4056,0,139,165,158,137,1,8,0,1,1,0,0,4.396484385773716,0,0,0,0,0,-4,0,0,0,4,"",""
137,51567395,0,0,0,0,0,0,0,0,0,0,0,-10,1000,159,0,512,0,0,0,0,0,-4056,0,139,165,158,137,1,8,0,1,1,0,0,4.396484385773716,0,0,0,0,0,-4,0,0,0,4,"",""
138,51568863,0,0,0,0,0,0,0,0,0,0,0,-10,1000,159,0,512,0,0,0,0,0,-4056,0,139,165,158,137,1,8,0,1,1,0,0,4.396484385773716,0,0,0,0,0,-4,0,0,0,4,"",""
139,51570181,0,0,0,0,0,0,0,0,0,0,0,-10,1000,159,0,512,0,0,0,0,0,-4056,0,139,165,158,137,1,8,0,1,1,0,0,4.396484385773716,0,0,0,0,0,-4,0,0,0,4,"",""
140,51571499,0,0,0,0,0,0,0,0,0,0,0,-10,1000,159,0,512,0,0,0,0,0,-4056,0,139,165,158,137,1,8,0,1,1,0,0,4.396484385773716,0,0,0,0,0,-4,0,0,0,4,"",""
141,51572830,0,0,0,0,0,0,0,0,0,0,0,-10,1000,159,0,512,0,0,0,0,0,-4056,0,140,165,158,137,1,8,0,1,1,0,0,4.396484385773716,0,0,0,0,0,-4,0,0,0,4,"",""
142,51574153,0,0,0,0,0,0,0,0,0,0,0,-10,1000,159,0,512,0,0,0,0,0,-4056,0,139,165,158,137,1,8,0,1,1,0,0,4.396484385773716,0,0,0,0,0,-4,0,0,0,4,"",""
143,51575469,0,0,0,0,0,0,0,0,0,0,0,-10,1000,159,0,512,0,0,0,0,0,-4056,0,139,165,158,137,1,8,0,1,1,0,0,4.396484385773716,0,0,0,0,0,-4,0,0,0,4,"",""
144,51576784,0,0,0,0,0,0,0,0,0,0,0,-10,1000,159,0,512,0,0,0,0,0,-4056,0,139,165,158,137,1,8,0,1,1,0,0,4.396484385773716,0,0,0,0,0,-4,0,0,0,4,"",""
145,51578104,0,0,0,0,0,0,0,0,0,0,0,-10,1000,159,0,512,0,0,0,0,0,-4056,0,139,165,158,137,1,8,0,1,1,0,0,4.396484385773716,0,0,0,0,0,-4,0,0,0,4,"",""
146,51579417,0,0,0,0,0,0,0,0,0,0,0,-10,1000,159,0,512,0,0,0,0,0,-4056,0,139,165,158,137,1,8,0,1,1,0,0,4.396484385773716,0,0,0,0,0,-4,0,0,0,4,"",""
147,51580744,0,0,0,0,0,0,0,0,0,0,0,-10,1000,159,0,512,0,0,0,0,0,-4056,0,139,165,158,137,1,8,0,1,1,0,0,4.396484385773716,0,0,0,0,0,-4,0,0,0,4,"",""
148,51582073,0,0,0,0,0,0,0,0,0,0,0,-10,1000,159,0,512,0,0,0,0,0,-4056,0,139,165,158,137,1,8,0,1,1,0,0,4.396484385773716,0,0,0,0,0,-4,0,0,0,4,"",""
149,51583404,0,0,0,0,0,0,0,0,0,0,0,-10,1000,159,0,512,0,0,0,0,0,-4056,0,138,165,158,137,1,8,0,1,1,0,0,4.396484385773716,0,0,0,0,0,-4,0,0,0,4,"",""
150,51584724,0,0,0,0,0,0,0,0,0,0,0,-10,1000,159,0,512,0,0,0,0,0,-4056,0,138,165,158,137,1,8,0,1,1,0,0,4.396484385773716,0,0,0,0,0,-4,0,0,0,4,"",""
151,51586043,0,0,0,0,0,0,0,0,0,0,0,-10,1000,159,0,512,0,0,0,0,0,-4056,0,138,165,158,137,1,8,0,1,1,0,0,4.396484385773716,0,0,0,0,0,-4,0,0,0,4,"",""
152,51587355,0,0,0,0,0,0,0,0,0,0,0,-10,1000,159,0,512,0,0,0,0,0,-4056,0,138,165,158,137,1,8,0,1,1,0,0,4.396484385773716,0,0,0,0,0,-4,0,0,0,4,"",""
153,51588670,0,0,0,0,0,0,0,0,0,0,0,-10,1000,159,0,512,0,0,0,0,0,-4056,0,138,165,158,137,1,8,0,1,1,0,0,4.396484385773716,0,0,0,0,0,-4,0,0,0,4,"",""
154,51589997,0,0,0,0,0,0,0,0,0,0,0,-10,1000,159,0,512,0,0,0,0,0,-4056,0,138,165,158,137,1,8,0,1,1,0,0,4.396484385773716,0,0,0,0,0,-4,0,0,0,4,"",""
155,51591326,0,0,0,0,0,0,0,0,0,0,0,-10,1000,159,0,512,0,0,0,0,0,-4056,0,139,165,158,137,1,8,0,1,1,0,0,4.396484385773716,0,0,0,0,0,-4,0,0,0,4,"",""
156,51592649,0,0,0,0,0,0,0,0,0,0,0,-10,1000,159,0,512,0,0,0,0,0,-4056,0,138,165,158,137,1,8,0,1,1,0,0,4.396484385773716,0,0,0,0,0,-4,0,0,0,4,"",""
157,51593968,0,0,0,0,0,0,0,0,0,0,0,-10,1000,159,0,512,0,0,0,0,0,-4056,0,139,165,158,137,1,8,0,1,1,0,0,4.396484385773716,0,0,0,0,0,-4,0,0,0,4,"",""
158,51595281,0,0,0,0,0,0,0,0,0,0,0,-10,1000,159,0,512,0,0,0,0,0,-4056,0,139,165,159,137,1,8,0,1,1,0,0,4.396484385773716,0,0,0,0,0,-4,0,0,0,4,"",""
159,51596611,0,0,0,0,0,0,0,0,0,0,0,-10,1000,159,0,512,0,0,0,0,0,-4056,0,139,165,159,137,1,8,0,1,1,0,0,4.396484385773716,0,0,0,0,0,-4,0,0,0,4,"",""
160,51598067,0,0,0,0,0,0,0,0,0,0,0,-10,1000,159,0,512,0,0,0,0,0,-4056,0,138,164,158,136,1,8,0,1,1,0,0,4.396484385773716,0,0,0,0,0,-4,0,0,0,4,"",""
161,51599538,0,0,0,0,0,0,0,0,0,0,0,-10,1000,159,0,512,0,0,0,0,0,-4056,0,139,164,158,136,1,8,0,1,1,0,0,4.396484385773716,0,0,0,0,0,-4,0,0,0,4,"",""
162,51600867,0,0,0,0,0,0,0,0,0,0,0,-10,1000,159,0,512,0,0,0,0,0,-4056,0,138,164,158,136,1,8,0,1,1,0,0,4.396484385773716,0,0,0,0,0,-4,0,0,0,4,"",""
163,51602187,0,0,0,0,0,0,0,0,0,0,0,-10,1000,159,0,512,0,0,0,0,0,-4056,0,138,164,157,136,1,8,0,1,1,0,0,4.396484385773716,0,0,0,0,0,-4,0,0,0,4,"",""
164,51603500,0,0,0,0,0,0,0,0,0,0,0,-10,1000,159,0,512,0,0,0,0,0,-4056,0,138,164,158,136,1,8,0,1,1,0,0,4.396484385773716,0,0,0,0,0,-4,0,0,0,4,"",""
165,51604814,0,0,0,0,0,0,0,0,0,0,0,-10,1000,159,0,512,0,0,0,0,0,-4056,0,139,164,158,136,1,8,0,1,1,0,0,4.396484385773716,0,0,0,0,0,-4,0,0,0,4,"",""
166,51606126,0,0,0,0,0,0,0,0,0,0,0,-10,1000,159,0,512,0,0,0,0,0,-4056,0,139,164,158,136,1,8,0,1,1,0,0,4.396484385773716,0,0,0,0,0,-4,0,0,0,4,"",""
167,51607442,0,0,0,0,0,0,0,0,0,0,0,-10,1000,159,0,512,0,0,0,0,0,-4056,0,139,164,158,136,1,8,0,1,1,0,0,4.396484385773716,0,0,0,0,0,-4,0,0,0,4,"",""
168,51608775,0,0,0,0,0,0,0,0,0,0,0,-10,1000,159,0,512,0,0,0,0,0,-4056,0,139,164,158,136,1,8,0,1,1,0,0,4.396484385773716,0,0,0,0,0,-4,0,0,0,4,"",""
169,51610128,0,0,0,0,0,0,0,0,0,0,0,-10,1000,159,0,512,0,0,0,0,0,-4056,0,139,164,158,136,1,8,0,1,1,0,0,4.396484385773716,0,0,0,0,0,-4,0,0,0,4,"",""
170,51611444,0,0,0,0,0,0,0,0,0,0,0,-10,1000,159,0,512,0,0,0,0,0,-4056,0,139,164,158,136,1,8,0,1,1,0,0,4.396484385773716,0,0,0,0,0,-4,0,0,0,4,"",""
171,51612759,0,0,0,0,0,0,0,0,0,0,0,-10,1000,159,0,512,0,0,0,0,0,-4056,0,139,164,158,136,1,8,0,1,1,0,0,4.396484385773716,0,0,0,0,0,-4,0,0,0,4,"",""
172,51614068,0,0,0,0,0,0,0,0,0,0,0,-10,1000,159,0,512,0,0,0,0,0,-4056,0,139,164,158,136,1,8,0,1,1,0,0,4.396484385773716,0,0,0,0,0,-4,0,0,0,4,"",""
173,51615379,0,0,0,0,0,0,0,0,0,0,0,-10,1000,159,0,512,0,0,0,0,0,-4056,0,139,165,158,136,1,8,0,1,1,0,0,4.396484385773716,0,0,0,0,0,-4,0,0,0,4,"",""
174,51616707,0,0,0,0,0,0,0,0,0,0,0,-10,1000,159,0,512,0,0,0,0,0,-4056,0,139,165,158,136,1,8,0,1,1,0,0,4.396484385773716,0,0,0,0,0,-4,0,0,0,4,"",""
175,51618040,0,0,0,0,0,0,0,0,0,0,0,-10,1000,159,0,512,0,0,0,0,0,-4056,0,139,165,159,136,1,8,0,1,1,0,0,4.396484385773716,0,0,0,0,0,-4,0,0,0,4,"",""
176,51619368,0,0,0,0,0,0,0,0,0,0,0,-10,1000,159,0,512,0,0,0,0,0,-4056,0,139,165,158,136,1,8,0,1,1,0,0,4.396484385773716,0,0,0,0,0,-4,0,0,0,4,"",""
177,51620694,0,0,0,0,0,0,0,0,0,0,0,-10,1000,159,0,512,0,0,0,0,0,-4056,0,139,165,158,136,1,8,0,1,1,0,0,4.396484385773716,0,0,0,0,0,-4,0,0,0,4,"",""
178,51622012,0,0,0,0,0,0,0,0,0,0,0,-10,1000,159,0,512,0,0,0,0,0,-4056,0,139,165,158,136,1,8,0,1,1,0,0,4.396484385773716,0,0,0,0,0,-4,0,0,0,4,"",""
179,51623336,0,0,0,0,0,0,0,0,0,0,0,-10,1000,159,0,512,0,0,0,0,0,-4056,0,139,165,158,136,1,8,0,1,1,0,0,4.396484385773716,0,0,0,0,0,-4,0,0,0,4,"",""
180,51624653,0,0,0,0,0,0,0,0,0,0,0,-10,1000,159,0,512,0,0,0,0,0,-4056,0,139,164,158,136,1,8,0,1,1,0,0,4.396484385773716,0,0,0,0,0,-4,0,0,0,4,"",""
181,51625986,0,0,0,0,0,0,0,0,0,0,0,-10,1000,159,0,512,0,0,0,0,0,-4056,0,139,164,158,136,1,8,0,1,1,0,0,4.396484385773716,0,0,0,0,0,-4,0,0,0,4,"",""
182,51627333,0,0,0,0,0,0,0,0,0,0,0,-10,1000,159,0,512,0,0,0,0,0,-4056,0,140,165,158,136,1,8,0,1,1,0,0,4.396484385773716,0,0,0,0,0,-4,0,0,0,4,"",""
183,51628795,0,0,0,0,0,0,0,0,0,0,0,-10,1000,159,0,512,0,0,0,0,0,-4056,0,139,165,158,136,1,8,0,1,1,0,0,4.396484385773716,0,0,0,0,0,-4,0,0,0,4,"",""
184,51630250,0,0,0,0,0,0,0,0,0,0,0,-10,1000,159,0,512,0,0,0,0,0,-4056,0,139,165,158,136,1,8,0,1,1,0,0,4.396484385773716,0,0,0,0,0,-4,0,0,0,4,"",""
185,51631568,0,0,0,0,0,0,0,0,0,0,0,-10,1000,159,0,512,0,0,0,0,0,-4056,0,139,165,158,136,1,8,0,1,1,0,0,4.396484385773716,0,0,0,0,0,-4,0,0,0,4,"",""
186,51632889,0,0,0,0,0,0,0,0,0,0,0,-10,1000,159,0,512,0,0,0,0,0,-4056,0,139,165,158,136,1,8,0,1,1,0,0,4.396484385773716,0,0,0,0,0,-4,0,0,0,4,"",""
187,51634202,0,0,0,0,0,0,0,0,0,0,0,-10,1000,159,0,512,0,0,0,0,0,-4056,0,139,164,158,136,1,8,0,1,1,0,0,4.396484385773716,0,0,0,0,0,-4,0,0,0,4,"",""
188,51635532,0,0,0,0,0,0,0,0,0,0,0,-10,1000,159,0,512,0,0,0,0,0,-4056,0,139,164,158,136,1,8,0,1,1,0,0,4.396484385773716,0,0,0,0,0,-4,0,0,0,4,"",""
189,51636881,0,0,0,0,0,0,0,0,0,0,0,-10,1000,159,0,512,0,0,0,0,0,-4056,0,139,164,158,136,1,8,0,1,1,0,0,4.396484385773716,0,0,0,0,0,-4,0,0,0,4,"",""
190,51638197,0,0,0,0,0,0,0,0,0,0,0,-10,1000,159,0,512,0,0,0,0,0,-4056,0,139,164,158,136,1,8,0,1,1,0,0,4.396484385773716,0,0,0,0,0,-4,0,0,0,4,"",""
191,51639504,0,0,0,0,0,0,0,0,0,0,0,-10,1000,159,0,512,0,0,0,0,0,-4056,0,139,164,158,136,1,8,0,1,1,0,0,4.396484385773716,0,0,0,0,0,-4,0,0,0,4,"",""
192,51640824,0,0,0,0,0,0,0,0,0,0,0,-10,1000,159,0,512,0,0,0,0,0,-4056,0,138,163,156,135,1,8,0,1,1,0,0,4.396484385773716,0,0,0,0,0,-4,0,0,0,4,"",""
193,51642141,0,0,0,0,0,0,0,0,0,0,0,-10,1000,159,0,512,0,0,0,0,0,-4056,0,137,163,156,135,1,8,0,1,1,0,0,4.396484385773716,0,0,0,0,0,-4,0,0,0,4,"",""
194,51643457,0,0,0,0,0,0,0,0,0,0,0,-10,1000,159,0,512,0,0,0,0,0,-4056,0,137,164,156,135,1,8,0,1,1,0,0,4.396484385773716,0,0,0,0,0,-4,0,0,0,4,"",""
195,51644804,0,0,0,0,0,0,0,0,0,0,0,-10,1000,159,0,512,0,0,0,0,0,-4056,0,137,164,156,135,1,8,0,1,1,0,0,4.396484385773716,0,0,0,0,0,-4,0,0,0,4,"",""
196,51646137,0,0,0,0,0,0,0,0,0,0,0,-10,1000,159,0,512,0,0,0,0,0,-4056,0,137,164,156,135,1,8,0,1,1,0,0,4.396484385773716,0,0,0,0,0,-4,0,0,0,4,"",""
197,51647456,0,0,0,0,0,0,0,0,0,0,0,-10,1000,159,0,512,0,0,0,0,0,-4056,0,137,164,156,135,1,8,0,1,1,0,0,4.396484385773716,0,0,0,0,0,-4,0,0,0,4,"",""
198,51648773,0,0,0,0,0,0,0,0,0,0,0,-10,1000,159,0,512,0,0,0,0,0,-4056,0,137,164,156,135,1,8,0,1,1,0,0,4.396484385773716,0,0,0,0,0,-4,0,0,0,4,"",""
199,51650090,0,0,0,0,0,0,0,0,0,0,0,-10,1000,159,0,512,0,0,0,0,0,-4056,0,138,164,156,135,1,8,0,1,1,0,0,4.396484385773716,0,0,0,0,0,-4,0,0,0,4,"",""
200,51651403,0,0,0,0,0,0,0,0,0,0,0,-10,1000,159,0,512,0,0,0,0,0,-4056,0,138,164,156,135,1,8,0,1,1,0,0,4.396484385773716,0,0,0,0,0,-4,0,0,0,4,"",""
201,51652729,0,0,0,0,0,0,0,0,0,0,0,-10,1000,159,0,512,0,0,0,0,0,-4056,0,137,164,156,135,1,8,0,1,1,0,0,4.396484385773716,0,0,0,0,0,-4,0,0,0,4,"",""
202,51654059,0,0,0,0,0,0,0,0,0,0,0,-10,1000,159,0,512,0,0,0,0,0,-4056,0,137,164,156,135,1,8,0,1,1,0,0,4.396484385773716,0,0,0,0,0,-4,0,0,0,4,"",""
203,51655387,0,0,0,0,0,0,0,0,0,0,0,-10,1000,159,5,512,0,0,0,0,0,-4056,0,137,164,156,135,1,8,0,1,1,0,0,4.396484385773716,0,0,0,0,0,-4,0,0,0,4,"",""
204,51656720,0,0,0,0,0,0,0,0,0,0,0,-10,1000,159,5,512,0,0,0,0,0,-4056,0,137,163,155,135,1,8,0,1,1,0,0,4.396484385773716,0,0,0,0,0,-4,0,0,0,4,"",""
205,51658173,0,0,0,0,0,0,0,0,0,0,0,-10,1000,159,5,512,0,0,0,0,0,-4056,0,137,163,155,135,1,8,0,1,1,0,0,4.396484385773716,0,0,0,0,0,-4,0,0,0,4,"",""
206,51659625,0,0,0,0,0,0,0,0,0,0,0,-10,1000,159,5,512,0,0,0,0,0,-4056,0,137,163,155,135,1,8,0,1,1,0,0,4.396484385773716,0,0,0,0,0,-4,0,0,0,4,"",""
207,51660953,0,0,0,0,0,0,0,0,0,0,0,-10,1000,159,5,512,0,0,0,0,0,-4056,0,137,163,155,135,1,8,0,1,1,0,0,4.396484385773716,0,0,0,0,0,-4,0,0,0,4,"",""
208,51662284,0,0,0,0,0,0,0,0,0,0,0,-10,1000,159,5,512,0,0,0,0,0,-4056,0,137,163,156,135,1,8,0,1,1,0,0,4.396484385773716,0,0,0,0,0,-4,0,0,0,4,"",""
209,51663628,0,0,0,0,0,0,0,0,0,0,0,-10,1000,159,5,512,0,0,0,0,0,-4056,0,137,163,156,135,1,8,0,1,1,0,0,4.396484385773716,0,0,0,0,0,-4,0,0,0,4,"",""
210,51664956,0,0,0,0,0,0,0,0,0,0,0,-10,1000,159,5,512,0,0,0,0,0,-4056,0,137,163,156,135,1,8,0,1,1,0,0,4.396484385773716,0,0,0,0,0,-4,0,0,0,4,"",""
211,51666274,0,0,0,0,0,0,0,0,0,0,0,-10,1000,159,5,512,0,0,0,0,0,-4056,0,137,163,156,135,1,8,0,1,1,0,0,4.396484385773716,0,0,0,0,0,-4,0,0,0,4,"",""
212,51667587,0,0,0,0,0,0,0,0,0,0,0,-10,1000,159,5,512,0,0,0,0,0,-4056,0,137,163,156,135,1,8,0,1,1,0,0,4.396484385773716,0,0,0,0,0,-4,0,0,0,4,"",""
213,51668907,0,0,0,0,0,0,0,0,0,0,0,-10,1000,159,5,512,0,0,0,0,0,-4056,0,137,163,156,135,1,8,0,1,1,0,0,4.396484385773716,0,0,0,0,0,-4,0,0,0,4,"",""
214,51670228,0,0,0,0,0,0,0,0,0,0,0,-10,1000,159,5,512,0,0,0,0,0,-4056,0,137,163,156,135,1,8,0,1,1,0,0,4.396484385773716,0,0,0,0,0,-4,0,0,0,4,"",""
215,51671557,0,0,0,0,0,0,0,0,0,0,0,-10,1000,159,5,512,0,0,0,0,0,-4056,0,137,163,156,135,1,8,0,1,1,0,0,4.396484385773716,0,0,0,0,0,-4,0,0,0,4,"",""
216,51672888,0,0,0,0,0,0,0,0,0,0,0,-10,1000,159,5,512,0,0,0,0,0,-4056,0,136,162,156,135,1,8,0,1,1,0,0,4.396484385773716,0,0,0,0,0,-4,0,0,0,4,"",""
217,51674210,0,0,0,0,0,0,0,0,0,0,0,-10,1000,159,5,512,0,0,0,0,0,-4056,0,137,162,156,135,1,8,0,1,1,0,0,4.396484385773716,0,0,0,0,0,-4,0,0,0,4,"",""
218,51675523,0,0,0,0,0,0,0,0,0,0,0,-10,1000,159,44,512,0,0,0,0,0,-4056,0,137,162,156,135,1,8,0,1,1,0,0,4.396484385773716,0,0,0,0,0,-4,0,0,0,4,"",""
219,51676847,0,0,0,0,0,0,0,0,0,0,0,-10,1000,159,44,512,0,0,0,0,0,-4056,0,137,163,156,135,1,8,0,1,1,0,0,4.396484385773716,0,0,0,0,0,-4,0,0,0,4,"",""
220,51678166,0,0,0,0,0,0,0,0,0,0,0,-10,1000,159,44,512,0,0,0,0,0,-4056,0,137,163,156,135,1,8,0,1,1,0,0,4.396484385773716,0,0,0,0,0,-4,0,0,0,4,"",""
221,51679480,0,0,0,0,0,0,0,0,0,0,0,-10,1000,159,44,512,0,0,0,0,0,-4056,0,137,163,156,135,1,8,0,1,1,0,0,4.396484385773716,0,0,0,0,0,-4,0,0,0,4,"",""
222,51680816,0,0,0,0,0,0,0,0,0,0,0,-10,1000,159,44,512,0,0,0,0,0,-4056,0,138,163,156,135,1,8,0,1,1,0,0,4.396484385773716,0,0,0,0,0,-4,0,0,0,4,"",""
223,51682146,0,0,0,0,0,0,0,0,0,0,0,-10,1000,159,44,512,0,0,0,0,0,-4056,0,137,163,156,135,1,8,0,1,1,0,0,4.396484385773716,0,0,0,0,0,-4,0,0,0,4,"",""
224,51683462,0,0,0,0,0,0,0,0,0,0,0,-10,1000,159,44,512,0,0,0,0,0,-4056,0,138,163,157,136,1,8,0,1,1,0,0,4.396484385773716,0,0,0,0,0,-4,0,0,0,4,"",""
225,51684783,0,0,0,0,0,0,0,0,0,0,0,-10,1000,159,44,512,0,0,0,0,0,-4056,0,139,163,157,136,1,8,0,1,1,0,0,4.396484385773716,0,0,0,0,0,-4,0,0,0,4,"",""
226,51686109,0,0,0,0,0,0,0,0,0,0,0,-10,1000,159,44,512,0,0,0,0,0,-4056,0,138,164,157,136,1,8,0,1,1,0,0,4.396484385773716,0,0,0,0,0,-4,0,0,0,4,"",""
227,51687557,0,0,0,0,0,0,0,0,0,0,0,-10,1000,159,44,512,0,0,0,0,0,-4056,0,138,163,157,136,1,8,0,1,1,0,0,4.396484385773716,0,0,0,0,0,-4,0,0,0,4,"",""
228,51689027,0,0,0,0,0,0,0,0,0,0,0,-10,1000,159,44,512,0,0,0,0,0,-4056,0,138,163,157,136,1,8,0,1,1,0,0,4.396484385773716,0,0,0,0,0,-4,0,0,0,4,"",""
229,51690358,0,0,0,0,0,0,0,0,0,0,0,-10,1000,159,44,512,0,0,0,0,0,-4056,0,138,164,157,136,1,8,0,1,1,0,0,4.396484385773716,0,0,0,0,0,-4,0,0,0,4,"",""
230,51691680,0,0,0,0,0,0,0,0,0,0,0,-10,1000,159,44,512,0,0,0,0,0,-4056,0,139,164,158,136,1,8,0,1,1,0,0,4.396484385773716,0,0,0,0,0,-4,0,0,0,4,"",""
231,51693009,0,0,0,0,0,0,0,0,0,0,0,-10,1000,159,44,512,0,0,0,0,0,-4056,0,139,164,158,136,1,8,0,1,1,0,0,4.396484385773716,0,0,0,0,0,-4,0,0,0,4,"",""
232,51694324,0,0,0,0,0,0,0,0,0,0,0,-10,1000,159,44,512,0,0,0,0,0,-4056,0,139,164,158,136,1,8,0,1,1,0,0,4.396484385773716,0,0,0,0,0,-4,0,0,0,4,"",""
233,51695641,0,0,0,0,0,0,0,0,0,0,0,-10,1000,159,5,512,0,0,0,0,0,-4056,0,139,164,158,136,1,8,0,1,1,0,0,4.396484385773716,0,0,0,0,0,-4,0,0,0,4,"",""
234,51696957,0,0,0,0,0,0,0,0,0,0,0,-10,1000,159,5,512,0,0,0,0,0,-4056,0,139,164,158,136,1,8,0,1,1,0,0,4.396484385773716,0,0,0,0,0,-4,0,0,0,4,"",""
235,51698283,0,0,0,0,0,0,0,0,0,0,0,-10,1000,159,5,512,0,0,0,0,0,-4056,0,139,164,158,136,1,8,0,1,1,0,0,4.396484385773716,0,0,0,0,0,-4,0,0,0,4,"",""
236,51699646,0,0,0,0,0,0,0,0,0,0,0,-10,1000,159,5,512,0,0,0,0,0,-4056,0,139,164,158,136,1,8,0,1,1,0,0,4.396484385773716,0,0,0,0,0,-4,0,0,0,4,"",""
237,51700973,0,0,0,0,0,0,0,0,0,0,0,-10,1000,159,5,512,0,0,0,0,0,-4056,0,139,164,158,136,1,8,0,1,1,0,0,4.396484385773716,0,0,0,0,0,-4,0,0,0,4,"",""
238,51702284,0,0,0,0,0,0,0,0,0,0,0,-10,1000,159,5,512,0,0,0,0,0,-4056,0,139,164,158,136,1,8,0,1,1,0,0,4.396484385773716,0,0,0,0,0,-4,0,0,0,4,"",""
239,51703596,0,0,0,0,0,0,0,0,0,0,0,-10,1000,159,5,512,0,0,0,0,0,-4056,0,139,164,158,136,1,8,0,1,1,0,0,4.396484385773716,0,0,0,0,0,-4,0,0,0,4,"",""
240,51704912,0,0,0,0,0,0,0,0,0,0,0,-10,1000,159,5,512,0,0,0,0,0,-4056,0,139,164,158,136,1,8,0,1,1,0,0,4.396484385773716,0,0,0,0,0,-4,0,0,0,4,"",""
241,51706229,0,0,0,0,0,0,0,0,0,0,0,-10,1000,159,5,512,0,0,0,0,0,-4056,0,139,165,158,136,1,8,0,1,1,0,0,4.396484385773716,0,0,0,0,0,-4,0,0,0,4,"",""
242,51707552,0,0,0,0,0,0,0,0,0,0,0,-10,1000,159,5,512,0,0,0,0,0,-4056,0,139,164,158,136,1,8,0,1,1,0,0,4.396484385773716,0,0,0,0,0,-4,0,0,0,4,"",""
243,51708899,0,0,0,0,0,0,0,0,0,0,0,-10,1000,159,5,512,0,0,0,0,0,-4056,0,139,164,158,136,1,8,0,1,1,0,0,4.396484385773716,0,0,0,0,0,-4,0,0,0,4,"",""
244,51710221,0,0,0,0,0,0,0,0,0,0,0,-10,1000,159,5,512,0,0,0,0,0,-4056,0,139,165,158,136,1,8,0,1,1,0,0,4.396484385773716,0,0,0,0,0,-4,0,0,0,4,"",""
245,51711538,0,0,0,0,0,0,0,0,0,0,0,-10,1000,159,5,512,0,0,0,0,0,-4056,0,139,165,158,136,1,8,0,1,1,0,0,4.396484385773716,0,0,0,0,0,-4,0,0,0,4,"",""
246,51712858,0,0,0,0,0,0,0,0,0,0,0,-10,1000,159,5,512,0,0,0,0,0,-4056,0,139,165,158,136,1,8,0,1,1,0,0,4.396484385773716,0,0,0,0,0,-4,0,0,0,4,"",""
247,51714174,0,0,0,0,0,0,0,0,0,0,0,-10,1000,159,5,512,0,0,0,0,0,-4056,0,139,164,158,136,1,8,0,1,1,0,0,4.396484385773716,0,0,0,0,0,-4,0,0,0,4,"",""
248,51715490,0,0,0,0,0,0,0,0,0,0,0,-10,1000,159,0,512,0,0,0,0,0,-4056,0,138,164,157,136,1,8,0,1,1,0,0,4.396484385773716,0,0,0,0,0,-4,0,0,0,4,"",""
249,51716839,0,0,0,0,0,0,0,0,0,0,0,-10,1000,159,0,512,0,0,0,0,0,-4056,0,139,164,158,136,1,8,0,1,1,0,0,4.396484385773716,0,0,0,0,0,-4,0,0,0,4,"",""
250,51718305,0,0,0,0,0,0,0,0,0,0,0,-10,1000,159,0,512,0,0,0,0,0,-4056,0,139,164,158,136,1,8,0,1,1,0,0,4.396484385773716,0,0,0,0,0,-4,0,0,0,4,"",""
251,51719758,0,0,0,0,0,0,0,0,0,0,0,-10,1000,159,0,512,0,0,0,0,0,-4056,0,139,165,158,136,1,8,0,1,1,0,0,4.396484385773716,0,0,0,0,0,-4,0,0,0,4,"",""
252,51721078,0,0,0,0,0,0,0,0,0,0,0,-10,1000,159,0,512,0,0,0,0,0,-4056,0,139,165,158,136,1,8,0,1,1,0,0,4.396484385773716,0,0,0,0,0,-4,0,0,0,4,"",""
253,51722392,0,0,0,0,0,0,0,0,0,0,0,-10,1000,159,0,512,0,0,0,0,0,-4056,0,139,165,158,136,1,8,0,1,1,0,0,4.396484385773716,0,0,0,0,0,-4,0,0,0,4,"",""
254,51723704,0,0,0,0,0,0,0,0,0,0,0,-10,1000,159,0,512,0,0,0,0,0,-4056,0,139,164,158,136,1,8,0,1,1,0,0,4.396484385773716,0,0,0,0,0,-4,0,0,0,4,"",""
255,51725042,0,0,0,0,0,0,0,0,0,0,0,-10,1000,159,0,512,0,0,0,0,0,-4056,0,139,164,158,136,1,8,0,1,1,0,0,4.396484385773716,0,0,0,0,0,-4,0,0,0,4,"",""
256,51726369,0,0,0,0,0,0,0,0,0,0,0,-10,1000,159,0,512,0,0,0,0,0,-4056,0,138,163,157,135,1,8,0,1,1,0,0,4.396484385773716,0,0,0,0,0,-4,0,0,0,4,"",""
257,51727688,0,0,0,0,0,0,0,0,0,0,0,-10,1000,159,0,512,0,0,0,0,0,-4056,0,138,163,157,135,1,8,0,1,1,0,0,4.396484385773716,0,0,0,0,0,-4,0,0,0,4,"",""
258,51729008,0,0,0,0,0,0,0,0,0,0,0,-10,1000,159,0,512,0,0,0,0,0,-4056,0,137,163,157,135,1,8,0,1,1,0,0,4.396484385773716,0,0,0,0,0,-4,0,0,0,4,"",""
259,51730324,0,0,0,0,0,0,0,0,0,0,0,-10,1000,159,0,512,0,0,0,0,0,-4056,0,137,163,157,135,1,8,0,1,1,0,0,4.396484385773716,0,0,0,0,0,-4,0,0,0,4,"",""
260,51731640,0,0,0,0,0,0,0,0,0,0,0,-10,1000,159,0,512,0,0,0,0,0,-4056,0,138,163,157,135,1,8,0,1,1,0,0,4.396484385773716,0,0,0,0,0,-4,0,0,0,4,"",""
261,51732951,0,0,0,0,0,0,0,0,0,0,0,-10,1000,159,0,512,0,0,0,0,0,-4056,0,138,163,157,135,1,8,0,1,1,0,0,4.396484385773716,0,0,0,0,0,-4,0,0,0,4,"",""
262,51734286,0,0,0,0,0,0,0,0,0,0,0,-10,1000,159,0,512,0,0,0,0,0,-4056,0,138,164,157,135,1,8,0,1,1,0,0,4.396484385773716,0,0,0,0,0,-4,0,0,0,4,"",""
263,51735614,0,0,0,0,0,0,0,0,0,0,0,-10,1000,159,0,512,0,0,0,0,0,-4056,0,138,164,157,135,1,8,0,1,1,0,0,4.396484385773716,0,0,0,0,0,-4,0,0,0,4,"",""
264,51736937,0,0,0,0,0,0,0,0,0,0,0,-10,1000,159,0,512,0,0,0,0,0,-4056,0,139,164,157,135,1,8,0,1,1,0,0,4.396484385773716,0,0,0,0,0,-4,0,0,0,4,"",""
265,51738258,0,0,0,0,0,0,0,0,0,0,0,-10,1000,159,0,512,0,0,0,0,0,-4056,0,138,164,157,135,1,8,0,1,1,0,0,4.396484385773716,0,0,0,0,0,-4,0,0,0,4,"",""
266,51739571,0,0,0,0,0,0,0,0,0,0,0,-10,1000,159,0,512,0,0,0,0,0,-4056,0,138,164,157,135,1,8,0,1,1,0,0,4.396484385773716,0,0,0,0,0,-4,0,0,0,4,"",""
267,51740898,0,0,0,0,0,0,0,0,0,0,0,-10,1000,159,0,512,0,0,0,0,0,-4056,0,138,164,157,135,1,8,0,1,1,0,0,4.396484385773716,0,0,0,0,0,-4,0,0,0,4,"",""
268,51742211,0,0,0,0,0,0,0,0,0,0,0,-10,1000,159,0,512,0,0,0,0,0,-4056,0,138,164,157,135,1,8,0,1,1,0,0,4.396484385773716,0,0,0,0,0,-4,0,0,0,4,"",""
269,51743537,0,0,0,0,0,0,0,0,0,0,0,-10,1000,159,0,512,0,0,0,0,0,-4056,0,138,164,157,135,1,8,0,1,1,0,0,4.396484385773716,0,0,0,0,0,-4,0,0,0,4,"",""
270,51744891,0,0,0,0,0,0,0,0,0,0,0,-10,1000,159,0,512,0,0,0,0,0,-4056,0,137,164,157,135,1,8,0,1,1,0,0,4.396484385773716,0,0,0,0,0,-4,0,0,0,4,"",""
271,51746209,0,0,0,0,0,0,0,0,0,0,0,-10,1000,159,0,512,0,0,0,0,0,-4056,0,137,163,157,135,1,8,0,1,1,0,0,4.396484385773716,0,0,0,0,0,-4,0,0,0,4,"",""
272,51747532,0,0,0,0,0,0,0,0,0,0,0,-10,1000,159,0,512,0,0,0,0,0,-4056,0,138,163,157,135,1,8,0,1,1,0,0,4.396484385773716,0,0,0,0,0,-4,0,0,0,4,"",""
273,51748990,0,0,0,0,0,0,0,0,0,0,0,-10,1000,159,0,512,0,0,0,0,0,-4056,0,137,163,157,135,1,8,0,1,1,0,0,4.396484385773716,0,0,0,0,0,-4,0,0,0,4,"",""
274,51750442,0,0,0,0,0,0,0,0,0,0,0,-10,1000,159,0,512,0,0,0,0,0,-4056,0,137,163,157,135,1,8,0,1,1,0,0,4.396484385773716,0,0,0,0,0,-4,0,0,0,4,"",""
275,51751770,0,0,0,0,0,0,0,0,0,0,0,-10,1000,159,0,512,0,0,0,0,0,-4056,0,138,164,157,135,1,8,0,1,1,0,0,4.396484385773716,0,0,0,0,0,-4,0,0,0,4,"",""
276,51753102,0,0,0,0,0,0,0,0,0,0,0,-10,1000,159,0,512,0,0,0,0,0,-4056,0,137,163,157,135,1,8,0,1,1,0,0,4.396484385773716,0,0,0,0,0,-4,0,0,0,4,"",""
277,51754433,0,0,0,0,0,0,0,0,0,0,0,-10,1000,159,0,512,0,0,0,0,0,-4056,0,138,164,157,135,1,8,0,1,1,0,0,4.396484385773716,0,0,0,0,0,-4,0,0,0,4,"",""
278,51755751,0,0,0,0,0,0,0,0,0,0,0,-10,1000,159,11,512,0,0,0,0,0,-4056,0,138,164,157,135,1,8,0,1,1,0,0,4.396484385773716,0,0,0,0,0,-4,0,0,0,4,"",""
279,51757069,0,0,0,0,0,0,0,0,0,0,0,-10,1000,159,11,512,0,0,0,0,0,-4056,0,138,163,157,135,1,8,0,1,1,0,0,4.396484385773716,0,0,0,0,0,-4,0,0,0,4,"",""
280,51758378,0,0,0,0,0,0,0,0,0,0,0,-10,1000,159,11,512,0,0,0,0,0,-4056,0,138,163,157,135,1,8,0,1,1,0,0,4.396484385773716,0,0,0,0,0,-4,0,0,0,4,"",""
281,51759694,0,0,0,0,0,0,0,0,0,0,0,-10,1000,159,11,512,0,0,0,0,0,-4056,0,138,163,157,135,1,8,0,1,1,0,0,4.396484385773716,0,0,0,0,0,-4,0,0,0,4,"",""
282,51761029,0,0,0,0,0,0,0,0,0,0,0,-10,1000,159,11,512,0,0,0,0,0,-4056,0,138,163,157,135,1,8,0,1,1,0,0,4.396484385773716,0,0,0,0,0,-4,0,0,0,4,"",""
283,51762358,0,0,0,0,0,0,0,0,0,0,0,-10,1000,159,11,512,0,0,0,0,0,-4056,0,137,163,157,135,1,8,0,1,1,0,0,4.396484385773716,0,0,0,0,0,-4,0,0,0,4,"",""
284,51763698,0,0,0,0,0,0,0,0,0,0,0,-10,1000,159,11,512,0,0,0,0,0,-4056,0,137,163,157,135,1,8,0,1,1,0,0,4.396484385773716,0,0,0,0,0,-4,0,0,0,4,"",""
285,51765026,0,0,0,0,0,0,0,0,0,0,0,-10,1000,159,11,512,0,0,0,0,0,-4056,0,137,164,157,135,1,8,0,1,1,0,0,4.396484385773716,0,0,0,0,0,-4,0,0,0,4,"",""
286,51766342,0,0,0,0,0,0,0,0,0,0,0,-10,1000,159,11,512,0,0,0,0,0,-4056,0,137,164,157,135,1,8,0,1,1,0,0,4.396484385773716,0,0,0,0,0,-4,0,0,0,4,"",""
287,51767656,0,0,0,0,0,0,0,0,0,0,0,-10,1000,159,11,512,0,0,0,0,0,-4056,0,138,164,157,135,1,8,0,1,1,0,0,4.396484385773716,0,0,0,0,0,-4,0,0,0,4,"",""
288,51768972,0,0,0,0,0,0,0,0,0,0,0,-10,1000,159,11,512,0,0,0,0,0,-4056,0,138,164,157,135,1,8,0,1,1,0,0,4.396484385773716,0,0,0,0,0,-4,0,0,0,4,"",""
289,51770302,0,0,0,0,0,0,0,0,0,0,0,-10,1000,159,11,512,0,0,0,0,0,-4056,0,138,164,157,135,1,8,0,1,1,0,0,4.396484385773716,0,0,0,0,0,-4,0,0,0,4,"",""
290,51771677,0,0,0,0,0,0,0,0,0,0,0,-10,1000,159,11,512,0,0,0,0,0,-4056,0,137,164,156,135,1,8,0,1,1,0,0,4.396484385773716,0,0,0,0,0,-4,0,0,0,4,"",""
291,51772997,0,0,0,0,0,0,0,0,0,0,0,-10,1000,159,11,512,0,0,0,0,0,-4056,0,137,163,156,135,1,8,0,1,1,0,0,4.396484385773716,0,0,0,0,0,-4,0,0,0,4,"",""
292,51774317,0,0,0,0,0,0,0,0,0,0,0,-10,1000,159,11,512,0,0,0,0,0,-4056,0,137,163,156,135,1,8,0,1,1,0,0,4.396484385773716,0,0,0,0,0,-4,0,0,0,4,"",""
293,51775632,0,0,0,0,0,0,0,0,0,0,0,-10,1000,159,0,512,0,0,0,0,0,-4056,0,137,163,156,135,1,8,0,1,1,0,0,4.396484385773716,0,0,0,0,0,-4,0,0,0,4,"",""
294,51776958,0,0,0,0,0,0,0,0,0,0,0,-10,1000,159,0,512,0,0,0,0,0,-4056,0,137,163,156,135,1,8,0,1,1,0,0,4.396484385773716,0,0,0,0,0,-4,0,0,0,4,"",""
295,51778417,0,0,0,0,0,0,0,0,0,0,0,-10,1000,159,0,512,0,0,0,0,0,-4056,0,138,164,157,135,1,8,0,1,1,0,0,4.396484385773716,0,0,0,0,0,-4,0,0,0,4,"",""
296,51779896,0,0,0,0,0,0,0,0,0,0,0,-10,1000,159,0,512,0,0,0,0,0,-4056,0,138,164,157,135,1,8,0,1,1,0,0,4.396484385773716,0,0,0,0,0,-4,0,0,0,4,"",""
297,51781226,0,0,0,0,0,0,0,0,0,0,0,-10,1000,159,0,512,0,0,0,0,0,-4056,0,138,164,157,135,1,8,0,1,1,0,0,4.396484385773716,0,0,0,0,0,-4,0,0,0,4,"",""
298,51782545,0,0,0,0,0,0,0,0,0,0,0,-10,1000,159,0,512,0,0,0,0,0,-4056,0,138,164,156,135,1,8,0,1,1,0,0,4.396484385773716,0,0,0,0,0,-4,0,0,0,4,"",""
299,51783864,0,0,0,0,0,0,0,0,0,0,0,-10,1000,159,0,512,0,0,0,0,0,-4056,0,137,164,156,135,1,8,0,1,1,0,0,4.396484385773716,0,0,0,0,0,-4,0,0,0,4,"",""
300,51785177,0,0,0,0,0,0,0,0,0,0,0,-10,1000,159,0,512,0,0,0,0,0,-4056,0,137,164,156,135,1,8,0,1,1,0,0,4.396484385773716,0,0,0,0,0,-4,0,0,0,4,"",""
301,51786487,0,0,0,0,0,0,0,0,0,0,0,-10,1000,159,0,512,0,0,0,0,0,-4056,0,137,163,156,135,1,8,0,1,1,0,0,4.396484385773716,0,0,0,0,0,-4,0,0,0,4,"",""
302,51787816,0,0,0,0,0,0,0,0,0,0,0,-10,1000,159,0,512,0,0,0,0,0,-4056,0,137,163,156,135,1,8,0,1,1,0,0,4.396484385773716,0,0,0,0,0,-4,0,0,0,4,"",""
303,51789156,0,0,0,0,0,0,0,0,0,0,0,-10,1000,159,0,512,0,0,0,0,0,-4056,0,137,164,156,135,1,8,0,1,1,0,0,4.396484385773716,0,0,0,0,0,-4,0,0,0,4,"",""
304,51790481,0,0,0,0,0,0,0,0,0,0,0,-10,1000,159,0,512,0,0,0,0,0,-4056,0,138,164,156,135,1,8,0,1,1,0,0,4.396484385773716,0,0,0,0,0,-4,0,0,0,4,"",""
305,51791804,0,0,0,0,0,0,0,0,0,0,0,-10,1000,159,0,512,0,0,0,0,0,-4056,0,138,164,156,135,1,8,0,1,1,0,0,4.396484385773716,0,0,0,0,0,-4,0,0,0,4,"",""
306,51793123,0,0,0,0,0,0,0,0,0,0,0,-10,1000,159,0,512,0,0,0,0,0,-4056,0,138,164,156,135,1,8,0,1,1,0,0,4.396484385773716,0,0,0,0,0,-4,0,0,0,4,"",""
307,51794438,0,0,0,0,0,0,0,0,0,0,0,-10,1000,159,0,512,0,0,0,0,0,-4056,0,138,164,157,135,1,8,0,1,1,0,0,4.396484385773716,0,0,0,0,0,-4,0,0,0,4,"",""
308,51795750,0,0,0,0,0,0,0,0,0,0,0,-10,1000,159,0,512,0,0,0,0,0,-4056,0,138,164,157,135,1,8,0,1,1,0,0,4.396484385773716,0,0,0,0,0,-4,0,0,0,4,"",""
309,51797083,0,0,0,0,0,0,0,0,0,0,0,-10,1000,159,0,512,0,0,0,0,0,-4056,0,137,164,156,135,1,8,0,1,1,0,0,4.396484385773716,0,0,0,0,0,-4,0,0,0,4,"",""
310,51798408,0,0,0,0,0,0,0,0,0,0,0,-10,1000,159,0,512,0,0,0,0,0,-4056,0,137,163,156,135,1,8,0,1,1,0,0,4.396484385773716,0,0,0,0,0,-4,0,0,0,4,"",""
311,51799735,0,0,0,0,0,0,0,0,0,0,0,-10,1000,159,0,512,0,0,0,0,0,-4056,0,137,163,156,135,1,8,0,1,1,0,0,4.396484385773716,0,0,0,0,0,-4,0,0,0,4,"",""
312,51801051,0,0,0,0,0,0,0,0,0,0,0,-10,1000,159,0,512,0,0,0,0,0,-4056,0,137,163,156,135,1,8,0,1,1,0,0,4.396484385773716,0,0,0,0,0,-4,0,0,0,4,"",""
313,51802360,0,0,0,0,0,0,0,0,0,0,0,-10,1000,159,0,512,0,0,0,0,0,-4056,0,137,163,156,135,1,8,0,1,1,0,0,4.396484385773716,0,0,0,0,0,-4,0,0,0,4,"",""
314,51803672,0,0,0,0,0,0,0,0,0,0,0,-10,1000,159,0,512,0,0,0,0,0,-4056,0,137,163,156,135,1,8,0,1,1,0,0,4.396484385773716,0,0,0,0,0,-4,0,0,0,4,"",""
315,51804990,0,0,0,0,0,0,0,0,0,0,0,-10,1000,159,0,512,0,0,0,0,0,-4056,0,137,163,156,135,1,8,0,1,1,0,0,4.396484385773716,0,0,0,0,0,-4,0,0,0,4,"",""
316,51806318,0,0,0,0,0,0,0,0,0,0,0,-10,1000,159,0,512,0,0,0,0,0,-4056,0,137,162,156,135,1,8,0,1,1,0,0,4.396484385773716,0,0,0,0,0,-4,0,0,0,4,"",""
317,51807671,0,0,0,0,0,0,0,0,0,0,0,-10,1000,159,0,512,0,0,0,0,0,-4056,0,137,163,156,135,1,8,0,1,1,0,0,4.396484385773716,0,0,0,0,0,-4,0,0,0,4,"",""
318,51809130,0,0,0,0,0,0,0,0,0,0,0,-10,1000,159,0,512,0,0,0,0,0,-4056,0,138,163,156,135,1,8,0,1,1,0,0,4.396484385773716,0,0,0,0,0,-4,0,0,0,4,"",""
319,51810583,0,0,0,0,0,0,0,0,0,0,0,-10,1000,159,0,512,0,0,0,0,0,-4056,0,137,163,156,135,1,8,0,1,1,0,0,4.396484385773716,0,0,0,0,0,-4,0,0,0,4,"",""
320,51811904,0,0,0,0,0,0,0,0,0,0,0,-10,1000,159,0,512,0,0,0,0,0,-4056,0,138,163,156,135,1,8,0,1,1,0,0,4.396484385773716,0,0,0,0,0,-4,0,0,0,4,"",""
321,51813228,0,0,0,0,0,0,0,0,0,0,0,-10,1000,159,0,512,0,0,0,0,0,-4056,0,138,163,157,135,1,8,0,1,1,0,0,4.396484385773716,0,0,0,0,0,-4,0,0,0,4,"",""
322,51814548,0,0,0,0,0,0,0,0,0,0,0,-10,1000,159,0,512,0,0,0,0,0,-4056,0,138,163,156,135,1,8,0,1,1,0,0,4.396484385773716,0,0,0,0,0,-4,0,0,0,4,"",""
323,51815879,0,0,0,0,0,0,0,0,0,0,0,-10,1000,159,0,512,0,0,0,0,0,-4056,0,138,163,156,135,1,8,0,1,1,0,0,4.396484385773716,0,0,0,0,0,-4,0,0,0,4,"",""
324,51817206,0,0,0,0,0,0,0,0,0,0,0,-10,1000,159,0,512,0,0,0,0,0,-4056,0,138,163,156,135,1,8,0,1,1,0,0,4.396484385773716,0,0,0,0,0,-4,0,0,0,4,"",""
325,51818525,0,0,0,0,0,0,0,0,0,0,0,-10,1000,159,0,512,0,0,0,0,0,-4056,0,138,163,157,135,1,8,0,1,1,0,0,4.396484385773716,0,0,0,0,0,-4,0,0,0,4,"",""
326,51819840,0,0,0,0,0,0,0,0,0,0,0,-10,1000,159,0,512,0,0,0,0,0,-4056,0,138,163,157,135,1,8,0,1,1,0,0,4.396484385773716,0,0,0,0,0,-4,0,0,0,4,"",""
327,51821153,0,0,0,0,0,0,0,0,0,0,0,-10,1000,159,0,512,0,0,0,0,0,-4056,0,138,163,157,135,1,8,0,1,1,0,0,4.396484385773716,0,0,0,0,0,-4,0,0,0,4,"",""
328,51822466,0,0,0,0,0,0,0,0,0,0,0,-10,1000,159,0,512,0,0,0,0,0,-4056,0,138,163,156,135,1,8,0,1,1,0,0,4.396484385773716,0,0,0,0,0,-4,0,0,0,4,"",""
329,51823795,0,0,0,0,0,0,0,0,0,0,0,-10,1000,159,0,512,0,0,0,0,0,-4056,0,137,163,156,135,1,8,0,1,1,0,0,4.396484385773716,0,0,0,0,0,-4,0,0,0,4,"",""
330,51825119,0,0,0,0,0,0,0,0,0,0,0,-10,1000,159,0,512,0,0,0,0,0,-4056,0,137,163,156,135,1,8,0,1,1,0,0,4.396484385773716,0,0,0,0,0,-4,0,0,0,4,"",""
331,51826449,0,0,0,0,0,0,0,0,0,0,0,-10,1000,159,0,512,0,0,0,0,0,-4056,0,137,163,157,135,1,8,0,1,1,0,0,4.396484385773716,0,0,0,0,0,-4,0,0,0,4,"",""
332,51827771,0,0,0,0,0,0,0,0,0,0,0,-10,1000,159,0,512,0,0,0,0,0,-4056,0,137,163,157,135,1,8,0,1,1,0,0,4.396484385773716,0,0,0,0,0,-4,0,0,0,4,"",""
333,51829087,0,0,0,0,0,0,0,0,0,0,0,-10,1000,159,0,512,0,0,0,0,0,-4056,0,138,163,157,135,1,8,0,1,1,0,0,4.396484385773716,0,0,0,0,0,-4,0,0,0,4,"",""
334,51830400,0,0,0,0,0,0,0,0,0,0,0,-10,1000,159,0,512,0,0,0,0,0,-4056,0,138,163,157,135,1,8,0,1,1,0,0,4.396484385773716,0,0,0,0,0,-4,0,0,0,4,"",""
335,51831720,0,0,0,0,0,0,0,0,0,0,0,-10,1000,159,0,512,0,0,0,0,0,-4056,0,138,163,157,135,1,8,0,1,1,0,0,4.396484385773716,0,0,0,0,0,-4,0,0,0,4,"",""
336,51833052,0,0,0,0,0,0,0,0,0,0,0,-10,1000,159,0,512,0,0,0,0,0,-4056,0,138,163,157,135,1,8,0,1,1,0,0,4.396484385773716,0,0,0,0,0,-4,0,0,0,4,"",""
337,51834386,0,0,0,0,0,0,0,0,0,0,0,-10,1000,159,0,512,0,0,0,0,0,-4056,0,138,163,157,135,1,8,0,1,1,0,0,4.396484385773716,0,0,0,0,0,-4,0,0,0,4,"",""
338,51835704,0,0,0,0,0,0,0,0,0,0,0,-10,1000,159,0,512,0,0,0,0,0,-4056,0,137,163,157,135,1,8,0,1,1,0,0,4.396484385773716,0,0,0,0,0,-4,0,0,0,4,"",""
339,51837033,0,0,0,0,0,0,0,0,0,0,0,-10,1000,159,0,512,0,0,0,0,0,-4056,0,137,163,157,135,1,8,0,1,1,0,0,4.396484385773716,0,0,0,0,0,-4,0,0,0,4,"",""
340,51838496,0,0,0,0,0,0,0,0,0,0,0,-10,1000,159,0,512,0,0,0,0,0,-4056,0,138,163,157,135,1,8,0,1,1,0,0,4.396484385773716,0,0,0,0,0,-4,0,0,0,4,"",""
341,51839949,0,0,0,0,0,0,0,0,0,0,0,-10,1000,159,0,512,0,0,0,0,0,-4056,0,137,163,157,135,1,8,0,1,1,0,0,4.396484385773716,0,0,0,0,0,-4,0,0,0,4,"",""
342,51841263,0,0,0,0,0,0,0,0,0,0,0,-10,1000,159,0,512,0,0,0,0,0,-4056,0,138,163,157,135,1,8,0,1,1,0,0,4.396484385773716,0,0,0,0,0,-4,0,0,0,4,"",""
343,51842596,0,0,0,0,0,0,0,0,0,0,0,-10,1000,159,0,512,0,0,0,0,0,-4056,0,138,164,157,135,1,8,0,1,1,0,0,4.396484385773716,0,0,0,0,0,-4,0,0,0,4,"",""
344,51843934,0,0,0,0,0,0,0,0,0,0,0,-10,1000,159,0,512,0,0,0,0,0,-4056,0,138,164,157,135,1,8,0,1,1,0,0,4.396484385773716,0,0,0,0,0,-4,0,0,0,4,"",""
345,51845248,0,0,0,0,0,0,0,0,0,0,0,-10,1000,159,0,512,0,0,0,0,0,-4056,0,138,164,157,135,1,8,0,1,1,0,0,4.396484385773716,0,0,0,0,0,-4,0,0,0,4,"",""
346,51846561,0,0,0,0,0,0,0,0,0,0,0,-10,1000,159,0,512,0,0,0,0,0,-4056,0,138,164,157,135,1,8,0,1,1,0,0,4.396484385773716,0,0,0,0,0,-4,0,0,0,4,"",""
347,51847877,0,0,0,0,0,0,0,0,0,0,0,-10,1000,159,0,512,0,0,0,0,0,-4056,0,138,164,157,135,1,8,0,1,1,0,0,4.396484385773716,0,0,0,0,0,-4,0,0,0,4,"",""
348,51849194,0,0,0,0,0,0,0,0,0,0,0,-10,1000,159,0,512,0,0,0,0,0,-4056,0,138,164,157,135,1,8,0,1,1,0,0,4.396484385773716,0,0,0,0,0,-4,0,0,0,4,"",""
349,51850512,0,0,0,0,0,0,0,0,0,0,0,-10,1000,159,0,512,0,0,0,0,0,-4056,0,138,164,157,135,1,8,0,1,1,0,0,4.396484385773716,0,0,0,0,0,-4,0,0,0,4,"",""
350,51851844,0,0,0,0,0,0,0,0,0,0,0,-10,1000,159,0,512,0,0,0,0,0,-4056,0,138,164,157,135,1,8,0,1,1,0,0,4.396484385773716,0,0,0,0,0,-4,0,0,0,4,"",""
351,51853184,0,0,0,0,0,0,0,0,0,0,0,-10,1000,159,0,512,0,0,0,0,0,-4056,0,138,164,157,135,1,8,0,1,1,0,0,4.396484385773716,0,0,0,0,0,-4,0,0,0,4,"",""
352,51854506,0,0,0,0,0,0,0,0,0,0,0,-10,1000,159,0,512,0,0,0,0,0,-4056,0,138,164,157,135,1,8,0,1,1,0,0,4.396484385773716,0,0,0,0,0,-4,0,0,0,4,"",""
353,51855826,0,0,0,0,0,0,0,0,0,0,0,-10,1000,159,0,512,0,0,0,0,0,-4056,0,138,164,157,135,1,8,0,1,1,0,0,4.396484385773716,0,0,0,0,0,-4,0,0,0,4,"",""
354,51857139,0,0,0,0,0,0,0,0,0,0,0,-10,1000,159,0,512,0,0,0,0,0,-4056,0,138,164,157,135,1,8,0,1,1,0,0,4.396484385773716,0,0,0,0,0,-4,0,0,0,4,"",""
355,51858456,0,0,0,0,0,0,0,0,0,0,0,-10,1000,159,0,512,0,0,0,0,0,-4056,0,138,164,157,135,1,8,0,1,1,0,0,4.396484385773716,0,0,0,0,0,-4,0,0,0,4,"",""
356,51859784,0,0,0,0,0,0,0,0,0,0,0,-10,1000,159,0,512,0,0,0,0,0,-4056,0,138,164,157,135,1,8,0,1,1,0,0,4.396484385773716,0,0,0,0,0,-4,0,0,0,4,"",""
357,51861127,0,0,0,0,0,0,0,0,0,0,0,-10,1000,159,0,512,0,0,0,0,0,-4056,0,137,164,157,135,1,8,0,1,1,0,0,4.396484385773716,0,0,0,0,0,-4,0,0,0,4,"",""
358,51862460,0,0,0,0,0,0,0,0,0,0,0,-10,1000,159,0,512,0,0,0,0,0,-4056,0,138,164,157,135,1,8,0,1,1,0,0,4.396484385773716,0,0,0,0,0,-4,0,0,0,4,"",""
359,51863778,0,0,0,0,0,0,0,0,0,0,0,-10,1000,159,0,512,0,0,0,0,0,-4056,0,138,164,157,135,1,8,0,1,1,0,0,4.396484385773716,0,0,0,0,0,-4,0,0,0,4,"",""
360,51865094,0,0,0,0,0,0,0,0,0,0,0,-10,1000,159,0,512,0,0,0,0,0,-4056,0,138,164,157,135,1,8,0,1,1,0,0,4.396484385773716,0,0,0,0,0,-4,0,0,0,4,"",""
361,51866411,0,0,0,0,0,0,0,0,0,0,0,-10,1000,159,0,512,0,0,0,0,0,-4056,0,138,164,157,135,1,8,0,1,1,0,0,4.396484385773716,0,0,0,0,0,-4,0,0,0,4,"",""
362,51867736,0,0,0,0,0,0,0,0,0,0,0,-10,1000,159,0,512,0,0,0,0,0,-4056,0,139,164,157,135,1,8,0,1,1,0,0,4.396484385773716,0,0,0,0,0,-4,0,0,0,4,"",""
363,51869216,0,0,0,0,0,0,0,0,0,0,0,-10,1000,159,0,512,0,0,0,0,0,-4056,0,137,163,157,135,1,8,0,1,1,0,0,4.396484385773716,0,0,0,0,0,-4,0,0,0,4,"",""
364,51870693,0,0,0,0,0,0,0,0,0,0,0,-10,1000,159,0,512,0,0,0,0,0,-4056,0,137,163,157,135,1,8,0,1,1,0,0,4.396484385773716,0,0,0,0,0,-4,0,0,0,4,"",""
365,51872017,0,0,0,0,0,0,0,0,0,0,0,-10,1000,159,0,512,0,0,0,0,0,-4056,0,137,163,157,135,1,8,0,1,1,0,0,4.396484385773716,0,0,0,0,0,-4,0,0,0,4,"",""
366,51873336,0,0,0,0,0,0,0,0,0,0,0,-10,1000,159,0,512,0,0,0,0,0,-4056,0,137,164,157,135,1,8,0,1,1,0,0,4.396484385773716,0,0,0,0,0,-4,0,0,0,4,"",""
367,51874647,0,0,0,0,0,0,0,0,0,0,0,-10,1000,159,0,512,0,0,0,0,0,-4056,0,137,164,156,135,1,8,0,1,1,0,0,4.396484385773716,0,0,0,0,0,-4,0,0,0,4,"",""
368,51875957,0,0,0,0,0,0,0,0,0,0,0,-10,1000,159,39,512,0,0,0,0,0,-4056,0,137,164,157,135,1,8,0,1,1,0,0,4.396484385773716,0,0,0,0,0,-4,0,0,0,4,"",""
369,51877273,0,0,0,0,0,0,0,0,0,0,0,-10,1000,159,39,512,0,0,0,0,0,-4056,0,138,164,157,135,1,8,0,1,1,0,0,4.396484385773716,0,0,0,0,0,-4,0,0,0,4,"",""
370,51878607,0,0,0,0,0,0,0,0,0,0,0,-10,1000,159,39,512,0,0,0,0,0,-4056,0,138,164,157,135,1,8,0,1,1,0,0,4.396484385773716,0,0,0,0,0,-4,0,0,0,4,"",""
371,51879944,0,0,0,0,0,0,0,0,0,0,0,-10,1000,159,39,512,0,0,0,0,0,-4056,0,137,164,156,135,1,8,0,1,1,0,0,4.396484385773716,0,0,0,0,0,-4,0,0,0,4,"",""
372,51881263,0,0,0,0,0,0,0,0,0,0,0,-10,1000,159,39,512,0,0,0,0,0,-4056,0,137,164,156,135,1,8,0,1,1,0,0,4.396484385773716,0,0,0,0,0,-4,0,0,0,4,"",""
373,51882573,0,0,0,0,0,0,0,0,0,0,0,-10,1000,159,39,512,0,0,0,0,0,-4056,0,138,164,156,135,1,8,0,1,1,0,0,4.396484385773716,0,0,0,0,0,-4,0,0,0,4,"",""
374,51883884,0,0,0,0,0,0,0,0,0,0,0,-10,1000,159,39,512,0,0,0,0,0,-4056,0,137,164,156,135,1,8,0,1,1,0,0,4.396484385773716,0,0,0,0,0,-4,0,0,0,4,"",""
375,51885212,0,0,0,0,0,0,0,0,0,0,0,-10,1000,159,39,512,0,0,0,0,0,-4056,0,137,163,156,135,1,8,0,1,1,0,0,4.396484385773716,0,0,0,0,0,-4,0,0,0,4,"",""
376,51886532,0,0,0,0,0,0,0,0,0,0,0,-10,1000,159,39,512,0,0,0,0,0,-4056,0,137,163,156,135,1,8,0,1,1,0,0,4.396484385773716,0,0,0,0,0,-4,0,0,0,4,"",""
377,51887858,0,0,0,0,0,0,0,0,0,0,0,-10,1000,159,39,512,0,0,0,0,0,-4056,0,138,164,156,135,1,8,0,1,1,0,0,4.396484385773716,0,0,0,0,0,-4,0,0,0,4,"",""
378,51889191,0,0,0,0,0,0,0,0,0,0,0,-10,1000,159,39,512,0,0,0,0,0,-4056,0,138,164,156,135,1,8,0,1,1,0,0,4.396484385773716,0,0,0,0,0,-4,0,0,0,4,"",""
379,51890511,0,0,0,0,0,0,0,0,0,0,0,-10,1000,159,39,512,0,0,0,0,0,-4056,0,138,164,156,135,1,8,0,1,1,0,0,4.396484385773716,0,0,0,0,0,-4,0,0,0,4,"",""
380,51891826,0,0,0,0,0,0,0,0,0,0,0,-10,1000,159,39,512,0,0,0,0,0,-4056,0,138,164,156,135,1,8,0,1,1,0,0,4.396484385773716,0,0,0,0,0,-4,0,0,0,4,"",""
381,51893145,0,0,0,0,0,0,0,0,0,0,0,-10,1000,159,39,512,0,0,0,0,0,-4056,0,138,164,156,135,1,8,0,1,1,0,0,4.396484385773716,0,0,0,0,0,-4,0,0,0,4,"",""
382,51894465,0,0,0,0,0,0,0,0,0,0,0,-10,1000,159,39,512,0,0,0,0,0,-4056,0,137,163,156,135,1,8,0,1,1,0,0,4.396484385773716,0,0,0,0,0,-4,0,0,0,4,"",""
383,51895792,0,0,0,0,0,0,0,0,0,0,0,-10,1000,159,0,512,0,0,0,0,0,-4056,0,137,163,156,135,1,8,0,1,1,0,0,4.396484385773716,0,0,0,0,0,-4,0,0,0,4,"",""
384,51897128,0,0,0,0,0,0,0,0,0,0,0,-10,1000,159,0,512,0,0,0,0,0,-4056,0,138,164,157,136,1,8,0,1,1,0,0,4.396484385773716,0,0,0,0,0,-4,0,0,0,4,"",""
385,51898472,0,0,0,0,0,0,0,0,0,0,0,-10,1000,159,0,512,0,0,0,0,0,-4056,0,138,164,157,136,1,8,0,1,1,0,0,4.396484385773716,0,0,0,0,0,-4,0,0,0,4,"",""
386,51899929,0,0,0,0,0,0,0,0,0,0,0,-10,1000,159,0,512,0,0,0,0,0,-4056,0,138,164,156,136,1,8,0,1,1,0,0,4.396484385773716,0,0,0,0,0,-4,0,0,0,4,"",""
387,51901384,0,0,0,0,0,0,0,0,0,0,0,-10,1000,159,0,512,0,0,0,0,0,-4056,0,138,164,157,136,1,8,0,1,1,0,0,4.396484385773716,0,0,0,0,0,-4,0,0,0,4,"",""
388,51902697,0,0,0,0,0,0,0,0,0,0,0,-10,1000,159,0,512,0,0,0,0,0,-4056,0,139,164,157,136,1,8,0,1,1,0,0,4.396484385773716,0,0,0,0,0,-4,0,0,0,4,"",""
389,51904016,0,0,0,0,0,0,0,0,0,0,0,-10,1000,159,0,512,0,0,0,0,0,-4056,0,138,164,157,136,1,8,0,1,1,0,0,4.396484385773716,0,0,0,0,0,-4,0,0,0,4,"",""
390,51905349,0,0,0,0,0,0,0,0,0,0,0,-10,1000,159,0,512,0,0,0,0,0,-4056,0,139,165,157,136,1,8,0,1,1,0,0,4.396484385773716,0,0,0,0,0,-4,0,0,0,4,"",""
391,51906699,0,0,0,0,0,0,0,0,0,0,0,-10,1000,159,0,512,0,0,0,0,0,-4056,0,139,164,157,136,1,8,0,1,1,0,0,4.396484385773716,0,0,0,0,0,-4,0,0,0,4,"",""
