"Product","Blackbox flight data recorder by Nicholas Sherlock"
"firmwareType",3
"firmware","3.3"
"firmwarePatch",3
"firmwareVersion","3.3.3"
"Firmware revision","Betaflight 3.3.3 (6bfd3c22e) MATEKF722"
"Firmware date","May 28 2020 15:37:36"
"Log start datetime","0000-01-01T00:00:00.000+00:00"
"Craft name","neuroflight"
"frameIntervalI",32
"frameIntervalPNum",1
"frameIntervalPDenom",1
"minthrottle",1070
"maxthrottle",2000
"gyroScale",1.7453292519943295e-8
"motorOutput","138,2047"
"acc_1G",0
"vbatscale",110
"vbatmincellvoltage",33
"vbatwarningcellvoltage",35
"vbatmaxcellvoltage",43
"vbatref",145
"currentMeterOffset",0
"currentMeterScale",179
"looptime",250
"gyro_sync_denom",2
"pid_process_denom",4
"thrMid",50
"thrExpo",0
"dynThrPID",10
"tpa_breakpoint",1650
"rc_rates","100,100,100"
"rc_expo","0,0,0"
"rates","70,70,70"
"rollPID","40,40,30"
"pitchPID","58,50,35"
"yawPID","70,45,20"
"altPID","50,0,0"
"posPID","15,0,0"
"posrPID","34,14,53"
"navrPID","25,33,83"
"levelPID","50,50,75"
"magPID","40,,"
"velPID","55,55,75"
"dterm_filter_type",1
"dterm_lpf_hz",100
"yaw_lpf_hz",0
"dterm_notch_hz",260
"dterm_notch_cutoff",160
"itermWindupPointPercent",50
"vbat_pid_compensation",0
"pidAtMinThrottle",1
"anti_gravity_threshold",350
"anti_gravity_gain",1000
"setpointRelaxRatio",100
"dtermSetpointWeight",0
"yawRateAccelLimit",0.1
"rateAccelLimit",0
"pidSumLimit",500
"pidSumLimitYaw",400
"deadband",0
"yaw_deadband",0
"gyro_lpf",0
"gyro_soft_type",0
"gyro_lowpass_hz",100
"gyro_notch_hz","400,200"
"gyro_notch_cutoff","300,100"
"acc_lpf_hz",1000
"acc_hardware",1
"baro_hardware",1
"mag_hardware",1
"gyro_cal_on_first_arm",0
"rc_interpolation",2
"rc_interpolation_interval",19
"airmode_activate_throttle",32
"serialrx_provider",2
"unsynced_fast_pwm",0
"fast_pwm_protocol",7
"motor_pwm_rate",480
"digitalIdleOffset",450
"debug_mode",31
"features",4457480
"loopIteration","time","axisP[0]","axisP[1]","axisP[2]","axisI[0]","axisI[1]","axisI[2]","axisD[0]","axisD[1]","axisD[2]","rcCommand[0]","rcCommand[1]","rcCommand[2]","rcCommand[3]","vbatLatest","amperageLatest","rssi","gyroADC[0]","gyroADC[1]","gyroADC[2]","debug[0]","debug[1]","debug[2]","debug[3]","motor[0]","motor[1]","motor[2]","motor[3]","flightModeFlags","stateFlags","failsafePhase","rxSignalReceived","rxFlightChannelsValid","heading[0]","heading[1]","heading[2]","axisSum[0]","axisSum[1]","axisSum[2]","rcCommands[0]","rcCommands[1]","rcCommands[2]","rcCommands[3]","axisError[0]","axisError[1]","axisError[2]"
0,36986650,0,0,0,0,0,0,0,0,0,0,0,-7,1000,145,0,512,0,0,0,0,0,-2827,0,138,148,159,136,"","","","","",0,0,4.396484385773716,0,0,0,0,0,-3,0,0,0,3,"",""
1,36987986,0,0,0,0,0,0,0,0,0,0,0,-7,1000,145,0,512,0,0,0,0,0,-2827,0,137,147,160,136,1,8,0,1,1,0,0,4.396484385773716,0,0,0,0,0,-3,0,0,0,3,"",""
2,36989461,0,0,0,0,0,0,0,0,0,0,0,-7,1000,145,0,512,0,0,0,0,0,-2827,0,137,147,159,136,1,8,0,1,1,0,0,4.396484385773716,0,0,0,0,0,-3,0,0,0,3,"",""
3,36990917,0,0,0,0,0,0,0,0,0,0,0,-7,1000,145,0,512,0,0,0,0,0,-2827,0,137,148,159,136,1,8,0,1,1,0,0,4.396484385773716,0,0,0,0,0,-3,0,0,0,3,"",""
4,36992237,0,0,0,0,0,0,0,0,0,0,0,-7,1000,145,0,512,0,0,0,0,0,-2827,0,137,148,160,136,1,8,0,1,1,0,0,4.396484385773716,0,0,0,0,0,-3,0,0,0,3,"",""
5,36993555,0,0,0,0,0,0,0,0,0,0,0,-7,1000,145,0,512,0,0,0,0,0,-2827,0,138,148,159,136,1,8,0,1,1,0,0,4.396484385773716,0,0,0,0,0,-3,0,0,0,3,"",""
6,36994868,0,0,0,0,0,0,0,0,0,0,0,-7,1000,145,0,512,0,0,0,0,0,-2827,0,137,148,159,136,1,8,0,1,1,0,0,4.396484385773716,0,0,0,0,0,-3,0,0,0,3,"",""
7,36996195,0,0,0,0,0,0,0,0,0,0,0,-7,1000,145,0,512,0,0,0,0,0,-2827,0,137,148,159,136,1,8,0,1,1,0,0,4.396484385773716,0,0,0,0,0,-3,0,0,0,3,"",""
8,36997527,0,0,0,0,0,0,0,0,0,0,0,-7,1000,145,0,512,0,0,0,0,0,-2827,0,137,148,159,136,1,8,0,1,1,0,0,4.396484385773716,0,0,0,0,0,-3,0,0,0,3,"",""
9,36998854,0,0,0,0,0,0,0,0,0,0,0,-7,1000,145,0,512,0,0,0,0,0,-2827,0,137,148,159,136,1,8,0,1,1,0,0,4.396484385773716,0,0,0,0,0,-3,0,0,0,3,"",""
10,37000172,0,0,0,0,0,0,0,0,0,0,0,-7,1000,145,0,512,0,0,0,0,0,-2827,0,136,148,159,136,1,8,0,1,1,0,0,4.396484385773716,0,0,0,0,0,-3,0,0,0,3,"",""
11,37001482,0,0,0,0,0,0,0,0,0,0,0,-7,1000,145,0,512,0,0,0,0,0,-2827,0,137,147,159,136,1,8,0,1,1,0,0,4.396484385773716,0,0,0,0,0,-3,0,0,0,3,"",""
12,37002798,0,0,0,0,0,0,0,0,0,0,0,-7,1000,145,0,512,0,0,0,0,0,-2827,0,136,148,159,136,1,8,0,1,1,0,0,4.396484385773716,0,0,0,0,0,-3,0,0,0,3,"",""
13,37004109,0,0,0,0,0,0,0,0,0,0,0,-7,1000,145,0,512,0,0,0,0,0,-2827,0,136,147,159,136,1,8,0,1,1,0,0,4.396484385773716,0,0,0,0,0,-3,0,0,0,3,"",""
14,37005439,0,0,0,0,0,0,0,0,0,0,0,-7,1000,145,0,512,0,0,0,0,0,-2827,0,137,148,159,136,1,8,0,1,1,0,0,4.396484385773716,0,0,0,0,0,-3,0,0,0,3,"",""
15,37006769,0,0,0,0,0,0,0,0,0,0,0,-7,1000,145,0,512,0,0,0,0,0,-2827,0,136,148,159,136,1,8,0,1,1,0,0,4.396484385773716,0,0,0,0,0,-3,0,0,0,3,"",""
16,37008092,0,0,0,0,0,0,0,0,0,0,0,-7,1000,145,0,512,0,0,0,0,0,-2827,0,136,148,159,136,1,8,0,1,1,0,0,4.396484385773716,0,0,0,0,0,-3,0,0,0,3,"",""
17,37009413,0,0,0,0,0,0,0,0,0,0,0,-7,1000,145,0,512,0,0,0,0,0,-2827,0,136,148,159,136,1,8,0,1,1,0,0,4.396484385773716,0,0,0,0,0,-3,0,0,0,3,"",""
18,37010737,0,0,0,0,0,0,0,0,0,0,0,-7,1000,145,0,512,0,0,0,0,0,-2827,0,136,148,159,136,1,8,0,1,1,0,0,4.396484385773716,0,0,0,0,0,-3,0,0,0,3,"",""
19,37012049,0,0,0,0,0,0,0,0,0,0,0,-7,1000,145,0,512,0,0,0,0,0,-2827,0,136,147,159,136,1,8,0,1,1,0,0,4.396484385773716,0,0,0,0,0,-3,0,0,0,3,"",""
20,37013363,0,0,0,0,0,0,0,0,0,0,0,-7,1000,145,0,512,0,0,0,0,0,-2827,0,137,148,159,136,1,8,0,1,1,0,0,4.396484385773716,0,0,0,0,0,-3,0,0,0,3,"",""
21,37014695,0,0,0,0,0,0,0,0,0,0,0,-7,1000,145,0,512,0,0,0,0,0,-2827,0,137,148,159,136,1,8,0,1,1,0,0,4.396484385773716,0,0,0,0,0,-3,0,0,0,3,"",""
22,37016025,0,0,0,0,0,0,0,0,0,0,0,-6,1000,145,0,512,0,0,0,0,0,-2827,0,136,147,159,136,1,8,0,1,1,0,0,4.396484385773716,0,0,0,0,0,-3,0,0,0,3,"",""
23,37017347,0,0,0,0,0,0,0,0,0,0,0,-6,1000,145,0,512,0,0,0,0,0,-2420,0,137,145,157,136,1,8,0,1,1,0,0,4.396484385773716,0,0,0,0,0,-3,0,0,0,3,"",""
24,37018673,0,0,0,0,0,0,0,0,0,0,0,-6,1000,145,0,512,0,0,0,0,0,-2420,0,137,146,156,136,1,8,0,1,1,0,0,4.396484385773716,0,0,0,0,0,-3,0,0,0,3,"",""
25,37020125,0,0,0,0,0,0,0,0,0,0,0,-6,1000,145,0,512,0,0,0,0,0,-2420,0,137,145,157,136,1,8,0,1,1,0,0,4.396484385773716,0,0,0,0,0,-3,0,0,0,3,"",""
26,37021581,0,0,0,0,0,0,0,0,0,0,0,-6,1000,145,0,512,0,0,0,0,0,-2420,0,138,145,157,136,1,8,0,1,1,0,0,4.396484385773716,0,0,0,0,0,-3,0,0,0,3,"",""
27,37022899,0,0,0,0,0,0,0,0,0,0,0,-6,1000,145,0,512,0,0,0,0,0,-2420,0,138,146,157,136,1,8,0,1,1,0,0,4.396484385773716,0,0,0,0,0,-3,0,0,0,3,"",""
28,37024231,0,0,0,0,0,0,0,0,0,0,0,-6,1000,145,0,512,0,0,0,0,0,-2420,0,138,145,157,136,1,8,0,1,1,0,0,4.396484385773716,0,0,0,0,0,-3,0,0,0,3,"",""
29,37025559,0,0,0,0,0,0,0,0,0,0,0,-7,1000,145,0,512,0,0,0,0,0,-2420,0,137,146,157,136,1,8,0,1,1,0,0,4.396484385773716,0,0,0,0,0,-3,0,0,0,3,"",""
30,37026878,0,0,0,0,0,0,0,0,0,0,0,-7,1000,145,0,512,0,0,0,0,0,-2827,0,137,148,159,136,1,8,0,1,1,0,0,4.396484385773716,0,0,0,0,0,-3,0,0,0,3,"",""
31,37028191,0,0,0,0,0,0,0,0,0,0,0,-7,1000,145,0,512,0,0,0,0,0,-2827,0,136,147,159,136,1,8,0,1,1,0,0,4.396484385773716,0,0,0,0,0,-3,0,0,0,3,"",""
32,37029502,0,0,0,0,0,0,0,0,0,0,0,-7,1000,145,0,512,0,0,0,0,0,-2827,0,138,148,160,137,1,8,0,1,1,0,0,4.396484385773716,0,0,0,0,0,-3,0,0,0,3,"",""
33,37030815,0,0,0,0,0,0,0,0,0,0,0,-7,1000,145,0,512,0,0,0,0,0,-2827,0,138,148,160,137,1,8,0,1,1,0,0,4.396484385773716,0,0,0,0,0,-3,0,0,0,3,"",""
34,37032136,0,0,0,0,0,0,0,0,0,0,0,-7,1000,145,0,512,0,0,0,0,0,-2827,0,137,148,161,137,1,8,0,1,1,0,0,4.396484385773716,0,0,0,0,0,-3,0,0,0,3,"",""
35,37033474,0,0,0,0,0,0,0,0,0,0,0,-7,1000,145,0,512,0,0,0,0,0,-2827,0,138,148,161,137,1,8,0,1,1,0,0,4.396484385773716,0,0,0,0,0,-3,0,0,0,3,"",""
36,37034811,0,0,0,0,0,0,0,0,0,0,0,-7,1000,145,0,512,0,0,0,0,0,-2827,0,138,149,161,137,1,8,0,1,1,0,0,4.396484385773716,0,0,0,0,0,-3,0,0,0,3,"",""
37,37036126,0,0,0,0,0,0,0,0,0,0,0,-7,1000,145,0,512,0,0,0,0,0,-2827,0,138,148,161,137,1,8,0,1,1,0,0,4.396484385773716,0,0,0,0,0,-3,0,0,0,3,"",""
38,37037440,0,0,0,0,0,0,0,0,0,0,0,-7,1000,145,0,512,0,0,0,0,0,-2827,0,139,149,161,137,1,8,0,1,1,0,0,4.396484385773716,0,0,0,0,0,-3,0,0,0,3,"",""
39,37038753,0,0,0,0,0,0,0,0,0,0,0,-7,1000,145,0,512,0,0,0,0,0,-2827,0,139,149,161,137,1,8,0,1,1,0,0,4.396484385773716,0,0,0,0,0,-3,0,0,0,3,"",""
40,37040077,0,0,0,0,0,0,0,0,0,0,0,-7,1000,145,0,512,0,0,0,0,0,-2827,0,138,148,161,137,1,8,0,1,1,0,0,4.396484385773716,0,0,0,0,0,-3,0,0,0,3,"",""
41,37041402,0,0,0,0,0,0,0,0,0,0,0,-7,1000,145,0,512,0,0,0,0,0,-2827,0,139,149,161,137,1,8,0,1,1,0,0,4.396484385773716,0,0,0,0,0,-3,0,0,0,3,"",""
42,37042725,0,0,0,0,0,0,0,0,0,0,0,-7,1000,145,0,512,0,0,0,0,0,-2827,0,139,149,161,137,1,8,0,1,1,0,0,4.396484385773716,0,0,0,0,0,-3,0,0,0,3,"",""
43,37044047,0,0,0,0,0,0,0,0,0,0,0,-6,1000,145,0,512,0,0,0,0,0,-2827,0,139,148,161,137,1,8,0,1,1,0,0,4.396484385773716,0,0,0,0,0,-3,0,0,0,3,"",""
44,37045374,0,0,0,0,0,0,0,0,0,0,0,-6,1000,145,0,512,0,0,0,0,0,-2420,0,139,146,158,137,1,8,0,1,1,0,0,4.396484385773716,0,0,0,0,0,-3,0,0,0,3,"",""
45,37046688,0,0,0,0,0,0,0,0,0,0,0,-6,1000,145,0,512,0,0,0,0,0,-2420,0,138,147,158,137,1,8,0,1,1,0,0,4.396484385773716,0,0,0,0,0,-3,0,0,0,3,"",""
46,37048010,0,0,0,0,0,0,0,0,0,0,0,-6,1000,145,0,512,0,0,0,0,0,-2420,0,138,146,159,137,1,8,0,1,1,0,0,4.396484385773716,0,0,0,0,0,-3,0,0,0,3,"",""
47,37049463,0,0,0,0,0,0,0,0,0,0,0,-6,1000,145,0,512,0,0,0,0,0,-2420,0,140,147,159,137,1,8,0,1,1,0,0,4.396484385773716,0,0,0,0,0,-3,0,0,0,3,"",""
48,37050936,0,0,0,0,0,0,0,0,0,0,0,-6,1000,145,0,512,0,0,0,0,0,-2420,0,140,148,158,137,1,8,0,1,1,0,0,4.396484385773716,0,0,0,0,0,-3,0,0,0,3,"",""
49,37052276,0,0,0,0,0,0,0,0,0,0,0,-6,1000,145,0,512,0,0,0,0,0,-2420,0,140,148,158,137,1,8,0,1,1,0,0,4.396484385773716,0,0,0,0,0,-3,0,0,0,3,"",""
50,37053594,0,0,0,0,0,0,0,0,0,0,0,-6,1000,145,0,512,0,0,0,0,0,-2420,0,139,147,159,137,1,8,0,1,1,0,0,4.396484385773716,0,0,0,0,0,-3,0,0,0,3,"",""
51,37054908,0,0,0,0,0,0,0,0,0,0,0,-6,1000,145,0,512,0,0,0,0,0,-2420,0,139,147,158,137,1,8,0,1,1,0,0,4.396484385773716,0,0,0,0,0,-3,0,0,0,3,"",""
52,37056222,0,0,0,0,0,0,0,0,0,0,0,-6,1000,145,0,512,0,0,0,0,0,-2420,0,138,147,158,137,1,8,0,1,1,0,0,4.396484385773716,0,0,0,0,0,-3,0,0,0,3,"",""
53,37057542,0,0,0,0,0,0,0,0,0,0,0,-6,1000,145,0,512,0,0,0,0,0,-2420,0,138,147,158,137,1,8,0,1,1,0,0,4.396484385773716,0,0,0,0,0,-3,0,0,0,3,"",""
54,37058873,0,0,0,0,0,0,0,0,0,0,0,-6,1000,145,0,512,0,0,0,0,0,-2420,0,138,147,158,137,1,8,0,1,1,0,0,4.396484385773716,0,0,0,0,0,-3,0,0,0,3,"",""
55,37060206,0,0,0,0,0,0,0,0,0,0,0,-6,1000,145,0,512,0,0,0,0,0,-2420,0,138,147,158,137,1,8,0,1,1,0,0,4.396484385773716,0,0,0,0,0,-3,0,0,0,3,"",""
56,37061532,0,0,0,0,0,0,0,0,0,0,0,-7,1000,145,0,512,0,0,0,0,0,-2420,0,138,147,158,137,1,8,0,1,1,0,0,4.396484385773716,0,0,0,0,0,-3,0,0,0,3,"",""
57,37062850,0,0,0,0,0,0,0,0,0,0,0,-7,1000,145,0,512,0,0,0,0,0,-2827,0,138,149,160,137,1,8,0,1,1,0,0,4.396484385773716,0,0,0,0,0,-3,0,0,0,3,"",""
58,37064160,0,0,0,0,0,0,0,0,0,0,0,-7,1000,145,0,512,0,0,0,0,0,-2827,0,138,149,160,137,1,8,0,1,1,0,0,4.396484385773716,0,0,0,0,0,-3,0,0,0,3,"",""
59,37065477,0,0,0,0,0,0,0,0,0,0,0,-7,1000,145,0,512,0,0,0,0,0,-2827,0,138,149,160,137,1,8,0,1,1,0,0,4.396484385773716,0,0,0,0,0,-3,0,0,0,3,"",""
60,37066793,0,0,0,0,0,0,0,0,0,0,0,-7,1000,145,0,512,0,0,0,0,0,-2827,0,139,149,161,137,1,8,0,1,1,0,0,4.396484385773716,0,0,0,0,0,-3,0,0,0,3,"",""
61,37068116,0,0,0,0,0,0,0,0,0,0,0,-7,1000,145,0,512,0,0,0,0,0,-2827,0,138,149,160,137,1,8,0,1,1,0,0,4.396484385773716,0,0,0,0,0,-3,0,0,0,3,"",""
62,37069449,0,0,0,0,0,0,0,0,0,0,0,-7,1000,145,0,512,0,0,0,0,0,-2827,0,138,149,160,137,1,8,0,1,1,0,0,4.396484385773716,0,0,0,0,0,-3,0,0,0,3,"",""
63,37070784,0,0,0,0,0,0,0,0,0,0,0,-7,1000,145,0,512,0,0,0,0,0,-2827,0,138,149,160,137,1,8,0,1,1,0,0,4.396484385773716,0,0,0,0,0,-3,0,0,0,3,"",""
64,37072105,0,0,0,0,0,0,0,0,0,0,0,-7,1000,145,0,512,0,0,0,0,0,-2827,0,138,149,160,137,1,8,0,1,1,0,0,4.396484385773716,0,0,0,0,0,-3,0,0,0,3,"",""
65,37073420,0,0,0,0,0,0,0,0,0,0,0,-7,1000,145,0,512,0,0,0,0,0,-2827,0,138,149,160,137,1,8,0,1,1,0,0,4.396484385773716,0,0,0,0,0,-3,0,0,0,3,"",""
66,37074733,0,0,0,0,0,0,0,0,0,0,0,-7,1000,145,0,512,0,0,0,0,0,-2827,0,139,149,160,137,1,8,0,1,1,0,0,4.396484385773716,0,0,0,0,0,-3,0,0,0,3,"",""
67,37076044,0,0,0,0,0,0,0,0,0,0,0,-7,1000,145,0,512,0,0,0,0,0,-2827,0,139,149,160,137,1,8,0,1,1,0,0,4.396484385773716,0,0,0,0,0,-3,0,0,0,3,"",""
68,37077384,0,0,0,0,0,0,0,0,0,0,0,-7,1000,145,0,512,0,0,0,0,0,-2827,0,139,150,160,137,1,8,0,1,1,0,0,4.396484385773716,0,0,0,0,0,-3,0,0,0,3,"",""
69,37078855,0,0,0,0,0,0,0,0,0,0,0,-7,1000,145,0,512,0,0,0,0,0,-2827,0,140,150,160,137,1,8,0,1,1,0,0,4.396484385773716,0,0,0,0,0,-3,0,0,0,3,"",""
70,37080312,0,0,0,0,0,0,0,0,0,0,0,-7,1000,145,0,512,0,0,0,0,0,-2827,0,140,150,160,137,1,8,0,1,1,0,0,4.396484385773716,0,0,0,0,0,-3,0,0,0,3,"",""
71,37081634,0,0,0,0,0,0,0,0,0,0,0,-7,1000,145,0,512,0,0,0,0,0,-2827,0,139,150,160,137,1,8,0,1,1,0,0,4.396484385773716,0,0,0,0,0,-3,0,0,0,3,"",""
72,37082964,0,0,0,0,0,0,0,0,0,0,0,-7,1000,145,0,512,0,0,0,0,0,-2827,0,139,149,160,137,1,8,0,1,1,0,0,4.396484385773716,0,0,0,0,0,-3,0,0,0,3,"",""
73,37084276,0,0,0,0,0,0,0,0,0,0,0,-7,1000,145,0,512,0,0,0,0,0,-2827,0,139,150,160,137,1,8,0,1,1,0,0,4.396484385773716,0,0,0,0,0,-3,0,0,0,3,"",""
74,37085586,0,0,0,0,0,0,0,0,0,0,0,-7,1000,145,0,512,0,0,0,0,0,-2827,0,138,149,160,137,1,8,0,1,1,0,0,4.396484385773716,0,0,0,0,0,-3,0,0,0,3,"",""
75,37086917,0,0,0,0,0,0,0,0,0,0,0,-7,1000,145,0,512,0,0,0,0,0,-2827,0,139,149,160,137,1,8,0,1,1,0,0,4.396484385773716,0,0,0,0,0,-3,0,0,0,3,"",""
76,37088278,0,0,0,0,0,0,0,0,0,0,0,-7,1000,145,0,512,0,0,0,0,0,-2827,0,139,150,160,137,1,8,0,1,1,0,0,4.396484385773716,0,0,0,0,0,-3,0,0,0,3,"",""
77,37089593,0,0,0,0,0,0,0,0,0,0,0,-7,1000,145,0,512,0,0,0,0,0,-2827,0,139,150,160,137,1,8,0,1,1,0,0,4.396484385773716,0,0,0,0,0,-3,0,0,0,3,"",""
78,37090909,0,0,0,0,0,0,0,0,0,0,0,-7,1000,145,0,512,0,0,0,0,0,-2827,0,139,150,160,137,1,8,0,1,1,0,0,4.396484385773716,0,0,0,0,0,-3,0,0,0,3,"",""
79,37092223,0,0,0,0,0,0,0,0,0,0,0,-7,1000,145,0,512,0,0,0,0,0,-2827,0,139,150,160,137,1,8,0,1,1,0,0,4.396484385773716,0,0,0,0,0,-3,0,0,0,3,"",""
80,37093544,0,0,0,0,0,0,0,0,0,0,0,-7,1000,145,0,512,0,0,0,0,0,-2827,0,139,150,160,137,1,8,0,1,1,0,0,4.396484385773716,0,0,0,0,0,-3,0,0,0,3,"",""
81,37094863,0,0,0,0,0,0,0,0,0,0,0,-7,1000,145,0,512,0,0,0,0,0,-2827,0,138,149,160,137,1,8,0,1,1,0,0,4.396484385773716,0,0,0,0,0,-3,0,0,0,3,"",""
82,37096191,0,0,0,0,0,0,0,0,0,0,0,-7,1000,145,0,512,0,0,0,0,0,-2827,0,138,150,160,137,1,8,0,1,1,0,0,4.396484385773716,0,0,0,0,0,-3,0,0,0,3,"",""
83,37097546,0,0,0,0,0,0,0,0,0,0,0,-7,1000,145,0,512,0,0,0,0,0,-2827,0,138,149,160,137,1,8,0,1,1,0,0,4.396484385773716,0,0,0,0,0,-3,0,0,0,3,"",""
84,37098868,0,0,0,0,0,0,0,0,0,0,0,-7,1000,145,0,512,0,0,0,0,0,-2827,0,139,149,160,137,1,8,0,1,1,0,0,4.396484385773716,0,0,0,0,0,-3,0,0,0,3,"",""
85,37100186,0,0,0,0,0,0,0,0,0,0,0,-7,1000,145,0,512,0,0,0,0,0,-2827,0,138,149,160,137,1,8,0,1,1,0,0,4.396484385773716,0,0,0,0,0,-3,0,0,0,3,"",""
86,37101502,0,0,0,0,0,0,0,0,0,0,0,-7,1000,145,0,512,0,0,0,0,0,-2827,0,139,149,161,137,1,8,0,1,1,0,0,4.396484385773716,0,0,0,0,0,-3,0,0,0,3,"",""
87,37102816,0,0,0,0,0,0,0,0,0,0,0,-7,1000,145,0,512,0,0,0,0,0,-2827,0,139,149,160,137,1,8,0,1,1,0,0,4.396484385773716,0,0,0,0,0,-3,0,0,0,3,"",""
88,37104138,0,0,0,0,0,0,0,0,0,0,0,-7,1000,145,0,512,0,0,0,0,0,-2827,0,138,148,161,137,1,8,0,1,1,0,0,4.396484385773716,0,0,0,0,0,-3,0,0,0,3,"",""
89,37105473,0,0,0,0,0,0,0,0,0,0,0,-7,1000,145,0,512,0,0,0,0,0,-2827,0,139,149,161,137,1,8,0,1,1,0,0,4.396484385773716,0,0,0,0,0,-3,0,0,0,3,"",""
90,37106811,0,0,0,0,0,0,0,0,0,0,0,-7,1000,145,0,512,0,0,0,0,0,-2827,0,138,149,160,137,1,8,0,1,1,0,0,4.396484385773716,0,0,0,0,0,-3,0,0,0,3,"",""
91,37108141,0,0,0,0,0,0,0,0,0,0,0,-7,1000,145,0,512,0,0,0,0,0,-2827,0,138,148,160,137,1,8,0,1,1,0,0,4.396484385773716,0,0,0,0,0,-3,0,0,0,3,"",""
92,37109592,0,0,0,0,0,0,0,0,0,0,0,-7,1000,145,0,512,0,0,0,0,0,-2827,0,138,149,160,137,1,8,0,1,1,0,0,4.396484385773716,0,0,0,0,0,-3,0,0,0,3,"",""
93,37111045,0,0,0,0,0,0,0,0,0,0,0,-7,1000,145,0,512,0,0,0,0,0,-2827,0,138,149,160,137,1,8,0,1,1,0,0,4.396484385773716,0,0,0,0,0,-3,0,0,0,3,"",""
94,37112360,0,0,0,0,0,0,0,0,0,0,0,-7,1000,145,0,512,0,0,0,0,0,-2827,0,138,148,160,137,1,8,0,1,1,0,0,4.396484385773716,0,0,0,0,0,-3,0,0,0,3,"",""
95,37113683,0,0,0,0,0,0,0,0,0,0,0,-7,1000,145,0,512,0,0,0,0,0,-2827,0,138,149,161,137,1,8,0,1,1,0,0,4.396484385773716,0,0,0,0,0,-3,0,0,0,3,"",""
96,37115032,0,0,0,0,0,0,0,0,0,0,0,-7,1000,145,0,512,0,0,0,0,0,-2827,0,138,149,160,137,1,8,0,1,1,0,0,4.396484385773716,0,0,0,0,0,-3,0,0,0,3,"",""
97,37116345,0,0,0,0,0,0,0,0,0,0,0,-7,1000,145,0,512,0,0,0,0,0,-2827,0,137,148,161,137,1,8,0,1,1,0,0,4.396484385773716,0,0,0,0,0,-3,0,0,0,3,"",""
98,37117661,0,0,0,0,0,0,0,0,0,0,0,-7,1000,145,0,512,0,0,0,0,0,-2827,0,138,149,160,137,1,8,0,1,1,0,0,4.396484385773716,0,0,0,0,0,-3,0,0,0,3,"",""
99,37118976,0,0,0,0,0,0,0,0,0,0,0,-7,1000,145,0,512,0,0,0,0,0,-2827,0,137,149,160,137,1,8,0,1,1,0,0,4.396484385773716,0,0,0,0,0,-3,0,0,0,3,"",""
100,37120290,0,0,0,0,0,0,0,0,0,0,0,-7,1000,145,0,512,0,0,0,0,0,-2827,0,137,148,161,137,1,8,0,1,1,0,0,4.396484385773716,0,0,0,0,0,-3,0,0,0,3,"",""
101,37121604,0,0,0,0,0,0,0,0,0,0,0,-7,1000,145,0,512,0,0,0,0,0,-2827,0,137,149,161,137,1,8,0,1,1,0,0,4.396484385773716,0,0,0,0,0,-3,0,0,0,3,"",""
102,37122936,0,0,0,0,0,0,0,0,0,0,0,-7,1000,145,0,512,0,0,0,0,0,-2827,0,138,149,161,137,1,8,0,1,1,0,0,4.396484385773716,0,0,0,0,0,-3,0,0,0,3,"",""
103,37124286,0,0,0,0,0,0,0,0,0,0,0,-7,1000,145,0,512,0,0,0,0,0,-2827,0,137,149,161,137,1,8,0,1,1,0,0,4.396484385773716,0,0,0,0,0,-3,0,0,0,3,"",""
104,37125603,0,0,0,0,0,0,0,0,0,0,0,-7,1000,145,0,512,0,0,0,0,0,-2827,0,138,149,161,137,1,8,0,1,1,0,0,4.396484385773716,0,0,0,0,0,-3,0,0,0,3,"",""
105,37126915,0,0,0,0,0,0,0,0,0,0,0,-7,1000,145,0,512,0,0,0,0,0,-2827,0,138,149,161,137,1,8,0,1,1,0,0,4.396484385773716,0,0,0,0,0,-3,0,0,0,3,"",""
106,37128224,0,0,0,0,0,0,0,0,0,0,0,-7,1000,145,0,512,0,0,0,0,0,-2827,0,137,148,161,137,1,8,0,1,1,0,0,4.396484385773716,0,0,0,0,0,-3,0,0,0,3,"",""
107,37129539,0,0,0,0,0,0,0,0,0,0,0,-7,1000,145,0,512,0,0,0,0,0,-2827,0,138,148,161,137,1,8,0,1,1,0,0,4.396484385773716,0,0,0,0,0,-3,0,0,0,3,"",""
108,37130860,0,0,0,0,0,0,0,0,0,0,0,-7,1000,145,0,512,0,0,0,0,0,-2827,0,138,149,161,137,1,8,0,1,1,0,0,4.396484385773716,0,0,0,0,0,-3,0,0,0,3,"",""
109,37132190,0,0,0,0,0,0,0,0,0,0,0,-7,1000,145,0,512,0,0,0,0,0,-2827,0,137,148,161,137,1,8,0,1,1,0,0,4.396484385773716,0,0,0,0,0,-3,0,0,0,3,"",""
110,37133544,0,0,0,0,0,0,0,0,0,0,0,-7,1000,145,0,512,0,0,0,0,0,-2827,0,137,148,160,137,1,8,0,1,1,0,0,4.396484385773716,0,0,0,0,0,-3,0,0,0,3,"",""
111,37134872,0,0,0,0,0,0,0,0,0,0,0,-7,1000,145,0,512,0,0,0,0,0,-2827,0,137,148,160,137,1,8,0,1,1,0,0,4.396484385773716,0,0,0,0,0,-3,0,0,0,3,"",""
112,37136186,0,0,0,0,0,0,0,0,0,0,0,-7,1000,145,0,512,0,0,0,0,0,-2827,0,137,148,161,137,1,8,0,1,1,0,0,4.396484385773716,0,0,0,0,0,-3,0,0,0,3,"",""
113,37137501,0,0,0,0,0,0,0,0,0,0,0,-7,1000,145,0,512,0,0,0,0,0,-2827,0,138,148,161,137,1,8,0,1,1,0,0,4.396484385773716,0,0,0,0,0,-3,0,0,0,3,"",""
114,37138957,0,0,0,0,0,0,0,0,0,0,0,-7,1000,145,0,512,0,0,0,0,0,-2827,0,138,149,161,137,1,8,0,1,1,0,0,4.396484385773716,0,0,0,0,0,-3,0,0,0,3,"",""
115,37140429,0,0,0,0,0,0,0,0,0,0,0,-7,1000,145,0,512,0,0,0,0,0,-2827,0,138,148,161,137,1,8,0,1,1,0,0,4.396484385773716,0,0,0,0,0,-3,0,0,0,3,"",""
116,37141756,0,0,0,0,0,0,0,0,0,0,0,-7,1000,145,0,512,0,0,0,0,0,-2827,0,139,149,161,137,1,8,0,1,1,0,0,4.396484385773716,0,0,0,0,0,-3,0,0,0,3,"",""
117,37143077,0,0,0,0,0,0,0,0,0,0,0,-6,1000,145,0,512,0,0,0,0,0,-2827,0,138,149,160,137,1,8,0,1,1,0,0,4.396484385773716,0,0,0,0,0,-3,0,0,0,3,"",""
118,37144395,0,0,0,0,0,0,0,0,0,0,0,-6,1000,145,0,512,0,0,0,0,0,-2420,0,138,146,158,137,1,8,0,1,1,0,0,4.396484385773716,0,0,0,0,0,-3,0,0,0,3,"",""
119,37145708,0,0,0,0,0,0,0,0,0,0,0,-6,1000,145,0,512,0,0,0,0,0,-2420,0,138,147,158,137,1,8,0,1,1,0,0,4.396484385773716,0,0,0,0,0,-3,0,0,0,3,"",""
120,37147020,0,0,0,0,0,0,0,0,0,0,0,-6,1000,145,0,512,0,0,0,0,0,-2420,0,138,146,158,137,1,8,0,1,1,0,0,4.396484385773716,0,0,0,0,0,-3,0,0,0,3,"",""
121,37148334,0,0,0,0,0,0,0,0,0,0,0,-6,1000,145,0,512,0,0,0,0,0,-2420,0,137,146,158,137,1,8,0,1,1,0,0,4.396484385773716,0,0,0,0,0,-3,0,0,0,3,"",""
122,37149666,0,0,0,0,0,0,0,0,0,0,0,-6,1000,145,0,512,0,0,0,0,0,-2420,0,138,146,158,137,1,8,0,1,1,0,0,4.396484385773716,0,0,0,0,0,-3,0,0,0,3,"",""
123,37150996,0,0,0,0,0,0,0,0,0,0,0,-6,1000,145,0,512,0,0,0,0,0,-2420,0,137,146,157,137,1,8,0,1,1,0,0,4.396484385773716,0,0,0,0,0,-3,0,0,0,3,"",""
124,37152309,0,0,0,0,0,0,0,0,0,0,0,-6,1000,145,0,512,0,0,0,0,0,-2420,0,137,146,157,137,1,8,0,1,1,0,0,4.396484385773716,0,0,0,0,0,-3,0,0,0,3,"",""
125,37153626,0,0,0,0,0,0,0,0,0,0,0,-6,1000,145,0,512,0,0,0,0,0,-2420,0,137,146,157,137,1,8,0,1,1,0,0,4.396484385773716,0,0,0,0,0,-3,0,0,0,3,"",""
126,37154945,0,0,0,0,0,0,0,0,0,0,0,-6,1000,145,0,512,0,0,0,0,0,-2420,0,137,146,157,137,1,8,0,1,1,0,0,4.396484385773716,0,0,0,0,0,-3,0,0,0,3,"",""
127,37156261,0,0,0,0,0,0,0,0,0,0,0,-6,1000,145,0,512,0,0,0,0,0,-2420,0,137,146,158,137,1,8,0,1,1,0,0,4.396484385773716,0,0,0,0,0,-3,0,0,0,3,"",""
128,37157569,0,0,0,0,0,0,0,0,0,0,0,-6,1000,145,0,512,0,0,0,0,0,-2420,0,138,147,159,138,1,8,0,1,1,0,0,4.396484385773716,0,0,0,0,0,-3,0,0,0,3,"",""
129,37158905,0,0,0,0,0,0,0,0,0,0,0,-6,1000,145,0,512,0,0,0,0,0,-2420,0,138,147,159,138,1,8,0,1,1,0,0,4.396484385773716,0,0,0,0,0,-3,0,0,0,3,"",""
130,37160232,0,0,0,0,0,0,0,0,0,0,0,-7,1000,145,0,512,0,0,0,0,0,-2420,0,138,148,159,138,1,8,0,1,1,0,0,4.396484385773716,0,0,0,0,0,-3,0,0,0,3,"",""
131,37161565,0,0,0,0,0,0,0,0,0,0,0,-7,1000,145,0,512,0,0,0,0,0,-2827,0,139,150,161,138,1,8,0,1,1,0,0,4.396484385773716,0,0,0,0,0,-3,0,0,0,3,"",""
132,37162885,0,0,0,0,0,0,0,0,0,0,0,-7,1000,145,0,512,0,0,0,0,0,-2827,0,138,150,161,138,1,8,0,1,1,0,0,4.396484385773716,0,0,0,0,0,-3,0,0,0,3,"",""
133,37164205,0,0,0,0,0,0,0,0,0,0,0,-7,1000,145,0,512,0,0,0,0,0,-2827,0,139,150,161,138,1,8,0,1,1,0,0,4.396484385773716,0,0,0,0,0,-3,0,0,0,3,"",""
134,37165512,0,0,0,0,0,0,0,0,0,0,0,-7,1000,145,0,512,0,0,0,0,0,-2827,0,139,149,161,138,1,8,0,1,1,0,0,4.396484385773716,0,0,0,0,0,-3,0,0,0,3,"",""
135,37166830,0,0,0,0,0,0,0,0,0,0,0,-7,1000,145,0,512,0,0,0,0,0,-2827,0,139,149,161,138,1,8,0,1,1,0,0,4.396484385773716,0,0,0,0,0,-3,0,0,0,3,"",""
136,37168170,0,0,0,0,0,0,0,0,0,0,0,-7,1000,145,0,512,0,0,0,0,0,-2827,0,139,150,161,138,1,8,0,1,1,0,0,4.396484385773716,0,0,0,0,0,-3,0,0,0,3,"",""
137,37169633,0,0,0,0,0,0,0,0,0,0,0,-7,1000,145,0,512,0,0,0,0,0,-2827,0,139,150,161,138,1,8,0,1,1,0,0,4.396484385773716,0,0,0,0,0,-3,0,0,0,3,"",""
138,37171086,0,0,0,0,0,0,0,0,0,0,0,-7,1000,145,0,512,0,0,0,0,0,-2827,0,139,150,161,138,1,8,0,1,1,0,0,4.396484385773716,0,0,0,0,0,-3,0,0,0,3,"",""
139,37172397,0,0,0,0,0,0,0,0,0,0,0,-7,1000,145,0,512,0,0,0,0,0,-2827,0,139,150,161,138,1,8,0,1,1,0,0,4.396484385773716,0,0,0,0,0,-3,0,0,0,3,"",""
140,37173716,0,0,0,0,0,0,0,0,0,0,0,-7,1000,145,0,512,0,0,0,0,0,-2827,0,139,150,161,138,1,8,0,1,1,0,0,4.396484385773716,0,0,0,0,0,-3,0,0,0,3,"",""
141,37175036,0,0,0,0,0,0,0,0,0,0,0,-7,1000,145,0,512,0,0,0,0,0,-2827,0,139,150,162,138,1,8,0,1,1,0,0,4.396484385773716,0,0,0,0,0,-3,0,0,0,3,"",""
142,37176362,0,0,0,0,0,0,0,0,0,0,0,-7,1000,145,0,512,0,0,0,0,0,-2827,0,138,150,161,138,1,8,0,1,1,0,0,4.396484385773716,0,0,0,0,0,-3,0,0,0,3,"",""
143,37177686,0,0,0,0,0,0,0,0,0,0,0,-7,1000,145,0,512,0,0,0,0,0,-2827,0,138,150,161,138,1,8,0,1,1,0,0,4.396484385773716,0,0,0,0,0,-3,0,0,0,3,"",""
144,37179010,0,0,0,0,0,0,0,0,0,0,0,-7,1000,145,0,512,0,0,0,0,0,-2827,0,139,150,161,138,1,8,0,1,1,0,0,4.396484385773716,0,0,0,0,0,-3,0,0,0,3,"",""
145,37180325,0,0,0,0,0,0,0,0,0,0,0,-7,1000,145,0,512,0,0,0,0,0,-2827,0,139,150,161,138,1,8,0,1,1,0,0,4.396484385773716,0,0,0,0,0,-3,0,0,0,3,"",""
146,37181634,0,0,0,0,0,0,0,0,0,0,0,-7,1000,145,0,512,0,0,0,0,0,-2827,0,139,150,161,138,1,8,0,1,1,0,0,4.396484385773716,0,0,0,0,0,-3,0,0,0,3,"",""
147,37182957,0,0,0,0,0,0,0,0,0,0,0,-7,1000,145,0,512,0,0,0,0,0,-2827,0,139,150,161,138,1,8,0,1,1,0,0,4.396484385773716,0,0,0,0,0,-3,0,0,0,3,"",""
148,37184269,0,0,0,0,0,0,0,0,0,0,0,-7,1000,145,0,512,0,0,0,0,0,-2827,0,139,150,161,138,1,8,0,1,1,0,0,4.396484385773716,0,0,0,0,0,-3,0,0,0,3,"",""
149,37185599,0,0,0,0,0,0,0,0,0,0,0,-7,1000,145,0,512,0,0,0,0,0,-2827,0,139,150,161,138,1,8,0,1,1,0,0,4.396484385773716,0,0,0,0,0,-3,0,0,0,3,"",""
150,37186931,0,0,0,0,0,0,0,0,0,0,0,-7,1000,145,0,512,0,0,0,0,0,-2827,0,139,150,161,138,1,8,0,1,1,0,0,4.396484385773716,0,0,0,0,0,-3,0,0,0,3,"",""
151,37188245,0,0,0,0,0,0,0,0,0,0,0,-7,1000,145,0,512,0,0,0,0,0,-2827,0,139,150,161,138,1,8,0,1,1,0,0,4.396484385773716,0,0,0,0,0,-3,0,0,0,3,"",""
152,37189559,0,0,0,0,0,0,0,0,0,0,0,-7,1000,145,0,512,0,0,0,0,0,-2827,0,139,150,161,138,1,8,0,1,1,0,0,4.396484385773716,0,0,0,0,0,-3,0,0,0,3,"",""
153,37190878,0,0,0,0,0,0,0,0,0,0,0,-7,1000,145,0,512,0,0,0,0,0,-2827,0,139,150,161,138,1,8,0,1,1,0,0,4.396484385773716,0,0,0,0,0,-3,0,0,0,3,"",""
154,37192196,0,0,0,0,0,0,0,0,0,0,0,-7,1000,145,0,512,0,0,0,0,0,-2827,0,139,150,161,138,1,8,0,1,1,0,0,4.396484385773716,0,0,0,0,0,-3,0,0,0,3,"",""
155,37193512,0,0,0,0,0,0,0,0,0,0,0,-7,1000,145,0,512,0,0,0,0,0,-2827,0,139,150,161,138,1,8,0,1,1,0,0,4.396484385773716,0,0,0,0,0,-3,0,0,0,3,"",""
156,37194842,0,0,0,0,0,0,0,0,0,0,0,-7,1000,145,0,512,0,0,0,0,0,-2827,0,139,150,161,138,1,8,0,1,1,0,0,4.396484385773716,0,0,0,0,0,-3,0,0,0,3,"",""
157,37196168,0,0,0,0,0,0,0,0,0,0,0,-7,1000,145,0,512,0,0,0,0,0,-2827,0,139,150,161,138,1,8,0,1,1,0,0,4.396484385773716,0,0,0,0,0,-3,0,0,0,3,"",""
158,37197483,0,0,0,0,0,0,0,0,0,0,0,-7,1000,145,0,512,0,0,0,0,0,-2827,0,139,150,162,138,1,8,0,1,1,0,0,4.396484385773716,0,0,0,0,0,-3,0,0,0,3,"",""
159,37198807,0,0,0,0,0,0,0,0,0,0,0,-7,1000,145,0,512,0,0,0,0,0,-2827,0,139,150,161,138,1,8,0,1,1,0,0,4.396484385773716,0,0,0,0,0,-3,0,0,0,3,"",""
160,37200255,0,0,0,0,0,0,0,0,0,0,0,-7,1000,145,0,512,0,0,0,0,0,-2827,0,138,149,160,137,1,8,0,1,1,0,0,4.396484385773716,0,0,0,0,0,-3,0,0,0,3,"",""
161,37201709,0,0,0,0,0,0,0,0,0,0,0,-7,1000,145,0,512,0,0,0,0,0,-2827,0,138,149,160,137,1,8,0,1,1,0,0,4.396484385773716,0,0,0,0,0,-3,0,0,0,3,"",""
162,37203031,0,0,0,0,0,0,0,0,0,0,0,-7,1000,145,0,512,0,0,0,0,0,-2827,0,138,149,160,137,1,8,0,1,1,0,0,4.396484385773716,0,0,0,0,0,-3,0,0,0,3,"",""
163,37204359,0,0,0,0,0,0,0,0,0,0,0,-7,1000,145,0,512,0,0,0,0,0,-2827,0,138,149,160,137,1,8,0,1,1,0,0,4.396484385773716,0,0,0,0,0,-3,0,0,0,3,"",""
164,37205689,0,0,0,0,0,0,0,0,0,0,0,-6,1000,145,0,512,0,0,0,0,0,-2827,0,138,149,160,137,1,8,0,1,1,0,0,4.396484385773716,0,0,0,0,0,-3,0,0,0,3,"",""
165,37207014,0,0,0,0,0,0,0,0,0,0,0,-6,1000,145,0,512,0,0,0,0,0,-2420,0,138,147,158,137,1,8,0,1,1,0,0,4.396484385773716,0,0,0,0,0,-3,0,0,0,3,"",""
166,37208329,0,0,0,0,0,0,0,0,0,0,0,-6,1000,145,0,512,0,0,0,0,0,-2420,0,138,147,158,137,1,8,0,1,1,0,0,4.396484385773716,0,0,0,0,0,-3,0,0,0,3,"",""
167,37209638,0,0,0,0,0,0,0,0,0,0,0,-6,1000,145,0,512,0,0,0,0,0,-2420,0,138,147,158,137,1,8,0,1,1,0,0,4.396484385773716,0,0,0,0,0,-3,0,0,0,3,"",""
168,37210954,0,0,0,0,0,0,0,0,0,0,0,-6,1000,145,0,512,0,0,0,0,0,-2420,0,138,147,158,137,1,8,0,1,1,0,0,4.396484385773716,0,0,0,0,0,-3,0,0,0,3,"",""
169,37212282,0,0,0,0,0,0,0,0,0,0,0,-6,1000,145,0,512,0,0,0,0,0,-2420,0,138,147,158,137,1,8,0,1,1,0,0,4.396484385773716,0,0,0,0,0,-3,0,0,0,3,"",""
170,37213608,0,0,0,0,0,0,0,0,0,0,0,-6,1000,145,0,512,0,0,0,0,0,-2420,0,138,147,158,137,1,8,0,1,1,0,0,4.396484385773716,0,0,0,0,0,-3,0,0,0,3,"",""
171,37214936,0,0,0,0,0,0,0,0,0,0,0,-6,1000,145,0,512,0,0,0,0,0,-2420,0,138,147,158,137,1,8,0,1,1,0,0,4.396484385773716,0,0,0,0,0,-3,0,0,0,3,"",""
172,37216250,0,0,0,0,0,0,0,0,0,0,0,-6,1000,145,0,512,0,0,0,0,0,-2420,0,138,147,158,137,1,8,0,1,1,0,0,4.396484385773716,0,0,0,0,0,-3,0,0,0,3,"",""
173,37217568,0,0,0,0,0,0,0,0,0,0,0,-6,1000,145,0,512,0,0,0,0,0,-2420,0,138,147,158,137,1,8,0,1,1,0,0,4.396484385773716,0,0,0,0,0,-3,0,0,0,3,"",""
174,37218882,0,0,0,0,0,0,0,0,0,0,0,-6,1000,145,0,512,0,0,0,0,0,-2420,0,138,147,158,137,1,8,0,1,1,0,0,4.396484385773716,0,0,0,0,0,-3,0,0,0,3,"",""
175,37220193,0,0,0,0,0,0,0,0,0,0,0,-6,1000,145,0,512,0,0,0,0,0,-2420,0,139,147,158,137,1,8,0,1,1,0,0,4.396484385773716,0,0,0,0,0,-3,0,0,0,3,"",""
176,37221520,0,0,0,0,0,0,0,0,0,0,0,-6,1000,145,0,512,0,0,0,0,0,-2420,0,139,147,158,137,1,8,0,1,1,0,0,4.396484385773716,0,0,0,0,0,-3,0,0,0,3,"",""
177,37222850,0,0,0,0,0,0,0,0,0,0,0,-6,1000,145,0,512,0,0,0,0,0,-2420,0,138,147,158,137,1,8,0,1,1,0,0,4.396484385773716,0,0,0,0,0,-3,0,0,0,3,"",""
178,37224172,0,0,0,0,0,0,0,0,0,0,0,-6,1000,145,0,512,0,0,0,0,0,-2420,0,138,147,157,137,1,8,0,1,1,0,0,4.396484385773716,0,0,0,0,0,-3,0,0,0,3,"",""
179,37225488,0,0,0,0,0,0,0,0,0,0,0,-6,1000,145,0,512,0,0,0,0,0,-2420,0,138,146,157,137,1,8,0,1,1,0,0,4.396484385773716,0,0,0,0,0,-3,0,0,0,3,"",""
180,37226806,0,0,0,0,0,0,0,0,0,0,0,-6,1000,145,16,512,0,0,0,0,0,-2420,0,138,147,158,137,1,8,0,1,1,0,0,4.396484385773716,0,0,0,0,0,-3,0,0,0,3,"",""
181,37228131,0,0,0,0,0,0,0,0,0,0,0,-6,1000,145,16,512,0,0,0,0,0,-2420,0,139,147,158,137,1,8,0,1,1,0,0,4.396484385773716,0,0,0,0,0,-3,0,0,0,3,"",""
182,37229583,0,0,0,0,0,0,0,0,0,0,0,-6,1000,145,16,512,0,0,0,0,0,-2420,0,139,147,158,137,1,8,0,1,1,0,0,4.396484385773716,0,0,0,0,0,-3,0,0,0,3,"",""
183,37231063,0,0,0,0,0,0,0,0,0,0,0,-6,1000,145,16,512,0,0,0,0,0,-2420,0,139,147,158,137,1,8,0,1,1,0,0,4.396484385773716,0,0,0,0,0,-3,0,0,0,3,"",""
184,37232389,0,0,0,0,0,0,0,0,0,0,0,-6,1000,145,16,512,0,0,0,0,0,-2420,0,139,147,158,137,1,8,0,1,1,0,0,4.396484385773716,0,0,0,0,0,-3,0,0,0,3,"",""
185,37233706,0,0,0,0,0,0,0,0,0,0,0,-6,1000,145,16,512,0,0,0,0,0,-2420,0,138,147,158,137,1,8,0,1,1,0,0,4.396484385773716,0,0,0,0,0,-3,0,0,0,3,"",""
186,37235017,0,0,0,0,0,0,0,0,0,0,0,-6,1000,145,16,512,0,0,0,0,0,-2420,0,138,147,158,137,1,8,0,1,1,0,0,4.396484385773716,0,0,0,0,0,-3,0,0,0,3,"",""
187,37236336,0,0,0,0,0,0,0,0,0,0,0,-6,1000,145,16,512,0,0,0,0,0,-2420,0,138,147,157,137,1,8,0,1,1,0,0,4.396484385773716,0,0,0,0,0,-3,0,0,0,3,"",""
188,37237647,0,0,0,0,0,0,0,0,0,0,0,-6,1000,145,16,512,0,0,0,0,0,-2420,0,138,147,157,137,1,8,0,1,1,0,0,4.396484385773716,0,0,0,0,0,-3,0,0,0,3,"",""
189,37238973,0,0,0,0,0,0,0,0,0,0,0,-6,1000,145,16,512,0,0,0,0,0,-2420,0,138,147,158,137,1,8,0,1,1,0,0,4.396484385773716,0,0,0,0,0,-3,0,0,0,3,"",""
190,37240300,0,0,0,0,0,0,0,0,0,0,0,-6,1000,145,16,512,0,0,0,0,0,-2420,0,138,147,158,137,1,8,0,1,1,0,0,4.396484385773716,0,0,0,0,0,-3,0,0,0,3,"",""
191,37241634,0,0,0,0,0,0,0,0,0,0,0,-6,1000,145,16,512,0,0,0,0,0,-2420,0,138,147,158,137,1,8,0,1,1,0,0,4.396484385773716,0,0,0,0,0,-3,0,0,0,3,"",""
192,37242952,0,0,0,0,0,0,0,0,0,0,0,-6,1000,145,16,512,0,0,0,0,0,-2420,0,138,147,158,137,1,8,0,1,1,0,0,4.396484385773716,0,0,0,0,0,-3,0,0,0,3,"",""
193,37244270,0,0,0,0,0,0,0,0,0,0,0,-6,1000,145,16,512,0,0,0,0,0,-2420,0,138,147,158,137,1,8,0,1,1,0,0,4.396484385773716,0,0,0,0,0,-3,0,0,0,3,"",""
194,37245582,0,0,0,0,0,0,0,0,0,0,0,-6,1000,145,16,512,0,0,0,0,0,-2420,0,138,147,158,137,1,8,0,1,1,0,0,4.396484385773716,0,0,0,0,0,-3,0,0,0,3,"",""
195,37246897,0,0,0,0,0,0,0,0,0,0,0,-6,1000,145,0,512,0,0,0,0,0,-2420,0,139,147,158,137,1,8,0,1,1,0,0,4.396484385773716,0,0,0,0,0,-3,0,0,0,3,"",""
196,37248228,0,0,0,0,0,0,0,0,0,0,0,-6,1000,145,0,512,0,0,0,0,0,-2420,0,139,147,158,137,1,8,0,1,1,0,0,4.396484385773716,0,0,0,0,0,-3,0,0,0,3,"",""
197,37249552,0,0,0,0,0,0,0,0,0,0,0,-6,1000,145,0,512,0,0,0,0,0,-2420,0,139,148,158,137,1,8,0,1,1,0,0,4.396484385773716,0,0,0,0,0,-3,0,0,0,3,"",""
198,37250880,0,0,0,0,0,0,0,0,0,0,0,-6,1000,145,0,512,0,0,0,0,0,-2420,0,139,148,158,137,1,8,0,1,1,0,0,4.396484385773716,0,0,0,0,0,-3,0,0,0,3,"",""
199,37252203,0,0,0,0,0,0,0,0,0,0,0,-6,1000,145,0,512,0,0,0,0,0,-2420,0,139,148,158,137,1,8,0,1,1,0,0,4.396484385773716,0,0,0,0,0,-3,0,0,0,3,"",""
200,37253512,0,0,0,0,0,0,0,0,0,0,0,-6,1000,145,0,512,0,0,0,0,0,-2420,0,139,148,158,137,1,8,0,1,1,0,0,4.396484385773716,0,0,0,0,0,-3,0,0,0,3,"",""
201,37254839,0,0,0,0,0,0,0,0,0,0,0,-6,1000,145,0,512,0,0,0,0,0,-2420,0,138,148,158,137,1,8,0,1,1,0,0,4.396484385773716,0,0,0,0,0,-3,0,0,0,3,"",""
202,37256155,0,0,0,0,0,0,0,0,0,0,0,-6,1000,145,0,512,0,0,0,0,0,-2420,0,138,147,158,137,1,8,0,1,1,0,0,4.396484385773716,0,0,0,0,0,-3,0,0,0,3,"",""
203,37257496,0,0,0,0,0,0,0,0,0,0,0,-6,1000,145,0,512,0,0,0,0,0,-2420,0,139,147,158,137,1,8,0,1,1,0,0,4.396484385773716,0,0,0,0,0,-3,0,0,0,3,"",""
204,37258971,0,0,0,0,0,0,0,0,0,0,0,-6,1000,145,0,512,0,0,0,0,0,-2420,0,140,147,158,137,1,8,0,1,1,0,0,4.396484385773716,0,0,0,0,0,-3,0,0,0,3,"",""
205,37260429,0,0,0,0,0,0,0,0,0,0,0,-6,1000,145,0,512,0,0,0,0,0,-2420,0,140,147,158,137,1,8,0,1,1,0,0,4.396484385773716,0,0,0,0,0,-3,0,0,0,3,"",""
206,37261745,0,0,0,0,0,0,0,0,0,0,0,-6,1000,145,0,512,0,0,0,0,0,-2420,0,139,147,158,137,1,8,0,1,1,0,0,4.396484385773716,0,0,0,0,0,-3,0,0,0,3,"",""
207,37263069,0,0,0,0,0,0,0,0,0,0,0,-6,1000,145,0,512,0,0,0,0,0,-2420,0,139,147,158,137,1,8,0,1,1,0,0,4.396484385773716,0,0,0,0,0,-3,0,0,0,3,"",""
208,37264379,0,0,0,0,0,0,0,0,0,0,0,-6,1000,145,0,512,0,0,0,0,0,-2420,0,139,147,158,137,1,8,0,1,1,0,0,4.396484385773716,0,0,0,0,0,-3,0,0,0,3,"",""
209,37265693,0,0,0,0,0,0,0,0,0,0,0,-6,1000,145,0,512,0,0,0,0,0,-2420,0,139,147,158,137,1,8,0,1,1,0,0,4.396484385773716,0,0,0,0,0,-3,0,0,0,3,"",""
210,37267021,0,0,0,0,0,0,0,0,0,0,0,-6,1000,145,0,512,0,0,0,0,0,-2420,0,139,147,158,137,1,8,0,1,1,0,0,4.396484385773716,0,0,0,0,0,-3,0,0,0,3,"",""
211,37268349,0,0,0,0,0,0,0,0,0,0,0,-6,1000,145,0,512,0,0,0,0,0,-2420,0,139,147,158,137,1,8,0,1,1,0,0,4.396484385773716,0,0,0,0,0,-3,0,0,0,3,"",""
212,37269662,0,0,0,0,0,0,0,0,0,0,0,-6,1000,145,0,512,0,0,0,0,0,-2420,0,139,147,158,137,1,8,0,1,1,0,0,4.396484385773716,0,0,0,0,0,-3,0,0,0,3,"",""
213,37270980,0,0,0,0,0,0,0,0,0,0,0,-6,1000,145,0,512,0,0,0,0,0,-2420,0,139,147,158,137,1,8,0,1,1,0,0,4.396484385773716,0,0,0,0,0,-3,0,0,0,3,"",""
214,37272289,0,0,0,0,0,0,0,0,0,0,0,-6,1000,145,0,512,0,0,0,0,0,-2420,0,138,146,158,137,1,8,0,1,1,0,0,4.396484385773716,0,0,0,0,0,-3,0,0,0,3,"",""
215,37273603,0,0,0,0,0,0,0,0,0,0,0,-6,1000,145,0,512,0,0,0,0,0,-2420,0,139,146,158,137,1,8,0,1,1,0,0,4.396484385773716,0,0,0,0,0,-3,0,0,0,3,"",""
216,37274922,0,0,0,0,0,0,0,0,0,0,0,-6,1000,145,0,512,0,0,0,0,0,-2420,0,139,147,158,137,1,8,0,1,1,0,0,4.396484385773716,0,0,0,0,0,-3,0,0,0,3,"",""
217,37276255,0,0,0,0,0,0,0,0,0,0,0,-6,1000,145,0,512,0,0,0,0,0,-2420,0,140,147,158,137,1,8,0,1,1,0,0,4.396484385773716,0,0,0,0,0,-3,0,0,0,3,"",""
218,37277583,0,0,0,0,0,0,0,0,0,0,0,-6,1000,145,0,512,0,0,0,0,0,-2420,0,139,147,158,137,1,8,0,1,1,0,0,4.396484385773716,0,0,0,0,0,-3,0,0,0,3,"",""
219,37278914,0,0,0,0,0,0,0,0,0,0,0,-6,1000,145,0,512,0,0,0,0,0,-2420,0,139,147,158,137,1,8,0,1,1,0,0,4.396484385773716,0,0,0,0,0,-3,0,0,0,3,"",""
220,37280230,0,0,0,0,0,0,0,0,0,0,0,-6,1000,145,0,512,0,0,0,0,0,-2420,0,138,147,158,137,1,8,0,1,1,0,0,4.396484385773716,0,0,0,0,0,-3,0,0,0,3,"",""
221,37281546,0,0,0,0,0,0,0,0,0,0,0,-6,1000,145,0,512,0,0,0,0,0,-2420,0,139,147,158,137,1,8,0,1,1,0,0,4.396484385773716,0,0,0,0,0,-3,0,0,0,3,"",""
222,37282865,0,0,0,0,0,0,0,0,0,0,0,-6,1000,145,0,512,0,0,0,0,0,-2420,0,138,147,158,137,1,8,0,1,1,0,0,4.396484385773716,0,0,0,0,0,-3,0,0,0,3,"",""
223,37284194,0,0,0,0,0,0,0,0,0,0,0,-6,1000,145,0,512,0,0,0,0,0,-2420,0,138,147,158,137,1,8,0,1,1,0,0,4.396484385773716,0,0,0,0,0,-3,0,0,0,3,"",""
224,37285519,0,0,0,0,0,0,0,0,0,0,0,-6,1000,145,0,512,0,0,0,0,0,-2420,0,138,146,158,136,1,8,0,1,1,0,0,4.396484385773716,0,0,0,0,0,-3,0,0,0,3,"",""
225,37286850,0,0,0,0,0,0,0,0,0,0,0,-6,1000,145,0,512,0,0,0,0,0,-2420,0,138,146,158,136,1,8,0,1,1,0,0,4.396484385773716,0,0,0,0,0,-3,0,0,0,3,"",""
226,37288180,0,0,0,0,0,0,0,0,0,0,0,-6,1000,145,0,512,0,0,0,0,0,-2420,0,138,146,157,136,1,8,0,1,1,0,0,4.396484385773716,0,0,0,0,0,-3,0,0,0,3,"",""
227,37289635,0,0,0,0,0,0,0,0,0,0,0,-6,1000,145,0,512,0,0,0,0,0,-2420,0,138,146,157,136,1,8,0,1,1,0,0,4.396484385773716,0,0,0,0,0,-3,0,0,0,3,"",""
228,37291091,0,0,0,0,0,0,0,0,0,0,0,-6,1000,145,0,512,0,0,0,0,0,-2420,0,138,146,157,136,1,8,0,1,1,0,0,4.396484385773716,0,0,0,0,0,-3,0,0,0,3,"",""
229,37292409,0,0,0,0,0,0,0,0,0,0,0,-6,1000,145,0,512,0,0,0,0,0,-2420,0,137,146,157,136,1,8,0,1,1,0,0,4.396484385773716,0,0,0,0,0,-3,0,0,0,3,"",""
230,37293734,0,0,0,0,0,0,0,0,0,0,0,-6,1000,145,0,512,0,0,0,0,0,-2420,0,138,146,157,136,1,8,0,1,1,0,0,4.396484385773716,0,0,0,0,0,-3,0,0,0,3,"",""
231,37295078,0,0,0,0,0,0,0,0,0,0,0,-6,1000,145,0,512,0,0,0,0,0,-2420,0,137,145,157,136,1,8,0,1,1,0,0,4.396484385773716,0,0,0,0,0,-3,0,0,0,3,"",""
232,37296391,0,0,0,0,0,0,0,0,0,0,0,-6,1000,145,0,512,0,0,0,0,0,-2420,0,137,145,157,136,1,8,0,1,1,0,0,4.396484385773716,0,0,0,0,0,-3,0,0,0,3,"",""
233,37297706,0,0,0,0,0,0,0,0,0,0,0,-6,1000,145,0,512,0,0,0,0,0,-2420,0,137,145,157,136,1,8,0,1,1,0,0,4.396484385773716,0,0,0,0,0,-3,0,0,0,3,"",""
234,37299023,0,0,0,0,0,0,0,0,0,0,0,-6,1000,145,0,512,0,0,0,0,0,-2420,0,137,145,157,136,1,8,0,1,1,0,0,4.396484385773716,0,0,0,0,0,-3,0,0,0,3,"",""
235,37300334,0,0,0,0,0,0,0,0,0,0,0,-6,1000,145,0,512,0,0,0,0,0,-2420,0,137,145,157,136,1,8,0,1,1,0,0,4.396484385773716,0,0,0,0,0,-3,0,0,0,3,"",""
236,37301648,0,0,0,0,0,0,0,0,0,0,0,-6,1000,145,0,512,0,0,0,0,0,-2420,0,137,145,157,136,1,8,0,1,1,0,0,4.396484385773716,0,0,0,0,0,-3,0,0,0,3,"",""
237,37303007,0,0,0,0,0,0,0,0,0,0,0,-6,1000,145,0,512,0,0,0,0,0,-2420,0,136,145,157,136,1,8,0,1,1,0,0,4.396484385773716,0,0,0,0,0,-3,0,0,0,3,"",""
238,37304341,0,0,0,0,0,0,0,0,0,0,0,-6,1000,145,0,512,0,0,0,0,0,-2420,0,136,145,157,136,1,8,0,1,1,0,0,4.396484385773716,0,0,0,0,0,-3,0,0,0,3,"",""
239,37305658,0,0,0,0,0,0,0,0,0,0,0,-6,1000,145,0,512,0,0,0,0,0,-2420,0,136,145,157,136,1,8,0,1,1,0,0,4.396484385773716,0,0,0,0,0,-3,0,0,0,3,"",""
240,37306972,0,0,0,0,0,0,0,0,0,0,0,-6,1000,145,5,512,0,0,0,0,0,-2420,0,137,145,157,136,1,8,0,1,1,0,0,4.396484385773716,0,0,0,0,0,-3,0,0,0,3,"",""
241,37308285,0,0,0,0,0,0,0,0,0,0,0,-6,1000,145,5,512,0,0,0,0,0,-2420,0,137,146,157,136,1,8,0,1,1,0,0,4.396484385773716,0,0,0,0,0,-3,0,0,0,3,"",""
242,37309599,0,0,0,0,0,0,0,0,0,0,0,-6,1000,145,5,512,0,0,0,0,0,-2420,0,137,145,157,136,1,8,0,1,1,0,0,4.396484385773716,0,0,0,0,0,-3,0,0,0,3,"",""
243,37310912,0,0,0,0,0,0,0,0,0,0,0,-6,1000,145,5,512,0,0,0,0,0,-2420,0,137,145,157,136,1,8,0,1,1,0,0,4.396484385773716,0,0,0,0,0,-3,0,0,0,3,"",""
244,37312244,0,0,0,0,0,0,0,0,0,0,0,-6,1000,145,5,512,0,0,0,0,0,-2420,0,137,145,157,136,1,8,0,1,1,0,0,4.396484385773716,0,0,0,0,0,-3,0,0,0,3,"",""
245,37313596,0,0,0,0,0,0,0,0,0,0,0,-6,1000,145,5,512,0,0,0,0,0,-2420,0,136,145,157,136,1,8,0,1,1,0,0,4.396484385773716,0,0,0,0,0,-3,0,0,0,3,"",""
246,37314916,0,0,0,0,0,0,0,0,0,0,0,-6,1000,145,5,512,0,0,0,0,0,-2420,0,137,145,157,136,1,8,0,1,1,0,0,4.396484385773716,0,0,0,0,0,-3,0,0,0,3,"",""
247,37316231,0,0,0,0,0,0,0,0,0,0,0,-6,1000,145,5,512,0,0,0,0,0,-2420,0,136,145,157,136,1,8,0,1,1,0,0,4.396484385773716,0,0,0,0,0,-3,0,0,0,3,"",""
248,37317542,0,0,0,0,0,0,0,0,0,0,0,-6,1000,145,5,512,0,0,0,0,0,-2420,0,136,145,157,136,1,8,0,1,1,0,0,4.396484385773716,0,0,0,0,0,-3,0,0,0,3,"",""
249,37318866,0,0,0,0,0,0,0,0,0,0,0,-6,1000,145,5,512,0,0,0,0,0,-2420,0,136,144,157,136,1,8,0,1,1,0,0,4.396484385773716,0,0,0,0,0,-3,0,0,0,3,"",""
250,37320338,0,0,0,0,0,0,0,0,0,0,0,-6,1000,145,5,512,0,0,0,0,0,-2420,0,136,145,157,136,1,8,0,1,1,0,0,4.396484385773716,0,0,0,0,0,-3,0,0,0,3,"",""
251,37321812,0,0,0,0,0,0,0,0,0,0,0,-6,1000,145,5,512,0,0,0,0,0,-2420,0,137,145,157,136,1,8,0,1,1,0,0,4.396484385773716,0,0,0,0,0,-3,0,0,0,3,"",""
252,37323135,0,0,0,0,0,0,0,0,0,0,0,-6,1000,145,5,512,0,0,0,0,0,-2420,0,137,145,157,136,1,8,0,1,1,0,0,4.396484385773716,0,0,0,0,0,-3,0,0,0,3,"",""
253,37324450,0,0,0,0,0,0,0,0,0,0,0,-6,1000,145,5,512,0,0,0,0,0,-2420,0,137,145,157,136,1,8,0,1,1,0,0,4.396484385773716,0,0,0,0,0,-3,0,0,0,3,"",""
254,37325764,0,0,0,0,0,0,0,0,0,0,0,-6,1000,145,5,512,0,0,0,0,0,-2420,0,137,145,157,136,1,8,0,1,1,0,0,4.396484385773716,0,0,0,0,0,-3,0,0,0,3,"",""
255,37327089,0,0,0,0,0,0,0,0,0,0,0,-6,1000,145,0,512,0,0,0,0,0,-2420,0,136,145,157,136,1,8,0,1,1,0,0,4.396484385773716,0,0,0,0,0,-3,0,0,0,3,"",""
256,37328403,0,0,0,0,0,0,0,0,0,0,0,-6,1000,145,0,512,0,0,0,0,0,-2420,0,138,147,159,138,1,8,0,1,1,0,0,4.396484385773716,0,0,0,0,0,-3,0,0,0,3,"",""
257,37329726,0,0,0,0,0,0,0,0,0,0,0,-6,1000,145,0,512,0,0,0,0,0,-2420,0,138,147,159,138,1,8,0,1,1,0,0,4.396484385773716,0,0,0,0,0,-3,0,0,0,3,"",""
258,37331088,0,0,0,0,0,0,0,0,0,0,0,-6,1000,145,0,512,0,0,0,0,0,-2420,0,138,147,159,138,1,8,0,1,1,0,0,4.396484385773716,0,0,0,0,0,-3,0,0,0,3,"",""
259,37332409,0,0,0,0,0,0,0,0,0,0,0,-6,1000,145,0,512,0,0,0,0,0,-2420,0,138,147,159,138,1,8,0,1,1,0,0,4.396484385773716,0,0,0,0,0,-3,0,0,0,3,"",""
260,37333720,0,0,0,0,0,0,0,0,0,0,0,-6,1000,145,0,512,0,0,0,0,0,-2420,0,138,147,159,138,1,8,0,1,1,0,0,4.396484385773716,0,0,0,0,0,-3,0,0,0,3,"",""
261,37335033,0,0,0,0,0,0,0,0,0,0,0,-6,1000,145,0,512,0,0,0,0,0,-2420,0,138,148,158,138,1,8,0,1,1,0,0,4.396484385773716,0,0,0,0,0,-3,0,0,0,3,"",""
262,37336342,0,0,0,0,0,0,0,0,0,0,0,-6,1000,145,0,512,0,0,0,0,0,-2420,0,139,147,159,138,1,8,0,1,1,0,0,4.396484385773716,0,0,0,0,0,-3,0,0,0,3,"",""
263,37337655,0,0,0,0,0,0,0,0,0,0,0,-6,1000,145,0,512,0,0,0,0,0,-2420,0,138,148,159,138,1,8,0,1,1,0,0,4.396484385773716,0,0,0,0,0,-3,0,0,0,3,"",""
264,37338981,0,0,0,0,0,0,0,0,0,0,0,-6,1000,145,0,512,0,0,0,0,0,-2420,0,138,148,159,138,1,8,0,1,1,0,0,4.396484385773716,0,0,0,0,0,-3,0,0,0,3,"",""
265,37340304,0,0,0,0,0,0,0,0,0,0,0,-6,1000,145,0,512,0,0,0,0,0,-2420,0,138,147,159,138,1,8,0,1,1,0,0,4.396484385773716,0,0,0,0,0,-3,0,0,0,3,"",""
266,37341619,0,0,0,0,0,0,0,0,0,0,0,-6,1000,145,0,512,0,0,0,0,0,-2420,0,138,147,159,138,1,8,0,1,1,0,0,4.396484385773716,0,0,0,0,0,-3,0,0,0,3,"",""
267,37342933,0,0,0,0,0,0,0,0,0,0,0,-6,1000,145,0,512,0,0,0,0,0,-2420,0,139,147,159,138,1,8,0,1,1,0,0,4.396484385773716,0,0,0,0,0,-3,0,0,0,3,"",""
268,37344252,0,0,0,0,0,0,0,0,0,0,0,-6,1000,145,0,512,0,0,0,0,0,-2420,0,138,147,159,138,1,8,0,1,1,0,0,4.396484385773716,0,0,0,0,0,-3,0,0,0,3,"",""
269,37345565,0,0,0,0,0,0,0,0,0,0,0,-6,1000,145,0,512,0,0,0,0,0,-2420,0,139,148,159,138,1,8,0,1,1,0,0,4.396484385773716,0,0,0,0,0,-3,0,0,0,3,"",""
270,37346885,0,0,0,0,0,0,0,0,0,0,0,-6,1000,145,0,512,0,0,0,0,0,-2420,0,139,148,159,138,1,8,0,1,1,0,0,4.396484385773716,0,0,0,0,0,-3,0,0,0,3,"",""
271,37348223,0,0,0,0,0,0,0,0,0,0,0,-6,1000,145,0,512,0,0,0,0,0,-2420,0,139,148,159,138,1,8,0,1,1,0,0,4.396484385773716,0,0,0,0,0,-3,0,0,0,3,"",""
272,37349689,0,0,0,0,0,0,0,0,0,0,0,-6,1000,145,0,512,0,0,0,0,0,-2420,0,138,148,158,138,1,8,0,1,1,0,0,4.396484385773716,0,0,0,0,0,-3,0,0,0,3,"",""
273,37351153,0,0,0,0,0,0,0,0,0,0,0,-6,1000,145,0,512,0,0,0,0,0,-2420,0,139,148,158,138,1,8,0,1,1,0,0,4.396484385773716,0,0,0,0,0,-3,0,0,0,3,"",""
274,37352466,0,0,0,0,0,0,0,0,0,0,0,-6,1000,145,0,512,0,0,0,0,0,-2420,0,138,147,158,138,1,8,0,1,1,0,0,4.396484385773716,0,0,0,0,0,-3,0,0,0,3,"",""
275,37353790,0,0,0,0,0,0,0,0,0,0,0,-6,1000,145,0,512,0,0,0,0,0,-2420,0,138,147,158,138,1,8,0,1,1,0,0,4.396484385773716,0,0,0,0,0,-3,0,0,0,3,"",""
276,37355102,0,0,0,0,0,0,0,0,0,0,0,-6,1000,145,0,512,0,0,0,0,0,-2420,0,138,147,158,138,1,8,0,1,1,0,0,4.396484385773716,0,0,0,0,0,-3,0,0,0,3,"",""
277,37356433,0,0,0,0,0,0,0,0,0,0,0,-6,1000,145,0,512,0,0,0,0,0,-2420,0,139,148,158,138,1,8,0,1,1,0,0,4.396484385773716,0,0,0,0,0,-3,0,0,0,3,"",""
278,37357763,0,0,0,0,0,0,0,0,0,0,0,-6,1000,145,0,512,0,0,0,0,0,-2420,0,139,148,158,138,1,8,0,1,1,0,0,4.396484385773716,0,0,0,0,0,-3,0,0,0,3,"",""
279,37359092,0,0,0,0,0,0,0,0,0,0,0,-6,1000,145,0,512,0,0,0,0,0,-2420,0,139,148,158,138,1,8,0,1,1,0,0,4.396484385773716,0,0,0,0,0,-3,0,0,0,3,"",""
280,37360406,0,0,0,0,0,0,0,0,0,0,0,-6,1000,145,0,512,0,0,0,0,0,-2420,0,139,148,158,138,1,8,0,1,1,0,0,4.396484385773716,0,0,0,0,0,-3,0,0,0,3,"",""
281,37361717,0,0,0,0,0,0,0,0,0,0,0,-6,1000,145,0,512,0,0,0,0,0,-2420,0,139,148,158,138,1,8,0,1,1,0,0,4.396484385773716,0,0,0,0,0,-3,0,0,0,3,"",""
282,37363029,0,0,0,0,0,0,0,0,0,0,0,-6,1000,145,0,512,0,0,0,0,0,-2420,0,138,148,158,138,1,8,0,1,1,0,0,4.396484385773716,0,0,0,0,0,-3,0,0,0,3,"",""
283,37364337,0,0,0,0,0,0,0,0,0,0,0,-6,1000,145,0,512,0,0,0,0,0,-2420,0,139,148,158,138,1,8,0,1,1,0,0,4.396484385773716,0,0,0,0,0,-3,0,0,0,3,"",""
284,37365670,0,0,0,0,0,0,0,0,0,0,0,-6,1000,145,0,512,0,0,0,0,0,-2420,0,139,148,158,138,1,8,0,1,1,0,0,4.396484385773716,0,0,0,0,0,-3,0,0,0,3,"",""
285,37367004,0,0,0,0,0,0,0,0,0,0,0,-6,1000,145,0,512,0,0,0,0,0,-2420,0,139,148,158,138,1,8,0,1,1,0,0,4.396484385773716,0,0,0,0,0,-3,0,0,0,3,"",""
286,37368321,0,0,0,0,0,0,0,0,0,0,0,-6,1000,145,0,512,0,0,0,0,0,-2420,0,139,148,158,138,1,8,0,1,1,0,0,4.396484385773716,0,0,0,0,0,-3,0,0,0,3,"",""
287,37369637,0,0,0,0,0,0,0,0,0,0,0,-6,1000,145,0,512,0,0,0,0,0,-2420,0,139,148,159,138,1,8,0,1,1,0,0,4.396484385773716,0,0,0,0,0,-3,0,0,0,3,"",""
288,37370950,0,0,0,0,0,0,0,0,0,0,0,-6,1000,145,0,512,0,0,0,0,0,-2420,0,138,147,158,137,1,8,0,1,1,0,0,4.396484385773716,0,0,0,0,0,-3,0,0,0,3,"",""
289,37372274,0,0,0,0,0,0,0,0,0,0,0,-6,1000,145,0,512,0,0,0,0,0,-2420,0,138,147,158,137,1,8,0,1,1,0,0,4.396484385773716,0,0,0,0,0,-3,0,0,0,3,"",""
290,37373584,0,0,0,0,0,0,0,0,0,0,0,-6,1000,145,0,512,0,0,0,0,0,-2420,0,138,147,158,137,1,8,0,1,1,0,0,4.396484385773716,0,0,0,0,0,-3,0,0,0,3,"",""
291,37374924,0,0,0,0,0,0,0,0,0,0,0,-6,1000,145,0,512,0,0,0,0,0,-2420,0,139,147,158,137,1,8,0,1,1,0,0,4.396484385773716,0,0,0,0,0,-3,0,0,0,3,"",""
292,37376262,0,0,0,0,0,0,0,0,0,0,0,-6,1000,145,0,512,0,0,0,0,0,-2420,0,139,147,158,137,1,8,0,1,1,0,0,4.396484385773716,0,0,0,0,0,-3,0,0,0,3,"",""
293,37377588,0,0,0,0,0,0,0,0,0,0,0,-6,1000,145,0,512,0,0,0,0,0,-2420,0,138,147,157,137,1,8,0,1,1,0,0,4.396484385773716,0,0,0,0,0,-3,0,0,0,3,"",""
294,37379043,0,0,0,0,0,0,0,0,0,0,0,-6,1000,145,0,512,0,0,0,0,0,-2420,0,139,147,157,137,1,8,0,1,1,0,0,4.396484385773716,0,0,0,0,0,-3,0,0,0,3,"",""
295,37380499,0,0,0,0,0,0,0,0,0,0,0,-6,1000,145,0,512,0,0,0,0,0,-2420,0,138,147,158,137,1,8,0,1,1,0,0,4.396484385773716,0,0,0,0,0,-3,0,0,0,3,"",""
296,37381814,0,0,0,0,0,0,0,0,0,0,0,-6,1000,145,0,512,0,0,0,0,0,-2420,0,139,147,158,137,1,8,0,1,1,0,0,4.396484385773716,0,0,0,0,0,-3,0,0,0,3,"",""
297,37383136,0,0,0,0,0,0,0,0,0,0,0,-6,1000,145,0,512,0,0,0,0,0,-2420,0,139,147,158,137,1,8,0,1,1,0,0,4.396484385773716,0,0,0,0,0,-3,0,0,0,3,"",""
298,37384461,0,0,0,0,0,0,0,0,0,0,0,-6,1000,145,0,512,0,0,0,0,0,-2420,0,139,147,158,137,1,8,0,1,1,0,0,4.396484385773716,0,0,0,0,0,-3,0,0,0,3,"",""
299,37385785,0,0,0,0,0,0,0,0,0,0,0,-6,1000,145,0,512,0,0,0,0,0,-2420,0,139,147,158,137,1,8,0,1,1,0,0,4.396484385773716,0,0,0,0,0,-3,0,0,0,3,"",""
300,37387099,0,0,0,0,0,0,0,0,0,0,0,-6,1000,145,0,512,0,0,0,0,0,-2420,0,139,147,158,137,1,8,0,1,1,0,0,4.396484385773716,0,0,0,0,0,-3,0,0,0,3,"",""
301,37388414,0,0,0,0,0,0,0,0,0,0,0,-6,1000,145,0,512,0,0,0,0,0,-2420,0,138,147,158,137,1,8,0,1,1,0,0,4.396484385773716,0,0,0,0,0,-3,0,0,0,3,"",""
302,37389728,0,0,0,0,0,0,0,0,0,0,0,-6,1000,145,0,512,0,0,0,0,0,-2420,0,139,147,158,137,1,8,0,1,1,0,0,4.396484385773716,0,0,0,0,0,-3,0,0,0,3,"",""
303,37391041,0,0,0,0,0,0,0,0,0,0,0,-6,1000,145,0,512,0,0,0,0,0,-2420,0,138,147,158,137,1,8,0,1,1,0,0,4.396484385773716,0,0,0,0,0,-3,0,0,0,3,"",""
304,37392366,0,0,0,0,0,0,0,0,0,0,0,-6,1000,145,0,512,0,0,0,0,0,-2420,0,138,146,158,137,1,8,0,1,1,0,0,4.396484385773716,0,0,0,0,0,-3,0,0,0,3,"",""
305,37393696,0,0,0,0,0,0,0,0,0,0,0,-6,1000,145,0,512,0,0,0,0,0,-2420,0,138,147,158,137,1,8,0,1,1,0,0,4.396484385773716,0,0,0,0,0,-3,0,0,0,3,"",""
306,37395022,0,0,0,0,0,0,0,0,0,0,0,-6,1000,145,0,512,0,0,0,0,0,-2420,0,139,147,158,137,1,8,0,1,1,0,0,4.396484385773716,0,0,0,0,0,-3,0,0,0,3,"",""
307,37396347,0,0,0,0,0,0,0,0,0,0,0,-6,1000,145,0,512,0,0,0,0,0,-2420,0,139,147,158,137,1,8,0,1,1,0,0,4.396484385773716,0,0,0,0,0,-3,0,0,0,3,"",""
308,37397659,0,0,0,0,0,0,0,0,0,0,0,-6,1000,145,0,512,0,0,0,0,0,-2420,0,139,147,158,137,1,8,0,1,1,0,0,4.396484385773716,0,0,0,0,0,-3,0,0,0,3,"",""
309,37398991,0,0,0,0,0,0,0,0,0,0,0,-6,1000,145,0,512,0,0,0,0,0,-2420,0,138,147,158,137,1,8,0,1,1,0,0,4.396484385773716,0,0,0,0,0,-3,0,0,0,3,"",""
310,37400305,0,0,0,0,0,0,0,0,0,0,0,-6,1000,145,0,512,0,0,0,0,0,-2420,0,139,147,158,137,1,8,0,1,1,0,0,4.396484385773716,0,0,0,0,0,-3,0,0,0,3,"",""
311,37401637,0,0,0,0,0,0,0,0,0,0,0,-6,1000,145,0,512,0,0,0,0,0,-2420,0,139,147,158,137,1,8,0,1,1,0,0,4.396484385773716,0,0,0,0,0,-3,0,0,0,3,"",""
312,37402963,0,0,0,0,0,0,0,0,0,0,0,-6,1000,145,0,512,0,0,0,0,0,-2420,0,139,147,158,137,1,8,0,1,1,0,0,4.396484385773716,0,0,0,0,0,-3,0,0,0,3,"",""
313,37404277,0,0,0,0,0,0,0,0,0,0,0,-6,1000,145,0,512,0,0,0,0,0,-2420,0,139,147,158,137,1,8,0,1,1,0,0,4.396484385773716,0,0,0,0,0,-3,0,0,0,3,"",""
314,37405597,0,0,0,0,0,0,0,0,0,0,0,-6,1000,145,0,512,0,0,0,0,0,-2420,0,138,147,157,137,1,8,0,1,1,0,0,4.396484385773716,0,0,0,0,0,-3,0,0,0,3,"",""
315,37406916,0,0,0,0,0,0,0,0,0,0,0,-6,1000,145,0,512,0,0,0,0,0,-2420,0,138,146,157,137,1,8,0,1,1,0,0,4.396484385773716,0,0,0,0,0,-3,0,0,0,3,"",""
316,37408247,0,0,0,0,0,0,0,0,0,0,0,-6,1000,145,0,512,0,0,0,0,0,-2420,0,138,147,157,137,1,8,0,1,1,0,0,4.396484385773716,0,0,0,0,0,-3,0,0,0,3,"",""
317,37409700,0,0,0,0,0,0,0,0,0,0,0,-6,1000,145,0,512,0,0,0,0,0,-2420,0,138,146,157,137,1,8,0,1,1,0,0,4.396484385773716,0,0,0,0,0,-3,0,0,0,3,"",""
318,37411171,0,0,0,0,0,0,0,0,0,0,0,-6,1000,145,0,512,0,0,0,0,0,-2420,0,138,146,157,137,1,8,0,1,1,0,0,4.396484385773716,0,0,0,0,0,-3,0,0,0,3,"",""
319,37412495,0,0,0,0,0,0,0,0,0,0,0,-6,1000,145,0,512,0,0,0,0,0,-2420,0,138,146,157,137,1,8,0,1,1,0,0,4.396484385773716,0,0,0,0,0,-3,0,0,0,3,"",""
320,37413813,0,0,0,0,0,0,0,0,0,0,0,-6,1000,145,0,512,0,0,0,0,0,-2420,0,138,146,158,137,1,8,0,1,1,0,0,4.396484385773716,0,0,0,0,0,-3,0,0,0,3,"",""
321,37415129,0,0,0,0,0,0,0,0,0,0,0,-6,1000,145,0,512,0,0,0,0,0,-2420,0,138,146,158,137,1,8,0,1,1,0,0,4.396484385773716,0,0,0,0,0,-3,0,0,0,3,"",""
322,37416443,0,0,0,0,0,0,0,0,0,0,0,-6,1000,145,0,512,0,0,0,0,0,-2420,0,137,146,158,137,1,8,0,1,1,0,0,4.396484385773716,0,0,0,0,0,-3,0,0,0,3,"",""
323,37417753,0,0,0,0,0,0,0,0,0,0,0,-6,1000,145,0,512,0,0,0,0,0,-2420,0,137,146,158,137,1,8,0,1,1,0,0,4.396484385773716,0,0,0,0,0,-3,0,0,0,3,"",""
324,37419077,0,0,0,0,0,0,0,0,0,0,0,-6,1000,145,0,512,0,0,0,0,0,-2420,0,138,147,158,137,1,8,0,1,1,0,0,4.396484385773716,0,0,0,0,0,-3,0,0,0,3,"",""
325,37420405,0,0,0,0,0,0,0,0,0,0,0,-6,1000,145,0,512,0,0,0,0,0,-2420,0,138,147,158,137,1,8,0,1,1,0,0,4.396484385773716,0,0,0,0,0,-3,0,0,0,3,"",""
326,37421730,0,0,0,0,0,0,0,0,0,0,0,-6,1000,145,0,512,0,0,0,0,0,-2420,0,138,147,158,137,1,8,0,1,1,0,0,4.396484385773716,0,0,0,0,0,-3,0,0,0,3,"",""
327,37423052,0,0,0,0,0,0,0,0,0,0,0,-6,1000,145,0,512,0,0,0,0,0,-2420,0,139,147,158,137,1,8,0,1,1,0,0,4.396484385773716,0,0,0,0,0,-3,0,0,0,3,"",""
328,37424364,0,0,0,0,0,0,0,0,0,0,0,-6,1000,145,0,512,0,0,0,0,0,-2420,0,138,147,158,137,1,8,0,1,1,0,0,4.396484385773716,0,0,0,0,0,-3,0,0,0,3,"",""
329,37425677,0,0,0,0,0,0,0,0,0,0,0,-6,1000,145,0,512,0,0,0,0,0,-2420,0,139,147,158,137,1,8,0,1,1,0,0,4.396484385773716,0,0,0,0,0,-3,0,0,0,3,"",""
330,37426991,0,0,0,0,0,0,0,0,0,0,0,-6,1000,145,0,512,0,0,0,0,0,-2420,0,138,147,158,137,1,8,0,1,1,0,0,4.396484385773716,0,0,0,0,0,-3,0,0,0,3,"",""
331,37428323,0,0,0,0,0,0,0,0,0,0,0,-6,1000,145,0,512,0,0,0,0,0,-2420,0,138,147,158,137,1,8,0,1,1,0,0,4.396484385773716,0,0,0,0,0,-3,0,0,0,3,"",""
332,37429654,0,0,0,0,0,0,0,0,0,0,0,-6,1000,145,0,512,0,0,0,0,0,-2420,0,138,146,158,137,1,8,0,1,1,0,0,4.396484385773716,0,0,0,0,0,-3,0,0,0,3,"",""
333,37430987,0,0,0,0,0,0,0,0,0,0,0,-6,1000,145,0,512,0,0,0,0,0,-2420,0,138,146,158,137,1,8,0,1,1,0,0,4.396484385773716,0,0,0,0,0,-3,0,0,0,3,"",""
334,37432304,0,0,0,0,0,0,0,0,0,0,0,-6,1000,145,0,512,0,0,0,0,0,-2420,0,138,146,158,137,1,8,0,1,1,0,0,4.396484385773716,0,0,0,0,0,-3,0,0,0,3,"",""
335,37433619,0,0,0,0,0,0,0,0,0,0,0,-6,1000,145,0,512,0,0,0,0,0,-2420,0,138,147,158,137,1,8,0,1,1,0,0,4.396484385773716,0,0,0,0,0,-3,0,0,0,3,"",""
336,37434932,0,0,0,0,0,0,0,0,0,0,0,-6,1000,145,0,512,0,0,0,0,0,-2420,0,138,147,158,137,1,8,0,1,1,0,0,4.396484385773716,0,0,0,0,0,-3,0,0,0,3,"",""
337,37436249,0,0,0,0,0,0,0,0,0,0,0,-6,1000,145,0,512,0,0,0,0,0,-2420,0,138,147,158,137,1,8,0,1,1,0,0,4.396484385773716,0,0,0,0,0,-3,0,0,0,3,"",""
338,37437577,0,0,0,0,0,0,0,0,0,0,0,-6,1000,145,0,512,0,0,0,0,0,-2420,0,138,147,158,137,1,8,0,1,1,0,0,4.396484385773716,0,0,0,0,0,-3,0,0,0,3,"",""
339,37438918,0,0,0,0,0,0,0,0,0,0,0,-6,1000,145,0,512,0,0,0,0,0,-2420,0,138,147,158,137,1,8,0,1,1,0,0,4.396484385773716,0,0,0,0,0,-3,0,0,0,3,"",""
340,37440377,0,0,0,0,0,0,0,0,0,0,0,-6,1000,145,0,512,0,0,0,0,0,-2420,0,138,147,158,137,1,8,0,1,1,0,0,4.396484385773716,0,0,0,0,0,-3,0,0,0,3,"",""
341,37441830,0,0,0,0,0,0,0,0,0,0,0,-6,1000,145,0,512,0,0,0,0,0,-2420,0,139,147,158,137,1,8,0,1,1,0,0,4.396484385773716,0,0,0,0,0,-3,0,0,0,3,"",""
342,37443146,0,0,0,0,0,0,0,0,0,0,0,-6,1000,145,0,512,0,0,0,0,0,-2420,0,139,147,158,137,1,8,0,1,1,0,0,4.396484385773716,0,0,0,0,0,-3,0,0,0,3,"",""
343,37444461,0,0,0,0,0,0,0,0,0,0,0,-6,1000,145,0,512,0,0,0,0,0,-2420,0,139,147,158,137,1,8,0,1,1,0,0,4.396484385773716,0,0,0,0,0,-3,0,0,0,3,"",""
344,37445775,0,0,0,0,0,0,0,0,0,0,0,-6,1000,145,0,512,0,0,0,0,0,-2420,0,138,147,158,137,1,8,0,1,1,0,0,4.396484385773716,0,0,0,0,0,-3,0,0,0,3,"",""
345,37447118,0,0,0,0,0,0,0,0,0,0,0,-6,1000,145,0,512,0,0,0,0,0,-2420,0,138,147,158,137,1,8,0,1,1,0,0,4.396484385773716,0,0,0,0,0,-3,0,0,0,3,"",""
346,37448446,0,0,0,0,0,0,0,0,0,0,0,-6,1000,145,0,512,0,0,0,0,0,-2420,0,139,147,158,137,1,8,0,1,1,0,0,4.396484385773716,0,0,0,0,0,-3,0,0,0,3,"",""
347,37449764,0,0,0,0,0,0,0,0,0,0,0,-6,1000,145,0,512,0,0,0,0,0,-2420,0,139,147,158,137,1,8,0,1,1,0,0,4.396484385773716,0,0,0,0,0,-3,0,0,0,3,"",""
348,37451086,0,0,0,0,0,0,0,0,0,0,0,-6,1000,145,0,512,0,0,0,0,0,-2420,0,138,147,158,137,1,8,0,1,1,0,0,4.396484385773716,0,0,0,0,0,-3,0,0,0,3,"",""
349,37452402,0,0,0,0,0,0,0,0,0,0,0,-6,1000,145,0,512,0,0,0,0,0,-2420,0,139,147,158,137,1,8,0,1,1,0,0,4.396484385773716,0,0,0,0,0,-3,0,0,0,3,"",""
350,37453709,0,0,0,0,0,0,0,0,0,0,0,-6,1000,145,0,512,0,0,0,0,0,-2420,0,138,147,158,137,1,8,0,1,1,0,0,4.396484385773716,0,0,0,0,0,-3,0,0,0,3,"",""
351,37455021,0,0,0,0,0,0,0,0,0,0,0,-6,1000,145,0,512,0,0,0,0,0,-2420,0,138,147,158,137,1,8,0,1,1,0,0,4.396484385773716,0,0,0,0,0,-3,0,0,0,3,"",""
352,37456353,0,0,0,0,0,0,0,0,0,0,0,-6,1000,145,0,512,0,0,0,0,0,-2420,0,138,147,158,137,1,8,0,1,1,0,0,4.396484385773716,0,0,0,0,0,-3,0,0,0,3,"",""
353,37457680,0,0,0,0,0,0,0,0,0,0,0,-6,1000,145,0,512,0,0,0,0,0,-2420,0,138,147,158,137,1,8,0,1,1,0,0,4.396484385773716,0,0,0,0,0,-3,0,0,0,3,"",""
354,37458993,0,0,0,0,0,0,0,0,0,0,0,-6,1000,145,0,512,0,0,0,0,0,-2420,0,138,147,158,137,1,8,0,1,1,0,0,4.396484385773716,0,0,0,0,0,-3,0,0,0,3,"",""
355,37460305,0,0,0,0,0,0,0,0,0,0,0,-6,1000,145,0,512,0,0,0,0,0,-2420,0,139,147,158,137,1,8,0,1,1,0,0,4.396484385773716,0,0,0,0,0,-3,0,0,0,3,"",""
356,37461621,0,0,0,0,0,0,0,0,0,0,0,-6,1000,145,0,512,0,0,0,0,0,-2420,0,139,147,158,137,1,8,0,1,1,0,0,4.396484385773716,0,0,0,0,0,-3,0,0,0,3,"",""
357,37462936,0,0,0,0,0,0,0,0,0,0,0,-6,1000,145,0,512,0,0,0,0,0,-2420,0,139,147,158,137,1,8,0,1,1,0,0,4.396484385773716,0,0,0,0,0,-3,0,0,0,3,"",""
358,37464268,0,0,0,0,0,0,0,0,0,0,0,-6,1000,145,0,512,0,0,0,0,0,-2420,0,139,147,158,137,1,8,0,1,1,0,0,4.396484385773716,0,0,0,0,0,-3,0,0,0,3,"",""
359,37465596,0,0,0,0,0,0,0,0,0,0,0,-6,1000,145,0,512,0,0,0,0,0,-2420,0,138,147,158,137,1,8,0,1,1,0,0,4.396484385773716,0,0,0,0,0,-3,0,0,0,3,"",""
360,37466923,0,0,0,0,0,0,0,0,0,0,0,-6,1000,145,16,512,0,0,0,0,0,-2420,0,138,146,158,137,1,8,0,1,1,0,0,4.396484385773716,0,0,0,0,0,-3,0,0,0,3,"",""
361,37468254,0,0,0,0,0,0,0,0,0,0,0,-6,1000,145,16,512,0,0,0,0,0,-2420,0,138,146,158,137,1,8,0,1,1,0,0,4.396484385773716,0,0,0,0,0,-3,0,0,0,3,"",""
362,37469704,0,0,0,0,0,0,0,0,0,0,0,-6,1000,145,16,512,0,0,0,0,0,-2420,0,138,146,158,137,1,8,0,1,1,0,0,4.396484385773716,0,0,0,0,0,-3,0,0,0,3,"",""
363,37471163,0,0,0,0,0,0,0,0,0,0,0,-6,1000,145,16,512,0,0,0,0,0,-2420,0,138,146,158,137,1,8,0,1,1,0,0,4.396484385773716,0,0,0,0,0,-3,0,0,0,3,"",""
364,37472478,0,0,0,0,0,0,0,0,0,0,0,-6,1000,145,16,512,0,0,0,0,0,-2420,0,138,147,158,137,1,8,0,1,1,0,0,4.396484385773716,0,0,0,0,0,-3,0,0,0,3,"",""
365,37473807,0,0,0,0,0,0,0,0,0,0,0,-6,1000,145,16,512,0,0,0,0,0,-2420,0,139,147,158,137,1,8,0,1,1,0,0,4.396484385773716,0,0,0,0,0,-3,0,0,0,3,"",""
366,37475138,0,0,0,0,0,0,0,0,0,0,0,-6,1000,145,16,512,0,0,0,0,0,-2420,0,138,147,158,137,1,8,0,1,1,0,0,4.396484385773716,0,0,0,0,0,-3,0,0,0,3,"",""
367,37476454,0,0,0,0,0,0,0,0,0,0,0,-6,1000,145,16,512,0,0,0,0,0,-2420,0,139,147,158,137,1,8,0,1,1,0,0,4.396484385773716,0,0,0,0,0,-3,0,0,0,3,"",""
368,37477764,0,0,0,0,0,0,0,0,0,0,0,-6,1000,145,16,512,0,0,0,0,0,-2420,0,138,147,158,137,1,8,0,1,1,0,0,4.396484385773716,0,0,0,0,0,-3,0,0,0,3,"",""
369,37479083,0,0,0,0,0,0,0,0,0,0,0,-6,1000,145,16,512,0,0,0,0,0,-2420,0,138,147,158,137,1,8,0,1,1,0,0,4.396484385773716,0,0,0,0,0,-3,0,0,0,3,"",""
370,37480397,0,0,0,0,0,0,0,0,0,0,0,-6,1000,145,16,512,0,0,0,0,0,-2420,0,138,146,158,137,1,8,0,1,1,0,0,4.396484385773716,0,0,0,0,0,-3,0,0,0,3,"",""
371,37481716,0,0,0,0,0,0,0,0,0,0,0,-6,1000,145,16,512,0,0,0,0,0,-2420,0,138,147,158,137,1,8,0,1,1,0,0,4.396484385773716,0,0,0,0,0,-3,0,0,0,3,"",""
372,37483044,0,0,0,0,0,0,0,0,0,0,0,-6,1000,145,16,512,0,0,0,0,0,-2420,0,138,146,158,137,1,8,0,1,1,0,0,4.396484385773716,0,0,0,0,0,-3,0,0,0,3,"",""
373,37484380,0,0,0,0,0,0,0,0,0,0,0,-6,1000,145,16,512,0,0,0,0,0,-2420,0,138,146,158,137,1,8,0,1,1,0,0,4.396484385773716,0,0,0,0,0,-3,0,0,0,3,"",""
374,37485696,0,0,0,0,0,0,0,0,0,0,0,-6,1000,145,16,512,0,0,0,0,0,-2420,0,138,146,158,137,1,8,0,1,1,0,0,4.396484385773716,0,0,0,0,0,-3,0,0,0,3,"",""
375,37487009,0,0,0,0,0,0,0,0,0,0,0,-6,1000,145,0,512,0,0,0,0,0,-2420,0,138,146,158,137,1,8,0,1,1,0,0,4.396484385773716,0,0,0,0,0,-3,0,0,0,3,"",""
376,37488325,0,0,0,0,0,0,0,0,0,0,0,-6,1000,145,0,512,0,0,0,0,0,-2420,0,138,146,158,137,1,8,0,1,1,0,0,4.396484385773716,0,0,0,0,0,-3,0,0,0,3,"",""
377,37489633,0,0,0,0,0,0,0,0,0,0,0,-6,1000,145,0,512,0,0,0,0,0,-2420,0,138,146,157,137,1,8,0,1,1,0,0,4.396484385773716,0,0,0,0,0,-3,0,0,0,3,"",""
378,37490946,0,0,0,0,0,0,0,0,0,0,0,-6,1000,145,0,512,0,0,0,0,0,-2420,0,137,146,157,137,1,8,0,1,1,0,0,4.396484385773716,0,0,0,0,0,-3,0,0,0,3,"",""
379,37492271,0,0,0,0,0,0,0,0,0,0,0,-6,1000,145,0,512,0,0,0,0,0,-2420,0,138,146,158,137,1,8,0,1,1,0,0,4.396484385773716,0,0,0,0,0,-3,0,0,0,3,"",""
380,37493596,0,0,0,0,0,0,0,0,0,0,0,-6,1000,145,0,512,0,0,0,0,0,-2420,0,138,146,158,137,1,8,0,1,1,0,0,4.396484385773716,0,0,0,0,0,-3,0,0,0,3,"",""
381,37494917,0,0,0,0,0,0,0,0,0,0,0,-6,1000,145,0,512,0,0,0,0,0,-2420,0,138,146,158,137,1,8,0,1,1,0,0,4.396484385773716,0,0,0,0,0,-3,0,0,0,3,"",""
382,37496226,0,0,0,0,0,0,0,0,0,0,0,-6,1000,145,0,512,0,0,0,0,0,-2420,0,138,146,158,137,1,8,0,1,1,0,0,4.396484385773716,0,0,0,0,0,-3,0,0,0,3,"",""
383,37497540,0,0,0,0,0,0,0,0,0,0,0,-6,1000,145,0,512,0,0,0,0,0,-2420,0,139,147,158,137,1,8,0,1,1,0,0,4.396484385773716,0,0,0,0,0,-3,0,0,0,3,"",""
384,37498868,0,0,0,0,0,0,0,0,0,0,0,-6,1000,145,0,512,0,0,0,0,0,-2420,0,138,146,157,136,1,8,0,1,1,0,0,4.396484385773716,0,0,0,0,0,-3,0,0,0,3,"",""
385,37500338,0,0,0,0,0,0,0,0,0,0,0,-6,1000,145,0,512,0,0,0,0,0,-2420,0,137,146,157,136,1,8,0,1,1,0,0,4.396484385773716,0,0,0,0,0,-3,0,0,0,3,"",""
386,37501807,0,0,0,0,0,0,0,0,0,0,0,-6,1000,145,0,512,0,0,0,0,0,-2420,0,137,146,157,136,1,8,0,1,1,0,0,4.396484385773716,0,0,0,0,0,-3,0,0,0,3,"",""
387,37503137,0,0,0,0,0,0,0,0,0,0,0,-6,1000,145,0,512,0,0,0,0,0,-2420,0,137,146,157,136,1,8,0,1,1,0,0,4.396484385773716,0,0,0,0,0,-3,0,0,0,3,"",""
388,37504451,0,0,0,0,0,0,0,0,0,0,0,-6,1000,145,0,512,0,0,0,0,0,-2420,0,137,146,157,136,1,8,0,1,1,0,0,4.396484385773716,0,0,0,0,0,-3,0,0,0,3,"",""
389,37505767,0,0,0,0,0,0,0,0,0,0,0,-6,1000,145,0,512,0,0,0,0,0,-2420,0,136,145,156,136,1,8,0,1,1,0,0,4.396484385773716,0,0,0,0,0,-3,0,0,0,3,"",""
390,37507084,0,0,0,0,0,0,0,0,0,0,0,-6,1000,145,0,512,0,0,0,0,0,-2420,0,136,145,156,136,1,8,0,1,1,0,0,4.396484385773716,0,0,0,0,0,-3,0,0,0,3,"",""
391,37508392,0,0,0,0,0,0,0,0,0,0,0,-6,1000,145,0,512,0,0,0,0,0,-2420,0,136,145,156,136,1,8,0,1,1,0,0,4.396484385773716,0,0,0,0,0,-3,0,0,0,3,"",""
392,37509722,0,0,0,0,0,0,0,0,0,0,0,-6,1000,145,0,512,0,0,0,0,0,-2420,0,136,145,156,136,1,8,0,1,1,0,0,4.396484385773716,0,0,0,0,0,-3,0,0,0,3,"",""
393,37511049,0,0,0,0,0,0,0,0,0,0,0,-6,1000,145,0,512,0,0,0,0,0,-2420,0,136,145,156,136,1,8,0,1,1,0,0,4.396484385773716,0,0,0,0,0,-3,0,0,0,3,"",""
