"Product","Blackbox flight data recorder by Nicholas Sherlock"
"firmwareType",3
"firmware","3.3"
"firmwarePatch",3
"firmwareVersion","3.3.3"
"Firmware revision","Betaflight 3.3.3 (4dd6907a9) MATEKF722"
"Firmware date","Jun 11 2022 14:50:31"
"Log start datetime","0000-01-01T00:00:00.000+00:00"
"Craft name","NEUROFLIGHT"
"frameIntervalI",32
"frameIntervalPNum",1
"frameIntervalPDenom",1
"minthrottle",1070
"maxthrottle",2000
"gyroScale",1.7453292519943295e-8
"motorOutput","128,2047"
"acc_1G",2048
"vbatscale",110
"vbatmincellvoltage",33
"vbatwarningcellvoltage",35
"vbatmaxcellvoltage",43
"vbatref",150
"currentMeterOffset",0
"currentMeterScale",179
"looptime",125
"gyro_sync_denom",1
"pid_process_denom",8
"thrMid",50
"thrExpo",0
"dynThrPID",10
"tpa_breakpoint",1650
"rc_rates","100,100,100"
"rc_expo","0,0,0"
"rates","70,70,70"
"rollPID","40,40,30"
"pitchPID","58,50,35"
"yawPID","70,45,20"
"altPID","50,0,0"
"posPID","15,0,0"
"posrPID","34,14,53"
"navrPID","25,33,83"
"levelPID","50,50,75"
"magPID","40,,"
"velPID","55,55,75"
"dterm_filter_type",1
"dterm_lpf_hz",100
"yaw_lpf_hz",0
"dterm_notch_hz",260
"dterm_notch_cutoff",160
"itermWindupPointPercent",50
"vbat_pid_compensation",0
"pidAtMinThrottle",1
"anti_gravity_threshold",350
"anti_gravity_gain",1000
"setpointRelaxRatio",100
"dtermSetpointWeight",0
"yawRateAccelLimit",0.1
"rateAccelLimit",0
"pidSumLimit",500
"pidSumLimitYaw",400
"deadband",0
"yaw_deadband",0
"gyro_lpf",0
"gyro_soft_type",0
"gyro_lowpass_hz",90
"gyro_notch_hz","400,200"
"gyro_notch_cutoff","300,100"
"acc_lpf_hz",1000
"acc_hardware",0
"baro_hardware",0
"mag_hardware",0
"gyro_cal_on_first_arm",0
"rc_interpolation",2
"rc_interpolation_interval",19
"airmode_activate_throttle",32
"serialrx_provider",2
"unsynced_fast_pwm",0
"fast_pwm_protocol",7
"motor_pwm_rate",480
"digitalIdleOffset",400
"debug_mode",0
"features",263176
"loopIteration","time","axisP[0]","axisP[1]","axisP[2]","axisI[0]","axisI[1]","axisI[2]","axisD[0]","axisD[1]","axisD[2]","rcCommand[0]","rcCommand[1]","rcCommand[2]","rcCommand[3]","vbatLatest","amperageLatest","BaroAlt","gyroADC[0]","gyroADC[1]","gyroADC[2]","accSmooth[0]","accSmooth[1]","accSmooth[2]","motor[0]","motor[1]","motor[2]","motor[3]","flightModeFlags","stateFlags","failsafePhase","rxSignalReceived","rxFlightChannelsValid","heading[0]","heading[1]","heading[2]","axisSum[0]","axisSum[1]","axisSum[2]","rcCommands[0]","rcCommands[1]","rcCommands[2]","rcCommands[3]","axisError[0]","axisError[1]","axisError[2]"
0,177354915,0,0,0,0,0,0,0,0,0,9,-2,0,1000,151,0,20,8,0,1,56,242,2098,128,83,338,232,"","","","","",0.11484042203955849,-0.026510057108625452,4.3964843684292925,0,0,0,3,-1,0,0,5,1,1,"",""
1,177356263,0,0,0,0,0,0,0,0,0,9,-2,0,1000,151,0,20,7,0,0,62,241,2095,131,83,309,264,1,8,0,1,1,0.11476871159254277,-0.027951187479493156,4.39648436842814,0,0,0,3,-1,0,0,4,1,0,"",""
2,177357740,0,0,0,0,0,0,0,0,0,9,-2,0,1000,151,0,20,7,0,-2,68,239,2093,160,83,345,299,1,8,0,1,1,0.11453275708480902,-0.02938708929535632,4.396535609799363,0,0,0,3,-1,0,0,4,1,-2,"",""
3,177359229,0,0,0,0,0,0,0,0,0,9,-2,0,1000,151,0,20,7,0,-3,72,238,2090,162,83,328,335,1,8,0,1,1,0.11438433445341749,-0.030588172086141605,4.396613104269479,0,0,0,3,-1,0,0,4,1,-3,"",""
4,177360593,0,0,0,0,0,0,0,0,0,9,-2,0,1000,151,0,20,6,0,-3,74,238,2088,178,83,336,382,1,8,0,1,1,0.1143222393914767,-0.03150463784406026,4.396684098945307,0,0,0,3,-1,0,0,3,1,-3,"",""
5,177361937,0,0,0,0,0,0,0,0,0,9,-2,0,1000,151,0,20,6,0,-3,74,237,2085,169,83,360,287,1,8,0,1,1,0.11425132393726938,-0.03212283065317332,4.396754056808772,0,0,0,3,-1,0,0,3,1,-3,"",""
6,177363267,0,0,0,0,0,0,0,0,0,9,-2,0,1000,151,0,20,6,1,-2,73,235,2082,155,83,324,347,1,8,0,1,1,0.11410665934519801,-0.03248525804973309,4.396797572860919,0,0,0,3,-1,0,0,3,2,-2,"",""
7,177364598,0,0,0,0,0,0,0,0,0,9,-2,0,1000,151,0,20,6,0,-1,70,232,2080,147,83,319,235,1,8,0,1,1,0.11385033741619728,-0.03260170871338077,4.396820689725232,0,0,0,3,-1,0,0,3,1,-1,"",""
8,177365931,0,0,0,0,0,0,0,0,0,9,-2,0,1000,151,0,20,7,0,0,65,228,2078,135,83,319,179,1,8,0,1,1,0.11348684753130855,-0.03243278373052192,4.396820720296457,0,0,0,3,-1,0,0,4,1,0,"",""
9,177367274,0,0,0,0,0,0,0,0,0,9,-2,0,1000,151,0,22,7,1,1,60,225,2077,114,83,276,210,1,8,0,1,1,0.11307455657676362,-0.032041328501200034,4.396794803395534,0,0,0,3,-1,0,0,4,2,1,"",""
10,177368635,0,0,0,0,0,0,0,0,0,9,-2,0,1000,151,0,22,8,1,2,56,222,2076,114,83,293,160,1,8,0,1,1,0.11264913705113203,-0.03154833727012122,4.396744947145315,0,0,0,3,-1,0,0,5,2,2,"",""
11,177370008,0,0,0,0,0,0,0,0,0,9,-2,0,1000,151,0,22,8,0,2,53,219,2076,119,83,308,148,1,8,0,1,1,0.1121918759677777,-0.031037520557089016,4.396697359279241,0,0,0,3,-1,0,0,5,1,2,"",""
12,177371340,0,0,0,0,0,0,0,0,0,9,-2,0,1000,151,0,22,9,1,1,50,217,2076,108,83,278,165,1,8,0,1,1,0.11176224094105144,-0.030470638139329254,4.396671708438138,0,0,0,3,-1,0,0,6,2,1,"",""
13,177372672,0,0,0,0,0,0,0,0,0,9,-2,0,1000,151,0,22,9,1,1,48,217,2076,126,83,316,177,1,8,0,1,1,0.11140839472871109,-0.029914089491973953,4.396646070151406,0,0,0,3,-1,0,0,6,2,1,"",""
14,177374006,0,0,0,0,0,0,0,0,0,9,-2,0,1000,151,0,22,9,1,1,45,217,2076,134,83,322,221,1,8,0,1,1,0.11111552326244509,-0.029333578727540752,4.396620403376236,0,0,0,3,-1,0,0,6,2,1,"",""
15,177375333,0,0,0,0,0,0,0,0,0,9,-2,0,1000,151,0,22,9,0,0,43,218,2076,143,83,337,210,1,8,0,1,1,0.11090167030654484,-0.028782870306311364,4.39662046696887,0,0,0,3,-1,0,0,6,1,0,"",""
16,177376680,0,0,0,0,0,0,0,0,0,9,-2,0,1000,151,0,22,8,0,1,42,219,2076,226,83,355,233,1,8,0,1,1,0.11073343777263217,-0.028270636347940584,4.396597145404048,0,0,0,3,-1,0,0,5,1,1,"",""
17,177378039,0,0,0,0,0,0,0,0,0,9,-2,0,1000,151,0,22,8,0,1,41,220,2077,308,83,354,259,1,8,0,1,1,0.11061942516259976,-0.027787571420904943,4.396573607103986,0,0,0,3,-1,0,0,5,1,1,"",""
18,177379387,0,0,0,0,0,0,0,0,0,9,-2,0,1000,150,0,22,8,-1,1,41,220,2077,137,83,373,195,1,8,0,1,1,0.11052578986458927,-0.02737746339747357,4.39655285212937,0,0,0,3,-1,0,0,5,0,1,"",""
19,177380717,0,0,0,0,0,0,0,0,0,9,-2,0,1000,150,0,22,7,-1,2,42,219,2076,211,83,387,243,1,8,0,1,1,0.11040425858061953,-0.02703660202936788,4.396509285222118,0,0,0,3,-1,0,0,4,0,2,"",""
20,177382050,0,0,0,0,0,0,0,0,0,9,-2,0,1000,150,0,22,7,-1,3,44,217,2076,115,83,331,208,1,8,0,1,1,0.11025558980376035,-0.026778281615711885,4.396442478928431,0,0,0,3,-1,0,0,4,0,3,"",""
21,177383382,0,0,0,0,0,0,0,0,0,9,-2,0,1000,150,0,22,7,-1,4,48,214,2076,119,83,362,218,1,8,0,1,1,0.1100609876701717,-0.026635685556308228,4.396352595544717,0,0,0,3,-1,0,0,4,0,4,"",""
22,177384722,0,0,0,0,0,0,0,0,0,9,-2,0,1000,150,0,22,7,-1,3,52,210,2076,105,83,323,196,1,8,0,1,1,0.10980748766552205,-0.026589406302958352,4.396285408739059,0,0,0,3,-1,0,0,4,0,3,"",""
23,177386071,0,0,0,0,0,0,0,0,0,9,-2,0,1000,150,0,22,8,0,3,56,207,2076,100,83,302,189,1,8,0,1,1,0.10954465634253695,-0.02660730881172679,4.396215174288693,0,0,0,3,-1,0,0,5,1,3,"",""
24,177387438,0,0,0,0,0,0,0,0,0,9,-2,0,1000,150,0,22,7,0,2,60,205,2076,110,83,301,237,1,8,0,1,1,0.10925141196075716,-0.026699726154633986,4.396167721006852,0,0,0,3,-1,0,0,4,1,2,"",""
25,177388929,0,0,0,0,0,0,0,0,0,9,-2,0,1000,150,0,22,7,0,1,63,205,2075,113,83,304,227,1,8,0,1,1,0.10900403353370516,-0.026839729340415112,4.396141837190907,0,0,0,3,-1,0,0,4,1,1,"",""
26,177390397,0,0,0,0,0,0,0,0,0,9,-2,0,1000,150,0,22,7,1,-1,65,205,2075,130,83,313,273,1,8,0,1,1,0.10878002302773493,-0.02697572336362921,4.396164526610753,0,0,0,3,-1,0,0,4,2,-1,"",""
27,177391735,0,0,0,0,0,0,0,0,0,9,-2,0,1000,150,0,23,7,1,-1,67,204,2075,144,83,321,321,1,8,0,1,1,0.10854551546634073,-0.027138413560337835,4.396185223513229,0,0,0,3,-1,0,0,4,2,-1,"",""
28,177393076,0,0,0,0,0,0,0,0,0,9,-2,0,1000,150,0,23,7,1,-1,67,204,2075,154,83,344,264,1,8,0,1,1,0.10833299971348796,-0.02728899687720014,4.3962059820213515,0,0,0,3,-1,0,0,4,2,-1,"",""
29,177394416,0,0,0,0,0,0,0,0,0,9,-2,0,1000,150,0,23,6,1,-1,66,203,2073,157,83,346,313,1,8,0,1,1,0.10810452762808061,-0.02741337301238607,4.396226740583783,0,0,0,3,-1,0,0,3,2,-1,"",""
30,177395771,0,0,0,0,0,0,0,0,0,9,-2,0,1000,150,0,23,7,0,0,65,201,2072,139,83,320,181,1,8,0,1,1,0.10788925014662289,-0.027538596314089617,4.396226774689958,0,0,0,3,-1,0,0,4,1,0,"",""
31,177397138,0,0,0,0,0,0,0,0,0,9,-2,0,1000,150,0,23,7,0,0,64,198,2072,132,83,320,135,1,8,0,1,1,0.10764806019887509,-0.02764083165254928,4.396226811514101,0,0,0,3,-1,0,0,4,1,0,"",""
32,177398471,0,0,0,0,0,0,0,0,0,9,-2,0,1000,150,0,23,8,0,1,62,195,2072,128,86,329,207,1,8,0,1,1,0.1073998250532382,-0.027709698280464497,4.396203710916686,0,0,0,3,-1,0,0,5,1,1,"",""
33,177399806,0,0,0,0,0,0,0,0,0,9,-2,0,1000,151,0,23,8,0,2,61,193,2072,122,86,306,149,1,8,0,1,1,0.10714229799998498,-0.02776265606880021,4.396157399331042,0,0,0,3,-1,0,0,5,1,2,"",""
34,177401144,0,0,0,0,0,0,0,0,0,9,-2,0,1000,151,0,23,9,0,2,60,191,2073,126,86,328,167,1,8,0,1,1,0.10689814646746679,-0.027798377029646482,4.396110981151479,0,0,0,3,-1,0,0,6,1,2,"",""
35,177402475,0,0,0,0,0,0,0,0,0,9,-2,0,1000,151,0,23,9,0,1,60,190,2074,119,86,284,207,1,8,0,1,1,0.10665761849693575,-0.027829465062374294,4.396087909522262,0,0,0,3,-1,0,0,6,1,1,"",""
36,177403817,0,0,0,0,0,0,0,0,0,9,-2,0,1000,151,0,23,9,0,1,60,191,2075,129,86,318,175,1,8,0,1,1,0.10644901158594235,-0.027858545927566748,4.396064643005103,0,0,0,3,-1,0,0,6,1,1,"",""
37,177405169,0,0,0,0,0,0,0,0,0,9,-2,0,1000,151,0,23,8,0,0,60,192,2077,152,86,319,274,1,8,0,1,1,0.1062460666188352,-0.027882971914009725,4.396064672262044,0,0,0,3,-1,0,0,5,1,0,"",""
38,177406528,0,0,0,0,0,0,0,0,0,9,-2,0,1000,151,0,23,8,0,-1,60,195,2079,163,86,339,303,1,8,0,1,1,0.10609489266454644,-0.027902876892652095,4.396088292657447,0,0,0,3,-1,0,0,5,1,-1,"",""
39,177407864,0,0,0,0,0,0,0,0,0,9,-2,0,1000,151,0,23,7,0,-1,60,197,2081,403,86,361,272,1,8,0,1,1,0.10595199385844917,-0.02792101088270901,4.396111512308473,0,0,0,3,-1,0,0,4,1,-1,"",""
40,177409197,0,0,0,0,0,0,0,0,0,9,-2,0,1000,151,0,23,7,0,-1,60,199,2082,171,86,354,339,1,8,0,1,1,0.10584230745890173,-0.027937802330177786,4.396134678258881,0,0,0,3,-1,0,0,4,1,-1,"",""
41,177410527,0,0,0,0,0,0,0,0,0,9,-2,0,1000,151,0,23,7,-1,-1,61,200,2083,153,86,354,231,1,8,0,1,1,0.10575180624221941,-0.02798767483976788,4.396160242538965,0,0,0,3,-1,0,0,4,0,-1,"",""
42,177411856,0,0,0,0,0,0,0,0,0,9,-2,0,1000,151,0,23,7,-1,0,61,201,2084,150,86,361,257,1,8,0,1,1,0.10567868852443789,-0.028037711199959185,4.3961627047476,0,0,0,3,-1,0,0,4,0,0,"",""
43,177413211,0,0,0,0,0,0,0,0,0,9,-2,0,1000,151,0,23,7,0,1,61,200,2084,128,86,306,268,1,8,0,1,1,0.10560365321944316,-0.028065925464431835,4.396139187334981,0,0,0,3,-1,0,0,4,1,1,"",""
44,177414570,0,0,0,0,0,0,0,0,0,9,-2,0,1000,151,0,23,7,-1,2,62,198,2084,129,86,322,147,1,8,0,1,1,0.10551345849933681,-0.028129515588559882,4.396094502688963,0,0,0,3,-1,0,0,4,0,2,"",""
45,177415920,0,0,0,0,0,0,0,0,0,9,-2,0,1000,151,0,23,7,0,2,63,197,2084,116,86,311,235,1,8,0,1,1,0.10541877539455262,-0.028178665410207367,4.396047623608051,0,0,0,3,-1,0,0,4,1,2,"",""
46,177417263,0,0,0,0,0,0,0,0,0,9,-2,0,1000,151,0,24,8,1,2,64,196,2084,95,86,258,204,1,8,0,1,1,0.10534298989514751,-0.028213598575236674,4.395998520118101,0,0,0,3,-1,0,0,5,2,2,"",""
47,177418598,0,0,0,0,0,0,0,0,0,9,-2,0,1000,151,0,24,8,1,2,64,196,2084,112,86,301,157,1,8,0,1,1,0.10527301719965405,-0.028246807248192507,4.395949715005331,0,0,0,3,-1,0,0,5,2,2,"",""
48,177420129,0,0,0,0,0,0,0,0,0,9,-2,0,1000,151,0,24,8,1,1,63,197,2083,111,86,279,214,1,8,0,1,1,0.10524803199214797,-0.028263020809146364,4.395920332109659,0,0,0,3,-1,0,0,5,2,1,"",""
49,177421611,0,0,0,0,0,0,0,0,0,9,-2,0,1000,151,0,24,8,1,0,60,199,2083,127,86,302,244,1,8,0,1,1,0.10524199977307512,-0.028246272841950453,4.395917627539574,0,0,0,3,-1,0,0,5,2,0,"",""
50,177422974,0,0,0,0,0,0,0,0,0,9,-2,0,1000,151,0,24,8,1,-1,56,203,2083,151,86,335,259,1,8,0,1,1,0.10526338010699521,-0.02819007178987243,4.3959388095134555,0,0,0,3,-1,0,0,5,2,-1,"",""
51,177424330,0,0,0,0,0,0,0,0,0,9,-2,0,1000,151,0,24,8,1,-1,50,207,2081,156,86,325,229,1,8,0,1,1,0.10532669369936339,-0.028078566759323277,4.395959881337232,0,0,0,3,-1,0,0,5,2,-1,"",""
52,177425669,0,0,0,0,0,0,0,0,0,9,-2,0,1000,151,0,24,8,0,-1,44,211,2079,151,86,339,220,1,8,0,1,1,0.10542825156671298,-0.027937815215283972,4.395983144960513,0,0,0,3,-1,0,0,5,1,-1,"",""
53,177427001,0,0,0,0,0,0,0,0,0,9,-2,0,1000,151,0,24,8,0,0,36,214,2077,267,86,353,272,1,8,0,1,1,0.10555733939607816,-0.02773107404955639,4.3959831561400495,0,0,0,3,-1,0,0,5,1,0,"",""
54,177428331,0,0,0,0,0,0,0,0,0,9,-2,0,1000,151,0,24,8,-1,0,28,217,2076,137,86,333,138,1,8,0,1,1,0.10571285434657447,-0.027481939630303785,4.395985614584878,0,0,0,3,-1,0,0,5,0,0,"",""
55,177429656,0,0,0,0,0,0,0,0,0,9,-2,0,1000,151,0,24,8,-1,2,19,219,2075,137,86,358,182,1,8,0,1,1,0.10588278344185685,-0.02716656936798643,4.395942056771466,0,0,0,3,-1,0,0,5,0,2,"",""
56,177431011,0,0,0,0,0,0,0,0,0,9,-2,0,1000,151,0,24,8,-1,2,10,220,2074,128,86,346,201,1,8,0,1,1,0.10606360032271558,-0.02678447308679631,4.395897518523612,0,0,0,3,-1,0,0,5,0,2,"",""
57,177432372,0,0,0,0,0,0,0,0,0,9,-2,0,1000,151,0,24,8,-1,2,1,222,2074,128,86,348,186,1,8,0,1,1,0.10625930729003558,-0.026338295126945757,4.395852789427868,0,0,0,3,-1,0,0,5,0,2,"",""
58,177433726,0,0,0,0,0,0,0,0,0,9,-2,0,1000,151,0,24,8,-1,2,-8,224,2075,132,86,343,235,1,8,0,1,1,0.10646651361184858,-0.025830741815098326,4.395808298076455,0,0,0,3,-1,0,0,5,0,2,"",""
59,177435056,0,0,0,0,0,0,0,0,0,9,-2,0,1000,151,0,24,8,-1,2,-17,228,2077,124,86,330,199,1,8,0,1,1,0.10669806591407607,-0.025264216710415933,4.395764604346861,0,0,0,3,-1,0,0,5,0,2,"",""
60,177436384,0,0,0,0,0,0,0,0,0,9,-2,0,1000,151,0,24,8,-1,1,-24,234,2080,139,86,342,240,1,8,0,1,1,0.10697176149682222,-0.024655831516986658,4.395744040369512,0,0,0,3,-1,0,0,5,0,1,"",""
61,177437726,0,0,0,0,0,0,0,0,0,9,-2,0,1000,151,0,24,7,0,0,-31,242,2083,148,86,338,284,1,8,0,1,1,0.10728080791069487,-0.023984876358023287,4.395744058943729,0,0,0,3,-1,0,0,4,1,0,"",""
62,177439070,0,0,0,0,0,0,0,0,0,9,-2,0,1000,151,0,24,7,-1,-1,-36,251,2086,161,86,359,288,1,8,0,1,1,0.10765228229786408,-0.023315068386823207,4.395769929109,0,0,0,3,-1,0,0,4,0,-1,"",""
63,177440429,0,0,0,0,0,0,0,0,0,9,-2,0,1000,150,0,24,7,-1,-2,-39,258,2088,173,86,363,336,1,8,0,1,1,0.10806996624837215,-0.022640220227828557,4.395819689341439,0,0,0,3,-1,0,0,4,0,-2,"",""
64,177441803,0,0,0,0,0,0,0,0,0,9,-2,0,1000,150,0,24,6,0,-2,-42,262,2089,128,49,302,313,1,8,0,1,1,0.10848530153045635,-0.02193976501172014,4.395867413668427,0,0,0,3,-1,0,0,3,1,-2,"",""
65,177443151,0,0,0,0,0,0,0,0,0,9,-2,0,1000,150,0,24,6,-1,-1,-43,265,2090,274,49,334,240,1,8,0,1,1,0.1089088348002099,-0.0212783550816049,4.39589339591615,0,0,0,3,-1,0,0,3,0,-1,"",""
66,177444478,0,0,0,0,0,0,0,0,0,9,-2,0,1000,150,0,24,6,0,0,-43,266,2091,116,49,317,295,1,8,0,1,1,0.10932557671564935,-0.02061646030616878,4.395893432022151,0,0,0,3,-1,0,0,3,1,0,"",""
67,177445823,0,0,0,0,0,0,0,0,0,9,-2,0,1000,150,0,24,6,-1,0,-40,265,2090,100,49,304,172,1,8,0,1,1,0.10972723044120375,-0.020019614255193517,4.395896036866431,0,0,0,3,-1,0,0,3,0,0,"",""
68,177447151,0,0,0,0,0,0,0,0,0,9,-2,0,1000,150,0,24,7,-1,2,-35,264,2089,90,49,300,132,1,8,0,1,1,0.11013276187474837,-0.019482028023997698,4.3958525378928535,0,0,0,3,-1,0,0,4,0,2,"",""
69,177448492,0,0,0,0,0,0,0,0,0,9,-2,0,1000,150,0,24,7,0,2,-32,262,2088,63,49,223,156,1,8,0,1,1,0.11051676136675669,-0.01895952190770958,4.395806045455134,0,0,0,3,-1,0,0,4,1,2,"",""
70,177449860,0,0,0,0,0,0,0,0,0,9,-2,0,1000,150,0,24,8,0,3,-29,259,2088,71,49,255,102,1,8,0,1,1,0.11089710347030429,-0.018476056492754755,4.395734881275683,0,0,0,3,-1,0,0,5,1,3,"",""
71,177451351,0,0,0,0,0,0,0,0,0,9,-2,0,1000,150,0,24,8,0,3,-28,257,2088,72,49,270,159,1,8,0,1,1,0.11127214732868233,-0.018014008279478678,4.395657317215031,0,0,0,3,-1,0,0,5,1,3,"",""
72,177452818,0,0,0,0,0,0,0,0,0,9,-2,0,1000,150,0,24,8,1,2,-27,255,2087,61,49,226,139,1,8,0,1,1,0.11162364844410574,-0.01754391643929393,4.3956035999241205,0,0,0,3,-1,0,0,5,2,2,"",""
73,177454163,0,0,0,0,0,0,0,0,0,9,-2,0,1000,150,0,24,9,1,2,-27,254,2085,88,49,286,133,1,8,0,1,1,0.11196935960875752,-0.01708823284605884,4.395554341994108,0,0,0,3,-1,0,0,6,2,2,"",""
74,177455498,0,0,0,0,0,0,0,0,0,9,-2,0,1000,150,0,24,8,1,1,-28,254,2083,103,49,299,213,1,8,0,1,1,0.11228586877952008,-0.016635560778932575,4.395528598845705,0,0,0,3,-1,0,0,5,2,1,"",""
75,177456834,0,0,0,0,0,0,0,0,0,9,-2,0,1000,150,0,24,8,1,1,-32,252,2081,99,49,300,181,1,8,0,1,1,0.11258467528746342,-0.016168073209254084,4.395502825936196,0,0,0,3,-1,0,0,5,2,1,"",""
76,177458186,0,0,0,0,0,0,0,0,0,9,-2,0,1000,150,0,24,8,0,1,-36,251,2080,104,49,344,173,1,8,0,1,1,0.11287439777100092,-0.015709087413531633,4.395479393279254,0,0,0,3,-1,0,0,5,1,1,"",""
77,177459539,0,0,0,0,0,0,0,0,0,9,-2,0,1000,150,0,24,7,0,1,-41,249,2079,260,49,319,207,1,8,0,1,1,0.11312355908221966,-0.015229422887107163,4.3954559429738875,0,0,0,3,-1,0,0,4,1,1,"",""
78,177460882,0,0,0,0,0,0,0,0,0,9,-2,0,1000,151,0,24,8,-1,2,-47,247,2078,94,49,305,86,1,8,0,1,1,0.11337788717212523,-0.01474894745915538,4.395412026165851,0,0,0,3,-1,0,0,5,0,2,"",""
79,177462216,0,0,0,0,0,0,0,0,0,9,-2,0,1000,151,0,24,8,-1,2,-53,244,2078,91,49,312,186,1,8,0,1,1,0.11360781517797852,-0.01424243701478585,4.395368409970271,0,0,0,3,-1,0,0,5,0,2,"",""
80,177463554,0,0,0,0,0,0,0,0,0,9,-2,0,1000,151,0,24,8,-1,2,-59,242,2079,80,49,285,119,1,8,0,1,1,0.11382153336909286,-0.013710994036125593,4.395324668352908,0,0,0,3,-1,0,0,5,0,2,"",""
81,177464888,0,0,0,0,0,0,0,0,0,9,-2,0,1000,151,0,24,9,-1,2,-61,241,2081,88,49,296,121,1,8,0,1,1,0.11404699626172979,-0.013180167564108104,4.395281062948631,0,0,0,3,-1,0,0,6,0,2,"",""
82,177466276,0,0,0,0,0,0,0,0,0,9,-2,0,1000,151,0,24,8,0,1,-63,242,2084,83,49,249,203,1,8,0,1,1,0.1142581151407531,-0.012624584317991093,4.395257006144141,0,0,0,3,-1,0,0,5,1,1,"",""
83,177467634,0,0,0,0,0,0,0,0,0,9,-2,0,1000,151,0,24,8,0,0,-63,244,2088,87,49,271,160,1,8,0,1,1,0.11447183728070527,-0.012079274562828899,4.3952570195353715,0,0,0,3,-1,0,0,5,1,0,"",""
84,177468998,0,0,0,0,0,0,0,0,0,9,-2,0,1000,151,0,24,8,0,-1,-60,247,2091,125,49,302,262,1,8,0,1,1,0.11469958115365328,-0.01156202001674718,4.3952806864032254,0,0,0,3,-1,0,0,5,1,-1,"",""
85,177470331,0,0,0,0,0,0,0,0,0,9,-2,0,1000,151,0,24,7,1,-3,-55,249,2095,110,49,265,264,1,8,0,1,1,0.11490639957752066,-0.01105833483156116,4.395347374160963,0,0,0,3,-1,0,0,4,2,-3,"",""
86,177471667,0,0,0,0,0,0,0,0,0,9,-2,0,1000,151,0,24,7,1,-3,-49,251,2097,139,49,301,279,1,8,0,1,1,0.11512086613470557,-0.0106011425415345,4.39541420379949,0,0,0,3,-1,0,0,4,2,-3,"",""
87,177472999,0,0,0,0,0,0,0,0,0,9,-2,0,1000,151,0,24,7,0,-3,-41,251,2100,240,49,320,266,1,8,0,1,1,0.1153296545431646,-0.010223471552089396,4.395483498501729,0,0,0,3,-1,0,0,4,1,-3,"",""
88,177474331,0,0,0,0,0,0,0,0,0,9,-2,0,1000,151,0,24,7,0,-3,-32,251,2102,140,49,288,281,1,8,0,1,1,0.11553406117164491,-0.009906096294890506,4.395552789355534,0,0,0,3,-1,0,0,4,1,-3,"",""
89,177475672,0,0,0,0,0,0,0,0,0,9,-2,0,1000,151,0,24,7,0,-2,-22,250,2103,127,49,302,179,1,8,0,1,1,0.11573008183838493,-0.009655419397553794,4.39559929470932,0,0,0,3,-1,0,0,4,1,-2,"",""
90,177477039,0,0,0,0,0,0,0,0,0,9,-2,0,1000,151,0,24,8,0,-1,-12,247,2104,119,49,283,181,1,8,0,1,1,0.11593242308004968,-0.009469343189582131,4.395622997287788,0,0,0,3,-1,0,0,5,1,-1,"",""
91,177478422,0,0,0,0,0,0,0,0,0,9,-2,0,1000,151,0,24,8,-1,0,0,242,2103,108,49,266,135,1,8,0,1,1,0.1161071352283021,-0.009380941990583517,4.395625792212382,0,0,0,3,-1,0,0,5,0,0,"",""
92,177479751,0,0,0,0,0,0,0,0,0,9,-2,0,1000,151,0,24,8,0,1,13,237,2103,92,49,274,167,1,8,0,1,1,0.11624480123055653,-0.00934566488448821,4.395602745302019,0,0,0,3,-1,0,0,5,1,1,"",""
93,177481084,0,0,0,0,0,0,0,0,0,9,-2,0,1000,151,0,24,9,0,1,22,233,2103,85,49,239,104,1,8,0,1,1,0.11638311735326326,-0.009360533902180989,4.39557962527318,0,0,0,3,-1,0,0,6,1,1,"",""
94,177482429,0,0,0,0,0,0,0,0,0,9,-2,0,1000,151,0,24,9,0,1,31,229,2102,90,49,257,163,1,8,0,1,1,0.11650147322399006,-0.009424052968358607,4.395556293457449,0,0,0,3,-1,0,0,6,1,1,"",""
95,177483904,0,0,0,0,0,0,0,0,0,9,-2,0,1000,151,0,24,9,0,1,39,227,2102,91,49,251,187,1,8,0,1,1,0.11662887507271778,-0.009529526555996603,4.395530705894695,0,0,0,3,-1,0,0,6,1,1,"",""
96,177485401,0,0,0,0,0,0,0,0,0,9,-2,0,1000,151,0,24,9,0,0,44,225,2101,128,75,306,200,1,8,0,1,1,0.11674954494921165,-0.009656538312178348,4.395530685939427,0,0,0,3,-1,0,0,6,1,0,"",""
97,177486769,0,0,0,0,0,0,0,0,0,9,-2,0,1000,151,0,24,8,0,0,47,224,2100,151,75,330,271,1,8,0,1,1,0.11682168774872959,-0.009796801832264546,4.395530665139195,0,0,0,3,-1,0,0,5,1,0,"",""
98,177488108,0,0,0,0,0,0,0,0,0,9,-2,0,1000,151,0,24,8,0,-1,49,223,2100,153,75,324,293,1,8,0,1,1,0.11688518317487283,-0.009941954603156805,4.39555385511659,0,0,0,3,-1,0,0,5,1,-1,"",""
99,177489440,0,0,0,0,0,0,0,0,0,8,-2,0,1000,151,0,24,8,0,-1,51,220,2099,138,75,349,212,1,8,0,1,1,0.11693335460696863,-0.010094579388678509,4.395576921635618,0,0,0,3,-1,0,0,5,1,-1,"",""
100,177490772,0,0,0,0,0,0,0,0,0,7,-2,0,1000,151,0,24,7,-1,0,52,217,2098,360,75,344,237,1,8,0,1,1,0.11694439717555467,-0.010274849735518,4.395579608820199,0,0,0,2,-1,0,0,5,0,0,"",""
101,177492112,0,0,0,0,0,0,0,0,0,7,-2,0,1000,151,0,24,7,-1,1,52,214,2097,131,75,337,191,1,8,0,1,1,0.11694288324487839,-0.010454674872993591,4.39555907744878,0,0,0,2,-1,0,0,5,0,1,"",""
102,177493460,0,0,0,0,0,0,0,0,0,6,-2,0,1000,151,0,24,7,-1,2,51,212,2096,129,75,336,184,1,8,0,1,1,0.11693417037724663,-0.010629116420271796,4.3955150498660025,0,0,0,2,-1,0,0,5,0,2,"",""
103,177494821,0,0,0,0,0,0,0,0,0,5,-2,0,1000,151,0,24,7,-1,2,51,211,2097,118,75,302,207,1,8,0,1,1,0.11692310278350153,-0.010800661458538563,4.395470591696622,0,0,0,2,-1,0,0,5,0,2,"",""
104,177496179,0,0,0,0,0,0,0,0,0,4,-2,0,1000,151,0,24,7,-1,3,51,211,2098,112,75,296,180,1,8,0,1,1,0.11691250397112644,-0.010971790334078798,4.3954026849747345,0,0,0,1,-1,0,0,6,0,3,"",""
105,177497516,0,0,0,0,0,0,0,0,0,2,-2,0,1000,151,0,24,7,0,2,54,210,2098,109,75,266,186,1,8,0,1,1,0.11689635650446042,-0.011128533131649375,4.395356275686167,0,0,0,0,-1,0,0,7,1,2,"",""
106,177498841,0,0,0,0,0,0,0,0,0,1,-2,0,1000,151,0,24,7,0,2,57,210,2099,95,75,233,156,1,8,0,1,1,0.1168798930464043,-0.011296846572093136,4.395310281431566,0,0,0,0,-1,0,0,7,1,2,"",""
107,177500166,0,0,0,0,0,0,0,0,0,0,-2,0,1000,151,0,24,7,1,1,61,211,2099,125,75,268,181,1,8,0,1,1,0.11687011818608624,-0.011455924135668127,4.395284560409983,0,0,0,0,-1,0,0,7,2,1,"",""
108,177501492,0,0,0,0,0,0,0,0,0,-1,-2,0,1000,151,0,24,7,1,0,64,211,2099,131,75,253,186,1,8,0,1,1,0.11686226355736809,-0.011623530881326425,4.395281810606446,0,0,0,-1,-1,0,0,8,2,0,"",""
109,177502832,0,0,0,0,0,0,0,0,0,-2,-2,0,1000,151,0,24,7,1,-1,68,212,2099,138,75,253,207,1,8,0,1,1,0.11686257138026837,-0.011803875389845515,4.3953022671139435,0,0,0,-1,-1,0,0,8,2,-1,"",""
110,177504193,0,0,0,0,0,0,0,0,0,-4,-2,0,1000,151,0,24,7,1,-1,73,213,2098,164,75,277,236,1,8,0,1,1,0.11687199249447859,-0.01200387044109366,4.395323050277755,0,0,0,-2,-1,0,0,9,2,-1,"",""
111,177505557,0,0,0,0,0,0,0,0,0,-5,-2,0,1000,151,0,24,7,0,-2,77,215,2097,161,75,269,189,1,8,0,1,1,0.11689309180361156,-0.012239335577488977,4.395370307382268,0,0,0,-2,-1,0,0,9,1,-2,"",""
112,177506901,0,0,0,0,0,0,0,0,0,-6,-2,0,1000,151,0,24,7,0,-1,81,216,2095,168,75,262,225,1,8,0,1,1,0.11691814046990662,-0.012491947319384236,4.395393574254814,0,0,0,-3,-1,0,0,10,1,-1,"",""
113,177508234,0,0,0,0,0,0,0,0,0,-8,-2,0,1000,151,0,24,7,0,0,85,217,2093,157,75,257,170,1,8,0,1,1,0.11694807692297068,-0.012761240082121969,4.395393543759357,0,0,0,-4,-1,0,0,11,1,0,"",""
114,177509563,0,0,0,0,0,0,0,0,0,-9,-2,0,1000,151,0,24,7,0,1,87,217,2092,138,75,253,117,1,8,0,1,1,0.11697853593809986,-0.013037661900382826,4.395370474545451,0,0,0,-4,-1,0,0,11,1,1,"",""
115,177510899,0,0,0,0,0,0,0,0,0,-10,-2,0,1000,151,0,24,8,-1,2,90,217,2091,147,75,257,155,1,8,0,1,1,0.11703393577328643,-0.013348565821061371,4.3953268464557755,0,0,0,-4,-1,0,0,12,0,2,"",""
116,177512360,0,0,0,0,0,0,0,0,0,-12,-2,0,1000,151,0,24,8,-1,3,92,218,2090,143,75,244,150,1,8,0,1,1,0.11711168642468164,-0.0136689690805172,4.395253811763431,0,0,0,-5,-1,0,0,13,0,3,"",""
117,177513859,0,0,0,0,0,0,0,0,0,-13,-2,0,1000,151,0,24,8,-1,3,93,218,2090,154,75,237,167,1,8,0,1,1,0.11719488131781831,-0.013989510981518951,4.395178876348748,0,0,0,-6,-1,0,0,14,0,3,"",""
118,177515334,0,0,0,0,0,0,0,0,0,-14,-2,0,1000,151,0,24,8,-1,2,93,219,2091,154,75,253,170,1,8,0,1,1,0.11727915131134053,-0.014301295695875646,4.3951307085948255,0,0,0,-6,-1,0,0,14,0,2,"",""
119,177516666,0,0,0,0,0,0,0,0,0,-15,-2,0,1000,151,0,24,7,-1,2,93,220,2091,156,75,258,173,1,8,0,1,1,0.11732514282957444,-0.014605051155524556,4.395087205377928,0,0,0,-7,-1,0,0,14,0,2,"",""
120,177517996,0,0,0,0,0,0,0,0,0,-15,-2,0,1000,151,0,24,7,-1,2,93,222,2091,171,75,236,190,1,8,0,1,1,0.11737996053595924,-0.014903913635517643,4.3950437686002175,0,0,0,-7,-1,0,0,14,0,2,"",""
121,177519333,0,0,0,0,0,0,0,0,0,-16,-2,0,1000,151,0,24,6,-1,1,92,224,2091,182,75,269,217,1,8,0,1,1,0.11742169319187894,-0.015191168896999148,4.395023281895551,0,0,0,-7,-1,0,0,13,0,1,"",""
122,177520677,0,0,0,0,0,0,0,0,0,-17,-2,0,1000,151,0,24,6,-2,1,91,227,2092,185,75,290,219,1,8,0,1,1,0.11747678507589883,-0.015492765189745105,4.3950054419133995,0,0,0,-7,-1,0,0,13,-1,1,"",""
123,177522039,0,0,0,0,0,0,0,0,0,-18,-2,0,1000,151,0,24,5,-2,1,87,231,2094,177,75,257,212,1,8,0,1,1,0.11752619489505649,-0.015773315866097624,4.394987369611632,0,0,0,-8,-1,0,0,13,-1,1,"",""
124,177523397,0,0,0,0,0,0,0,0,0,-18,-2,0,1000,151,0,24,4,-2,2,83,236,2096,180,75,291,226,1,8,0,1,1,0.11757141855307271,-0.016035265462139184,4.3949458188294015,0,0,0,-8,-1,0,0,12,-1,2,"",""
125,177524723,0,0,0,0,0,0,0,0,0,-19,-2,0,1000,151,0,24,4,-2,2,78,240,2098,177,75,295,225,1,8,0,1,1,0.11763004280341141,-0.016271059177227137,4.394905256003287,0,0,0,-8,-1,0,0,12,-1,2,"",""
126,177526058,0,0,0,0,0,0,0,0,0,-19,-2,0,1000,151,0,24,4,-2,3,73,245,2100,172,75,286,222,1,8,0,1,1,0.1177083001460335,-0.01648555875285479,4.3948412906286904,0,0,0,-8,-1,0,0,12,-1,3,"",""
127,177527399,0,0,0,0,0,0,0,0,0,-20,-2,0,1000,151,0,24,4,-2,3,68,250,2103,164,75,288,208,1,8,0,1,1,0.11780541973147295,-0.016676410022615978,4.394777055040489,0,0,0,-9,-1,0,0,13,-1,3,"",""
128,177528737,0,0,0,0,0,0,0,0,0,-20,-2,0,1000,151,0,24,3,-2,3,64,255,2106,128,45,233,170,1,8,0,1,1,0.11789721139336157,-0.01684788415844915,4.394712981880176,0,0,0,-9,-1,0,0,12,-1,3,"",""
129,177530091,0,0,0,0,0,0,0,0,0,-20,-2,0,1000,151,0,24,3,-2,3,61,258,2108,129,45,240,170,1,8,0,1,1,0.11800003020276739,-0.01700533881016887,4.394648157396215,0,0,0,-9,-1,0,0,12,-1,3,"",""
130,177531449,0,0,0,0,0,0,0,0,0,-21,-2,0,1000,151,0,24,3,-2,3,58,262,2110,127,45,224,160,1,8,0,1,1,0.11811704091513518,-0.017148602377424344,4.394583161534052,0,0,0,-9,-1,0,0,12,-1,3,"",""
131,177532789,0,0,0,0,0,0,0,0,0,-21,-2,0,1000,151,0,24,3,-2,2,56,265,2111,124,45,201,157,1,8,0,1,1,0.11824368606628345,-0.017278459222005594,4.394542273906548,0,0,0,-9,-1,0,0,12,-1,2,"",""
132,177534128,0,0,0,0,0,0,0,0,0,-21,-2,0,1000,151,0,24,3,-1,2,55,268,2112,132,45,218,172,1,8,0,1,1,0.1183801736285891,-0.017379557918777926,4.394498675831962,0,0,0,-9,-1,0,0,12,0,2,"",""
133,177535457,0,0,0,0,0,0,0,0,0,-21,-2,0,1000,151,0,24,3,-1,1,55,271,2112,140,45,220,183,1,8,0,1,1,0.11852673555600865,-0.017476363533382444,4.394478455971641,0,0,0,-9,-1,0,0,12,0,1,"",""
134,177536783,0,0,0,0,0,0,0,0,0,-21,-2,0,1000,151,0,24,3,-1,0,55,275,2112,139,45,220,183,1,8,0,1,1,0.11868741990275952,-0.01756907721179834,4.394481285713269,0,0,0,-9,-1,0,0,12,0,0,"",""
135,177538110,0,0,0,0,0,0,0,0,0,-22,-2,0,1000,151,0,24,2,-1,-1,55,279,2111,150,45,232,209,1,8,0,1,1,0.11883963122032604,-0.01765788549199024,4.394507138487335,0,0,0,-10,-1,0,0,12,0,-1,"",""
136,177539472,0,0,0,0,0,0,0,0,0,-22,-2,0,1000,151,0,24,2,-1,-1,55,283,2110,151,45,238,219,1,8,0,1,1,0.1190069945733478,-0.01774606716598056,4.394533690620333,0,0,0,-10,-1,0,0,12,0,-1,"",""
137,177540828,0,0,0,0,0,0,0,0,0,-22,-2,0,1000,151,0,24,1,-2,-1,55,286,2108,144,45,265,208,1,8,0,1,1,0.11916097819767951,-0.01785640620830896,4.394562957170876,0,0,0,-10,-1,0,0,11,-1,-1,"",""
138,177542168,0,0,0,0,0,0,0,0,0,-22,-2,0,1000,151,0,24,1,-2,0,53,290,2108,142,45,261,208,1,8,0,1,1,0.11932739090740269,-0.017959957406116354,4.394568683148584,0,0,0,-10,-1,0,0,11,-1,0,"",""
139,177543507,0,0,0,0,0,0,0,0,0,-22,-2,0,1000,151,0,24,1,-2,1,51,292,2107,136,45,269,205,1,8,0,1,1,0.11949911758137,-0.01805746517171146,4.394551219505157,0,0,0,-10,-1,0,0,11,-1,1,"",""
140,177544988,0,0,0,0,0,0,0,0,0,-22,-2,0,1000,151,0,24,1,-2,2,48,295,2107,134,45,289,197,1,8,0,1,1,0.11968174252538608,-0.018150743957621424,4.394506246574801,0,0,0,-10,-1,0,0,11,-1,2,"",""
141,177546454,0,0,0,0,0,0,0,0,0,-22,-2,0,1000,151,0,24,1,-3,3,46,296,2106,128,45,287,194,1,8,0,1,1,0.11986542842822709,-0.018263255264946,4.394439405973818,0,0,0,-10,-1,0,0,11,-2,3,"",""
142,177547800,0,0,0,0,0,0,0,0,0,-22,-2,0,1000,151,0,24,1,-3,4,43,297,2106,123,45,289,180,1,8,0,1,1,0.12004795307875636,-0.018359356056553346,4.394354756053859,0,0,0,-10,-1,0,0,11,-2,4,"",""
143,177549163,0,0,0,0,0,0,0,0,0,-22,-2,0,1000,151,0,24,1,-3,4,40,298,2105,115,45,261,171,1,8,0,1,1,0.12023243258834389,-0.01844456481480004,4.394269065238104,0,0,0,-10,-1,0,0,11,-2,4,"",""
144,177550513,0,0,0,0,0,0,0,0,0,-22,-2,0,1000,151,0,24,1,-3,4,38,300,2106,116,45,263,171,1,8,0,1,1,0.12042112645821654,-0.01852086352905823,4.394184229616721,0,0,0,-10,-1,0,0,11,-2,4,"",""
145,177551845,0,0,0,0,0,0,0,0,0,-22,-2,0,1000,151,0,24,1,-3,3,37,302,2107,118,45,264,175,1,8,0,1,1,0.1206142926573337,-0.018589015431377042,4.394123647527907,0,0,0,-10,-1,0,0,11,-2,3,"",""
146,177553179,0,0,0,0,0,0,0,0,0,-22,-2,0,1000,151,0,24,0,-2,3,36,305,2108,113,45,231,167,1,8,0,1,1,0.12079220791880868,-0.018630152808069254,4.394060208809888,0,0,0,-10,-1,0,0,10,-1,3,"",""
147,177554510,0,0,0,0,0,0,0,0,0,-22,-2,0,1000,151,0,24,0,-2,2,35,308,2109,115,45,235,175,1,8,0,1,1,0.12097844350728257,-0.018664453372430174,4.39402001176499,0,0,0,-10,-1,0,0,10,-1,2,"",""
148,177555840,0,0,0,0,0,0,0,0,0,-22,-2,0,1000,151,0,24,0,-2,1,35,311,2110,119,45,240,185,1,8,0,1,1,0.12117283922180329,-0.01869569280460253,4.394002925417767,0,0,0,-10,-1,0,0,10,-1,1,"",""
149,177557192,0,0,0,0,0,0,0,0,0,-22,-2,0,1000,151,0,24,-1,-1,0,35,314,2110,122,45,248,196,1,8,0,1,1,0.12135220548704953,-0.018701504780436105,4.3940061546024864,0,0,0,-10,-1,0,0,9,0,0,"",""
150,177558598,0,0,0,0,0,0,0,0,0,-22,-2,0,1000,151,0,24,-1,-1,0,35,316,2111,116,45,240,191,1,8,0,1,1,0.12153470552477029,-0.018708222242109298,4.394009514756143,0,0,0,-10,-1,0,0,9,0,0,"",""
151,177559945,0,0,0,0,0,0,0,0,0,-23,-2,0,1000,151,0,24,-1,-1,-1,36,318,2111,118,45,242,206,1,8,0,1,1,0.12172308330919561,-0.018714668367218423,4.394036107448901,0,0,0,-10,-1,0,0,9,0,-1,"",""
152,177561281,0,0,0,0,0,0,0,0,0,-24,-2,0,1000,150,0,24,-2,-1,-1,38,318,2111,128,45,268,233,1,8,0,1,1,0.12188585555801229,-0.01872800657400808,4.394062488976306,0,0,0,-10,-1,0,0,8,0,-1,"",""
153,177562608,0,0,0,0,0,0,0,0,0,-24,-2,0,1000,150,0,24,-2,-1,-1,40,317,2111,128,45,256,224,1,8,0,1,1,0.12204304041155054,-0.018748141597678365,4.394088691370996,0,0,0,-10,-1,0,0,8,0,-1,"",""
154,177563945,0,0,0,0,0,0,0,0,0,-25,-2,0,1000,150,0,24,-2,-1,0,43,315,2110,119,45,231,205,1,8,0,1,1,0.12219064086318164,-0.018781595452607543,4.394091912833612,0,0,0,-11,-1,0,0,9,0,0,"",""
155,177565276,0,0,0,0,0,0,0,0,0,-25,-2,0,1000,150,0,24,-2,-1,0,45,311,2109,128,45,270,211,1,8,0,1,1,0.12232295453659323,-0.01882164461250258,4.394095098442498,0,0,0,-11,-1,0,0,9,0,0,"",""
156,177566636,0,0,0,0,0,0,0,0,0,-26,-2,0,1000,150,0,24,-1,-1,0,47,307,2108,130,45,258,211,1,8,0,1,1,0.12246262452016472,-0.01886876730123393,4.394098322476492,0,0,0,-11,-1,0,0,10,0,0,"",""
157,177567999,0,0,0,0,0,0,0,0,0,-27,-2,0,1000,150,0,24,-1,-1,0,49,302,2106,125,45,223,201,1,8,0,1,1,0.12258418893944836,-0.018922463975184774,4.394101523088454,0,0,0,-12,-1,0,0,11,0,0,"",""
158,177569339,0,0,0,0,0,0,0,0,0,-28,-2,0,1000,150,0,24,-1,-1,0,51,299,2105,124,45,244,192,1,8,0,1,1,0.12269476261949679,-0.018982089095876804,4.394104657198322,0,0,0,-12,-1,0,0,11,0,0,"",""
159,177570801,0,0,0,0,0,0,0,0,0,-30,-2,0,1000,150,0,24,-1,-1,-1,52,295,2104,139,45,217,205,1,8,0,1,1,0.1227891711949532,-0.01904355526754353,4.394133356636309,0,0,0,-13,-1,0,0,12,0,-1,"",""
160,177572139,0,0,0,0,0,0,0,0,0,-31,-2,0,1000,150,0,24,-1,-1,-1,53,292,2103,128,32,189,186,1,8,0,1,1,0.12287476292036023,-0.01910594131268179,4.39415962422805,0,0,0,-14,-1,0,0,13,0,-1,"",""
161,177573469,0,0,0,0,0,0,0,0,0,-33,-2,0,1000,150,0,24,-1,-1,-2,54,290,2102,118,32,192,190,1,8,0,1,1,0.12295350848801036,-0.019168128503234162,4.3942087661057965,0,0,0,-14,-1,0,0,13,0,-2,"",""
162,177574823,0,0,0,0,0,0,0,0,0,-35,-2,0,1000,150,0,24,-1,0,-2,54,289,2101,125,32,177,182,1,8,0,1,1,0.1230278100689851,-0.019206725011404135,4.39425588511972,0,0,0,-15,-1,0,0,14,1,-2,"",""
163,177576321,0,0,0,0,0,0,0,0,0,-36,-2,0,1000,150,0,24,-2,0,-2,55,288,2101,122,32,177,184,1,8,0,1,1,0.12306942925754781,-0.01924751142988372,4.394307984046671,0,0,0,-16,-1,0,0,14,1,-2,"",""
164,177577826,0,0,0,0,0,0,0,0,0,-38,-2,0,1000,150,0,24,-2,-1,-2,55,287,2101,121,32,191,196,1,8,0,1,1,0.12310682741287043,-0.019313625016446085,4.394363542376706,0,0,0,-17,-1,0,0,15,0,-2,"",""
165,177579165,0,0,0,0,0,0,0,0,0,-40,-2,0,1000,150,0,24,-3,0,-1,54,286,2101,113,32,176,153,1,8,0,1,1,0.12312218209346074,-0.01935343761835862,4.394386919206788,0,0,0,-18,-1,0,0,15,1,-1,"",""
166,177580491,0,0,0,0,0,0,0,0,0,-42,-2,0,1000,150,0,24,-3,0,1,53,285,2100,107,32,182,163,1,8,0,1,1,0.12313394473087924,-0.019395238416577115,4.394364119219039,0,0,0,-19,-1,0,0,16,1,1,"",""
167,177581831,0,0,0,0,0,0,0,0,0,-44,-2,0,1000,150,0,24,-3,-1,2,52,283,2100,100,32,200,149,1,8,0,1,1,0.12313764979132938,-0.019459261589654428,4.394320720746412,0,0,0,-19,-1,0,0,16,0,2,"",""
168,177583164,0,0,0,0,0,0,0,0,0,-46,-2,0,1000,150,0,24,-4,-1,3,51,281,2100,101,32,181,136,1,8,0,1,1,0.12311136339612985,-0.019522147646070635,4.394254443410274,0,0,0,-20,-1,0,0,16,0,3,"",""
169,177584525,0,0,0,0,0,0,0,0,0,-48,-2,0,1000,150,0,24,-4,-1,4,50,279,2100,95,32,172,137,1,8,0,1,1,0.12307611588811701,-0.019584812633592696,4.394163178877201,0,0,0,-21,-1,0,0,17,0,4,"",""
170,177585885,0,0,0,0,0,0,0,0,0,-50,-2,0,1000,150,0,24,-4,-1,4,50,278,2100,89,32,169,124,1,8,0,1,1,0.12303769406639556,-0.019646893420979975,4.3940719749803385,0,0,0,-22,-1,0,0,18,0,4,"",""
171,177587227,0,0,0,0,0,0,0,0,0,-52,-2,0,1000,150,0,24,-4,-1,5,50,276,2100,89,32,151,115,1,8,0,1,1,0.12299375174359899,-0.019710823322322615,4.393958716093522,0,0,0,-23,-1,0,0,19,0,5,"",""
172,177588555,0,0,0,0,0,0,0,0,0,-54,-2,0,1000,150,0,24,-4,0,4,52,275,2101,87,32,132,96,1,8,0,1,1,0.12294770757269409,-0.0197543817846584,4.393866796143031,0,0,0,-24,-1,0,0,20,1,4,"",""
173,177589885,0,0,0,0,0,0,0,0,0,-56,-2,0,1000,150,0,24,-4,0,4,54,274,2101,78,32,116,92,1,8,0,1,1,0.12289846593849456,-0.01980378710056602,4.393774730131444,0,0,0,-25,-1,0,0,21,1,4,"",""
174,177591217,0,0,0,0,0,0,0,0,0,-58,-2,0,1000,150,0,24,-4,0,3,57,273,2101,74,32,109,91,1,8,0,1,1,0.12284653231439532,-0.0198592367114181,4.393705595019428,0,0,0,-26,-1,0,0,22,1,3,"",""
175,177592556,0,0,0,0,0,0,0,0,0,-60,-2,0,1000,150,0,24,-5,1,2,61,272,2101,75,32,104,97,1,8,0,1,1,0.12276833606740252,-0.019900683520094387,4.393656424718105,0,0,0,-27,-1,0,0,22,2,2,"",""
176,177593912,0,0,0,0,0,0,0,0,0,-62,-2,0,1000,150,0,24,-5,1,2,63,273,2102,68,32,91,100,1,8,0,1,1,0.12269166174337703,-0.01994746165164903,4.393606636282565,0,0,0,-28,-1,0,0,23,2,2,"",""
177,177595268,0,0,0,0,0,0,0,0,0,-63,-2,0,1000,150,0,24,-5,1,1,64,274,2102,62,32,82,104,1,8,0,1,1,0.12261879823482673,-0.019993811712454096,4.393580349493009,0,0,0,-29,-1,0,0,24,2,1,"",""
178,177596603,0,0,0,0,0,0,0,0,0,-65,-2,0,1000,150,0,24,-5,1,1,66,276,2102,59,32,90,99,1,8,0,1,1,0.12255409421042965,-0.0200459615854351,4.393554485777246,0,0,0,-30,-1,0,0,25,2,1,"",""
179,177597935,0,0,0,0,0,0,0,0,0,-67,-2,0,1000,150,0,24,-6,1,1,66,278,2102,57,32,82,91,1,8,0,1,1,0.12247277137034673,-0.02009745414131027,4.393528695353337,0,0,0,-31,-1,0,0,25,2,1,"",""
180,177599271,0,0,0,0,0,0,0,0,0,-69,-2,0,1000,150,0,24,-6,1,1,66,280,2103,52,32,83,99,1,8,0,1,1,0.12239692504806182,-0.020148134601769774,4.393502840604021,0,0,0,-32,-1,0,0,26,2,1,"",""
181,177600620,0,0,0,0,0,0,0,0,0,-71,-2,0,1000,150,0,24,-6,0,1,65,281,2104,48,32,89,87,1,8,0,1,1,0.12232258462600043,-0.02021808720249347,4.393479612938649,0,0,0,-33,-1,0,0,27,1,1,"",""
182,177601964,0,0,0,0,0,0,0,0,0,-73,-2,0,1000,151,0,24,-6,0,2,64,284,2105,47,32,80,79,1,8,0,1,1,0.12225703556723173,-0.020287017801099826,4.393433204519583,0,0,0,-34,-1,0,0,28,1,2,"",""
183,177603324,0,0,0,0,0,0,0,0,0,-75,-2,0,1000,151,0,24,-7,0,3,63,286,2105,42,32,84,73,1,8,0,1,1,0.12217174362140905,-0.020355144188467185,4.393362690965333,0,0,0,-35,-1,0,0,28,1,3,"",""
184,177604724,0,0,0,0,0,0,0,0,0,-76,-2,0,1000,151,0,24,-7,-1,3,62,287,2106,34,32,108,69,1,8,0,1,1,0.12208435525256923,-0.020443864563631883,4.3932930806942485,0,0,0,-35,-1,0,0,28,0,3,"",""
185,177606069,0,0,0,0,0,0,0,0,0,-78,-2,0,1000,151,0,24,-7,-1,4,61,289,2106,41,32,77,47,1,8,0,1,1,0.1220092583527157,-0.020530327501448738,4.393202921462348,0,0,0,-36,-1,0,0,29,0,4,"",""
186,177607541,0,0,0,0,0,0,0,0,0,-80,-2,0,1000,151,0,24,-7,-1,4,61,290,2107,36,32,77,39,1,8,0,1,1,0.12192118038148497,-0.020619190755023893,4.3931042357331265,0,0,0,-37,-1,0,0,30,0,4,"",""
187,177609016,0,0,0,0,0,0,0,0,0,-81,-2,0,1000,151,0,24,-8,-2,4,61,291,2108,32,35,100,48,1,8,0,1,1,0.12180988161470933,-0.02073265717016334,4.393008482974443,0,0,0,-38,-1,0,0,30,-1,4,"",""
188,177610358,0,0,0,0,0,0,0,0,0,-83,-2,0,1000,151,0,24,-8,-2,4,61,293,2109,35,32,72,32,1,8,0,1,1,0.12172290530024714,-0.02083940722066227,4.39292139862928,0,0,0,-39,-1,0,0,31,-1,4,"",""
189,177611715,0,0,0,0,0,0,0,0,0,-85,-2,0,1000,151,0,24,-9,-2,4,61,295,2109,42,42,59,32,1,8,0,1,1,0.12161613203397907,-0.020945892286884045,4.392833352484019,0,0,0,-40,-1,0,0,31,-1,4,"",""
190,177613086,0,0,0,0,0,0,0,0,0,-86,-2,0,1006,151,0,24,-9,-2,3,62,297,2109,32,38,71,42,1,8,0,1,1,0.12151356155852411,-0.021052095105079223,4.392768167358605,0,0,0,-40,-1,0,0,31,-1,3,"",""
191,177614422,0,0,0,0,0,0,0,0,0,-88,-2,0,1006,151,0,24,-9,-2,3,62,299,2110,34,40,66,32,1,8,0,1,1,0.12142197688662318,-0.021155914288313468,4.392704668968855,0,0,0,-41,-1,0,0,32,-1,3,"",""
192,177615754,0,0,0,0,0,0,0,0,0,-89,-2,0,1006,151,0,24,-10,-2,3,61,303,2110,128,136,137,124,1,8,0,1,1,0.12131933401444472,-0.02125581054778001,4.392641393116225,0,0,0,-42,-1,0,0,32,-1,3,"",""
193,177617089,0,0,0,0,0,0,0,0,0,-91,-2,0,1006,151,0,24,-10,-2,2,60,306,2111,124,136,142,127,1,8,0,1,1,0.12122486045936222,-0.021349276502631753,4.392601132577075,0,0,0,-43,-1,0,0,33,-1,2,"",""
194,177618422,0,0,0,0,0,0,0,0,0,-92,-2,0,1006,151,0,28,-11,-2,1,60,309,2111,124,141,154,134,1,8,0,1,1,0.12111653078889911,-0.021439097563138648,4.392584058112426,0,0,0,-44,-1,0,0,33,-1,1,"",""
195,177619768,0,0,0,0,0,0,0,0,0,-94,-2,0,1006,151,0,28,-12,-2,1,59,313,2111,124,142,143,149,1,8,0,1,1,0.12099361967797231,-0.021525808681475637,4.3925668465091,0,0,0,-45,-1,0,0,33,-1,1,"",""
196,177621168,0,0,0,0,0,0,0,0,0,-95,-2,0,1006,150,0,28,-12,-1,0,57,318,2111,124,144,140,164,1,8,0,1,1,0.12087395207952768,-0.02158109588215274,4.392570283931482,0,0,0,-45,-1,0,0,33,0,0,"",""
197,177622521,0,0,0,0,0,0,0,0,0,-97,-2,0,1016,150,0,28,-13,-1,0,56,323,2111,124,151,163,171,1,8,0,1,1,0.1207544989653011,-0.021632264914290343,4.392573664265896,0,0,0,-46,-1,0,0,33,0,0,"",""
198,177623854,0,0,0,0,0,0,0,0,0,-98,-2,0,1016,150,0,28,-14,-2,-1,55,327,2112,124,154,171,177,1,8,0,1,1,0.12062765947710631,-0.02169996154067546,4.392602937427546,0,0,0,-47,-1,0,0,33,-1,-1,"",""
199,177625181,0,0,0,0,0,0,0,0,0,-99,-2,0,1016,150,0,28,-14,-1,-1,53,330,2112,124,155,164,194,1,8,0,1,1,0.12051041182441283,-0.021738517104971534,4.392629324603517,0,0,0,-47,-1,0,0,33,0,-1,"",""
200,177626513,0,0,0,0,0,0,0,0,0,-101,-2,0,1016,150,0,28,-15,-1,-1,52,334,2113,124,160,175,201,1,8,0,1,1,0.12037933281599472,-0.021773986068075048,4.392655842286162,0,0,0,-48,-1,0,0,33,0,-1,"",""
201,177627845,0,0,0,0,0,0,0,0,0,-102,-2,0,1016,150,0,28,-16,-2,-2,51,337,2113,124,164,186,200,1,8,0,1,1,0.12023377994022962,-0.021826582551123512,4.392708260810148,0,0,0,-49,-1,0,0,33,-1,-2,"",""
202,177629201,0,0,0,0,0,0,0,0,0,-103,-2,0,1016,150,0,28,-16,-1,-2,50,340,2113,124,165,187,213,1,8,0,1,1,0.12008961684507945,-0.021853427080473723,4.392758803976654,0,0,0,-50,-1,0,0,34,0,-2,"",""
203,177630558,0,0,0,0,0,0,0,0,0,-105,-2,0,1016,150,0,28,-17,-2,-2,49,343,2112,124,165,175,212,1,8,0,1,1,0.11993004062274416,-0.021900777827428417,4.3928122457338565,0,0,0,-51,-1,0,0,34,-1,-2,"",""
204,177631900,0,0,0,0,0,0,0,0,0,-106,-2,0,1016,150,0,28,-17,-2,-2,48,345,2112,124,168,187,196,1,8,0,1,1,0.11978021287936175,-0.021944642888091007,4.392865125569217,0,0,0,-51,-1,0,0,34,-1,-2,"",""
205,177633234,0,0,0,0,0,0,0,0,0,-107,-2,0,1016,150,0,28,-18,-2,-2,47,348,2112,124,171,189,219,1,8,0,1,1,0.11961752330127669,-0.021985273568062416,4.3929177238059385,0,0,0,-52,-1,0,0,34,-1,-2,"",""
206,177634566,0,0,0,0,0,0,0,0,0,-108,-2,0,1016,150,0,28,-18,-2,-2,47,350,2112,124,169,175,212,1,8,0,1,1,0.11946071515800577,-0.02202560399127478,4.392970265296809,0,0,0,-52,-1,0,0,34,-1,-2,"",""
207,177635901,0,0,0,0,0,0,0,0,0,-109,-2,0,1016,150,0,28,-18,-2,-2,46,352,2112,124,172,178,215,1,8,0,1,1,0.11930815578940557,-0.022063098223346376,4.393022944732007,0,0,0,-53,-1,0,0,35,-1,-2,"",""
208,177637377,0,0,0,0,0,0,0,0,0,-111,-2,0,1016,150,0,28,-18,-2,-2,45,353,2112,124,173,174,216,1,8,0,1,1,0.11911413038115751,-0.0221019936263373,4.3930811095014155,0,0,0,-54,-1,0,0,36,-1,-2,"",""
209,177638881,0,0,0,0,0,0,0,0,0,-112,-2,0,1016,150,0,28,-18,-2,-2,45,354,2111,124,174,163,224,1,8,0,1,1,0.11891437345323579,-0.022141606181347147,4.393140374358428,0,0,0,-55,-1,0,0,37,-1,-2,"",""
210,177640241,0,0,0,0,0,0,0,0,0,-113,-2,0,1016,150,0,28,-18,-2,-2,44,354,2111,124,177,158,230,1,8,0,1,1,0.1187595192530494,-0.022173998150090662,4.393194056258249,0,0,0,-55,-1,0,0,37,-1,-2,"",""
211,177641585,0,0,0,0,0,0,0,0,0,-114,-2,0,1016,150,0,28,-19,-2,-1,43,354,2112,124,181,170,226,1,8,0,1,1,0.11858528909953767,-0.02220581441839568,4.393223822207766,0,0,0,-56,-1,0,0,37,-1,-1,"",""
212,177642911,0,0,0,0,0,0,0,0,0,-116,-2,0,1016,150,0,28,-19,-2,-1,42,354,2112,124,184,166,239,1,8,0,1,1,0.11841689041308821,-0.02223428391257374,4.393253206335929,0,0,0,-57,-1,0,0,38,-1,-1,"",""
213,177644249,0,0,0,0,0,0,0,0,0,-117,-2,0,1016,150,0,30,-19,-1,0,42,353,2112,124,184,164,255,1,8,0,1,1,0.1182412303207606,-0.022242727137687532,4.393256892212388,0,0,0,-58,-1,0,0,39,0,0,"",""
214,177645588,0,0,0,0,0,0,0,0,0,-118,-2,0,1016,150,0,30,-19,-1,0,42,352,2111,124,187,177,224,1,8,0,1,1,0.11806287661797822,-0.022251264658679368,4.393260574198466,0,0,0,-58,-1,0,0,39,0,0,"",""
215,177646935,0,0,0,0,0,0,0,0,0,-120,-2,0,1016,150,0,30,-19,-1,1,43,349,2111,124,190,183,231,1,8,0,1,1,0.11787355347368585,-0.022265321574244,4.3932408947989785,0,0,0,-59,-1,0,0,40,0,1,"",""
216,177648296,0,0,0,0,0,0,0,0,0,-121,-2,0,1016,150,0,30,-19,0,2,43,347,2110,124,191,185,253,1,8,0,1,1,0.1176742179450964,-0.022258993226660043,4.3931946012050345,0,0,0,-60,-1,0,0,41,1,2,"",""
217,177649644,0,0,0,0,0,0,0,0,0,-121,-2,0,1018,150,0,30,-19,0,3,43,343,2109,124,193,193,215,1,8,0,1,1,0.11746881016627908,-0.02225550565019176,4.39312535312488,0,0,0,-60,-1,0,0,41,1,3,"",""
218,177650999,0,0,0,0,0,0,0,0,0,-121,-2,0,1018,150,0,30,-19,0,3,43,340,2108,124,203,208,226,1,8,0,1,1,0.11725390376248511,-0.02225218865671153,4.393055715876041,0,0,0,-60,-1,0,0,41,1,3,"",""
219,177652327,0,0,0,0,0,0,0,0,0,-122,-2,0,1018,150,0,30,-20,0,3,43,336,2107,124,201,206,253,1,8,0,1,1,0.11701525753081435,-0.022248838835439877,4.392987449134415,0,0,0,-61,-1,0,0,41,1,3,"",""
220,177653651,0,0,0,0,0,0,0,0,0,-122,-2,0,1018,150,0,30,-20,1,3,43,332,2105,124,203,211,237,1,8,0,1,1,0.1167688229943092,-0.022222824526086527,4.392916664955876,0,0,0,-61,-1,0,0,41,2,3,"",""
221,177655025,0,0,0,0,0,0,0,0,0,-122,-2,0,1018,150,0,30,-20,1,2,43,328,2104,124,207,217,236,1,8,0,1,1,0.11649618888477487,-0.022193730948319286,4.392866970773597,0,0,0,-61,-1,0,0,41,2,2,"",""
222,177656384,0,0,0,0,0,0,0,0,0,-122,-2,0,1018,150,0,30,-21,1,1,42,324,2103,124,205,212,252,1,8,0,1,1,0.11619660652509006,-0.022159834371483868,4.392841362131057,0,0,0,-61,-1,0,0,40,2,1,"",""
223,177657737,0,0,0,0,0,0,0,0,0,-123,-2,0,1018,150,0,30,-21,1,1,42,320,2102,124,202,208,249,1,8,0,1,1,0.11589032875138379,-0.022126335158934893,4.392815840651233,0,0,0,-61,-1,0,0,40,2,1,"",""
224,177659080,0,0,0,0,0,0,0,0,0,-123,-2,0,1026,150,0,30,-21,1,0,41,316,2101,128,204,208,252,1,8,0,1,1,0.11557942880088089,-0.02208808617148913,4.392813773729471,0,0,0,-61,-1,0,0,40,2,0,"",""
225,177660414,0,0,0,0,0,0,0,0,0,-123,-2,0,1026,150,0,30,-22,1,-1,42,311,2100,128,201,203,253,1,8,0,1,1,0.11523796941441042,-0.022050188991881,4.39283482382049,0,0,0,-61,-1,0,0,39,2,-1,"",""
226,177661752,0,0,0,0,0,0,0,0,0,-123,-2,0,1026,151,0,30,-22,2,-2,42,307,2099,128,201,200,257,1,8,0,1,1,0.11488696903010971,-0.021986813332334643,4.392876437294104,0,0,0,-61,-1,0,0,39,3,-2,"",""
227,177663089,0,0,0,0,0,0,0,0,0,-123,-2,0,1026,151,0,30,-22,2,-2,42,302,2099,128,197,193,261,1,8,0,1,1,0.11452523498952895,-0.021923900001933425,4.392917992553441,0,0,0,-61,-1,0,0,39,3,-2,"",""
228,177664422,0,0,0,0,0,0,0,0,0,-123,-2,0,1026,151,0,30,-22,2,-3,43,298,2098,128,196,192,253,1,8,0,1,1,0.1141573011359167,-0.0218614560034497,4.39298252774644,0,0,0,-61,-1,0,0,39,3,-3,"",""
229,177665789,0,0,0,0,0,0,0,0,0,-123,-2,0,1026,151,0,30,-23,2,-4,44,294,2098,128,196,189,259,1,8,0,1,1,0.1137447767059168,-0.021797829537125085,4.393072394756893,0,0,0,-61,-1,0,0,38,3,-4,"",""
230,177667285,0,0,0,0,0,0,0,0,0,-123,-2,0,1026,151,0,30,-23,2,-4,46,290,2099,128,193,184,264,1,8,0,1,1,0.1132725128101899,-0.021734035030089843,4.3931706958863845,0,0,0,-61,-1,0,0,38,3,-4,"",""
231,177668752,0,0,0,0,0,0,0,0,0,-123,-2,0,1026,151,0,31,-23,2,-4,47,286,2099,128,193,184,261,1,8,0,1,1,0.1128040282601831,-0.02167432598197564,4.3932670954930355,0,0,0,-61,-1,0,0,38,3,-4,"",""
232,177670094,0,0,0,0,0,0,0,0,0,-123,-2,0,1026,151,0,31,-23,2,-5,49,282,2099,128,191,181,255,1,8,0,1,1,0.1123780618267763,-0.021622551665974866,4.393378584863448,0,0,0,-61,-1,0,0,38,3,-5,"",""
233,177671425,0,0,0,0,0,0,0,0,0,-123,-2,0,1026,151,0,31,-23,3,-5,51,278,2099,128,190,178,264,1,8,0,1,1,0.11194852071579967,-0.02155348565477559,4.39348656170805,0,0,0,-61,-1,0,0,38,4,-5,"",""
234,177672755,0,0,0,0,0,0,0,0,0,-123,-2,0,1026,151,0,31,-23,3,-5,52,274,2099,128,190,178,262,1,8,0,1,1,0.1115115593372802,-0.021487290893710424,4.393594461628534,0,0,0,-61,-1,0,0,38,4,-5,"",""
235,177674104,0,0,0,0,0,0,0,0,0,-123,-2,0,1026,151,0,31,-23,3,-5,54,270,2099,128,189,177,262,1,8,0,1,1,0.11105931705682583,-0.021425128846024905,4.393703906259081,0,0,0,-61,-1,0,0,38,4,-5,"",""
236,177675461,0,0,0,0,0,0,0,0,0,-123,-2,0,1026,151,0,31,-23,3,-5,56,266,2099,128,188,175,259,1,8,0,1,1,0.11059629918175261,-0.021367620579541072,4.393814008345384,0,0,0,-61,-1,0,0,38,4,-5,"",""
237,177676805,0,0,0,0,0,0,0,0,0,-123,-2,0,1026,151,0,31,-23,3,-5,57,262,2099,128,188,176,260,1,8,0,1,1,0.11013096373474822,-0.021313590718457304,4.393923069029403,0,0,0,-61,-1,0,0,38,4,-5,"",""
238,177678140,0,0,0,0,0,0,0,0,0,-123,-2,0,1026,151,0,31,-23,3,-5,59,258,2098,128,188,175,254,1,8,0,1,1,0.10966204546842576,-0.02126520544683218,4.394031414055004,0,0,0,-61,-1,0,0,38,4,-5,"",""
239,177679463,0,0,0,0,0,0,0,0,0,-123,-2,0,1026,151,0,31,-23,3,-5,61,254,2098,128,186,170,250,1,8,0,1,1,0.10919054195222322,-0.021222534768386755,4.394138800651553,0,0,0,-61,-1,0,0,38,4,-5,"",""
240,177680789,0,0,0,0,0,0,0,0,0,-123,-2,0,1026,151,0,31,-23,3,-5,63,250,2098,128,189,177,251,1,8,0,1,1,0.10871055055549726,-0.02118459860443308,4.3942464466292614,0,0,0,-61,-1,0,0,38,4,-5,"",""
241,177682116,0,0,0,0,0,0,0,0,0,-123,-2,0,1026,151,0,31,-23,3,-5,64,246,2098,128,186,167,254,1,8,0,1,1,0.10822295808154839,-0.021149091298333877,4.3943541920380795,0,0,0,-61,-1,0,0,38,4,-5,"",""
242,177683475,0,0,0,0,0,0,0,0,0,-123,-2,0,1026,151,0,31,-23,3,-5,66,243,2097,128,187,174,247,1,8,0,1,1,0.10771812714016717,-0.02111650076661297,4.394464561442504,0,0,0,-61,-1,0,0,38,4,-5,"",""
243,177684833,0,0,0,0,0,0,0,0,0,-123,-2,0,1026,151,0,31,-22,3,-5,66,240,2097,128,188,179,245,1,8,0,1,1,0.10723262696974843,-0.021084033688898413,4.394574876361782,0,0,0,-61,-1,0,0,39,4,-5,"",""
244,177686169,0,0,0,0,0,0,0,0,0,-123,-2,0,1034,151,0,31,-22,3,-5,66,237,2097,128,189,180,250,1,8,0,1,1,0.10675077924374135,-0.021052971197589317,4.394683431845173,0,0,0,-61,-1,0,0,39,4,-5,"",""
245,177687501,0,0,0,0,0,0,0,0,0,-123,-2,0,1034,151,0,31,-22,3,-4,66,234,2097,128,189,182,241,1,8,0,1,1,0.10626526745353472,-0.02102465992695205,4.394768568296376,0,0,0,-61,-1,0,0,39,4,-4,"",""
246,177688829,0,0,0,0,0,0,0,0,0,-123,-2,0,1034,151,0,31,-22,3,-4,66,231,2097,128,190,184,235,1,8,0,1,1,0.10577662474955751,-0.020996615102358097,4.394853476651644,0,0,0,-61,-1,0,0,39,4,-4,"",""
247,177690159,0,0,0,0,0,0,0,0,0,-123,-2,0,1034,151,0,31,-22,3,-4,66,228,2097,128,192,186,240,1,8,0,1,1,0.10528261170808675,-0.02096848119999759,4.394938541561753,0,0,0,-61,-1,0,0,39,4,-4,"",""
248,177691496,0,0,0,0,0,0,0,0,0,-123,-2,0,1034,151,0,31,-21,3,-3,65,225,2097,128,192,188,240,1,8,0,1,1,0.10480411829413085,-0.02094007257182332,4.39500087029589,0,0,0,-61,-1,0,0,40,4,-3,"",""
249,177692853,0,0,0,0,0,0,0,0,0,-123,-2,0,1034,151,0,31,-21,3,-3,65,223,2097,128,191,188,243,1,8,0,1,1,0.10431604971077078,-0.020910541656115576,4.395064164507857,0,0,0,-61,-1,0,0,40,4,-3,"",""
250,177694245,0,0,0,0,0,0,0,0,0,-123,-2,0,1034,151,0,32,-21,3,-3,65,220,2097,128,194,192,238,1,8,0,1,1,0.10381071751833035,-0.0208790426153614,4.395129123249094,0,0,0,-61,-1,0,0,40,4,-3,"",""
251,177695579,0,0,0,0,0,0,0,0,0,-123,-2,0,1034,151,0,32,-21,3,-2,65,217,2097,128,195,195,242,1,8,0,1,1,0.10332158506511468,-0.020853295123301613,4.3951682420028835,0,0,0,-61,-1,0,0,40,4,-2,"",""
252,177696979,0,0,0,0,0,0,0,0,0,-123,-2,0,1034,151,0,32,-21,3,-2,65,214,2097,128,194,194,245,1,8,0,1,1,0.10280394943410066,-0.020823896572679138,4.395209330116515,0,0,0,-61,-1,0,0,40,4,-2,"",""
253,177698319,0,0,0,0,0,0,0,0,0,-123,-2,0,1034,151,0,32,-20,3,-1,65,211,2097,128,194,195,226,1,8,0,1,1,0.10232665171990839,-0.02080022101066743,4.395225416261289,0,0,0,-61,-1,0,0,41,4,-1,"",""
254,177699787,0,0,0,0,0,0,0,0,0,-123,-2,0,1034,151,0,32,-20,2,-1,65,208,2097,128,198,200,233,1,8,0,1,1,0.10180050269160294,-0.02079503460450669,4.395245681294759,0,0,0,-61,-1,0,0,41,3,-1,"",""
255,177701283,0,0,0,0,0,0,0,0,0,-123,-2,0,1034,151,0,32,-20,2,-1,65,204,2097,128,194,195,226,1,8,0,1,1,0.10125816640627629,-0.020788734708334047,4.395266355159546,0,0,0,-61,-1,0,0,41,3,-1,"",""
256,177702645,0,0,0,0,0,0,0,0,0,-123,-2,0,1034,151,0,32,-19,2,0,65,201,2097,128,194,194,222,1,8,0,1,1,0.1007814118398982,-0.020789585158024357,4.395261538010313,0,0,0,-61,-1,0,0,42,3,0,"",""
257,177703991,0,0,0,0,0,0,0,0,0,-123,-2,0,1034,151,0,32,-19,2,0,65,198,2097,128,196,197,224,1,8,0,1,1,0.10030555129849641,-0.020790847356342637,4.395256795116751,0,0,0,-61,-1,0,0,42,3,0,"",""
258,177705341,0,0,0,0,0,0,0,0,0,-122,-2,0,1034,151,0,32,-19,2,0,64,196,2097,128,192,191,215,1,8,0,1,1,0.09982624111267076,-0.020789577700451797,4.3952520596561,0,0,0,-61,-1,0,0,42,3,0,"",""
259,177706670,0,0,0,0,0,0,0,0,0,-121,-2,0,1034,151,0,32,-19,2,0,64,193,2097,128,191,187,221,1,8,0,1,1,0.09934953321997733,-0.02078891171125314,4.395247415845092,0,0,0,-60,-1,0,0,41,3,0,"",""
260,177708005,0,0,0,0,0,0,0,0,0,-121,-2,0,1034,151,0,32,-18,2,0,63,191,2097,128,190,184,228,1,8,0,1,1,0.09889194138927299,-0.020785676572244362,4.395242771823491,0,0,0,-60,-1,0,0,42,3,0,"",""
261,177709349,0,0,0,0,0,0,0,0,0,-120,-2,0,1034,151,0,32,-18,2,0,63,189,2097,128,191,185,213,1,8,0,1,1,0.09842936378838071,-0.02078202129816718,4.3952381179165565,0,0,0,-59,-1,0,0,41,3,0,"",""
262,177710706,0,0,0,0,0,0,0,0,0,-119,-2,0,1034,151,0,32,-18,2,0,62,187,2097,128,190,182,222,1,8,0,1,1,0.0979605851139615,-0.020775590773753475,4.3952334413570595,0,0,0,-59,-1,0,0,41,3,0,"",""
263,177712062,0,0,0,0,0,0,0,0,0,-119,-2,0,1034,151,0,32,-18,3,0,61,184,2097,128,187,176,228,1,8,0,1,1,0.09748777428769423,-0.020743456172088618,4.395226484449494,0,0,0,-59,-1,0,0,41,4,0,"",""
264,177713396,0,0,0,0,0,0,0,0,0,-118,-2,0,1043,151,0,32,-17,3,0,60,182,2097,128,189,178,216,1,8,0,1,1,0.09704296308445667,-0.020710296089979603,4.395219672062005,0,0,0,-58,-1,0,0,41,4,0,"",""
265,177714742,0,0,0,0,0,0,0,0,0,-118,-2,0,1043,151,0,32,-17,3,0,60,180,2098,128,185,171,213,1,8,0,1,1,0.096592220166107,-0.020676519059782003,4.395212831915012,0,0,0,-58,-1,0,0,41,4,0,"",""
266,177716065,0,0,0,0,0,0,0,0,0,-118,-2,0,1043,151,0,32,-17,3,0,59,178,2098,128,183,166,217,1,8,0,1,1,0.09614613940268979,-0.020641795615248173,4.395206140775671,0,0,0,-58,-1,0,0,41,4,0,"",""
267,177717396,0,0,0,0,0,0,0,0,0,-118,-2,0,1043,151,0,32,-16,3,0,60,175,2098,128,183,166,207,1,8,0,1,1,0.09571649841422888,-0.020608912569937934,4.395199439945403,0,0,0,-58,-1,0,0,42,4,0,"",""
268,177718734,0,0,0,0,0,0,0,0,0,-118,-2,0,1043,151,0,32,-16,3,0,60,173,2099,128,179,160,200,1,8,0,1,1,0.09528250402345076,-0.02057567083850314,4.395192736952482,0,0,0,-58,-1,0,0,42,4,0,"",""
269,177720107,0,0,0,0,0,0,0,0,0,-117,-2,0,1043,151,0,32,-15,3,0,60,171,2099,128,178,156,198,1,8,0,1,1,0.09486046503013743,-0.020540663927142093,4.395185892824891,0,0,0,-58,-1,0,0,43,4,0,"",""
270,177721470,0,0,0,0,0,0,0,0,0,-117,-2,0,1043,150,0,32,-15,3,0,60,168,2099,128,177,153,193,1,8,0,1,1,0.09443666620088127,-0.020506238673988993,4.395179130929735,0,0,0,-58,-1,0,0,43,4,0,"",""
271,177722807,0,0,0,0,0,0,0,0,0,-117,-2,0,1043,150,0,32,-14,3,0,60,166,2099,128,175,149,185,1,8,0,1,1,0.09404069285189845,-0.020473218487183878,4.395172528913934,0,0,0,-58,-1,0,0,44,4,0,"",""
272,177724136,0,0,0,0,0,0,0,0,0,-117,-2,0,1043,150,0,32,-14,3,0,60,164,2100,128,172,145,185,1,8,0,1,1,0.09364416883283123,-0.020440618957205954,4.395165997772586,0,0,0,-58,-1,0,0,44,4,0,"",""
273,177725460,0,0,0,0,0,0,0,0,0,-117,-2,0,1043,150,0,32,-13,3,0,60,161,2100,128,173,145,190,1,8,0,1,1,0.09326744537959471,-0.02040833059419561,4.395159521017958,0,0,0,-58,-1,0,0,45,4,0,"",""
274,177726784,0,0,0,0,0,0,0,0,0,-117,-2,0,1043,150,0,32,-13,3,0,59,159,2100,128,171,141,174,1,8,0,1,1,0.09288837205779742,-0.020373945417582636,4.395153075360568,0,0,0,-58,-1,0,0,45,4,0,"",""
275,177728133,0,0,0,0,0,0,0,0,0,-117,-2,0,1043,150,0,32,-12,3,0,58,157,2100,128,169,137,172,1,8,0,1,1,0.09252476141086627,-0.02033618749490211,4.395146539086893,0,0,0,-58,-1,0,0,46,4,0,"",""
276,177729505,0,0,0,0,0,0,0,0,0,-117,-2,0,1043,150,0,32,-12,3,0,57,155,2100,128,167,132,175,1,8,0,1,1,0.09215396979833117,-0.020295187426222366,4.395139923743117,0,0,0,-58,-1,0,0,46,4,0,"",""
277,177730991,0,0,0,0,0,0,0,0,0,-118,-2,0,1055,150,0,32,-12,3,0,56,153,2100,128,166,132,167,1,8,0,1,1,0.09175705955922099,-0.020246247570972865,4.395132795873992,0,0,0,-58,-1,0,0,46,4,0,"",""
278,177732469,0,0,0,0,0,0,0,0,0,-119,-2,0,1055,150,0,32,-11,2,0,55,151,2100,137,176,142,174,1,8,0,1,1,0.09138533669976688,-0.020221320721594726,4.395128096603647,0,0,0,-59,-1,0,0,48,3,0,"",""
279,177733797,0,0,0,0,0,0,0,0,0,-120,-2,0,1055,150,0,32,-11,2,0,54,148,2100,137,178,142,171,1,8,0,1,1,0.09103787811264591,-0.02019951867839978,4.395123896667076,0,0,0,-59,-1,0,0,48,3,0,"",""
280,177735130,0,0,0,0,0,0,0,0,0,-121,-2,0,1055,150,0,32,-10,2,0,52,146,2100,137,178,143,156,1,8,0,1,1,0.09071022590443062,-0.020173364531682655,4.395119700986749,0,0,0,-60,-1,0,0,50,3,0,"",""
281,177736466,0,0,0,0,0,0,0,0,0,-123,-2,0,1055,150,0,32,-10,2,0,51,144,2100,137,179,144,153,1,8,0,1,1,0.09037957781231526,-0.020145070994133117,4.395115516302048,0,0,0,-61,-1,0,0,51,3,0,"",""
282,177737826,0,0,0,0,0,0,0,0,0,-124,-2,0,1055,150,0,32,-9,2,1,49,142,2100,137,180,145,145,1,8,0,1,1,0.09006546827414819,-0.02011396455028291,4.395087631210735,0,0,0,-62,-1,0,0,53,3,1,"",""
283,177739196,0,0,0,0,0,0,0,0,0,-125,-2,0,1055,150,0,32,-9,2,1,47,140,2100,141,184,149,137,1,8,0,1,1,0.08974728340060784,-0.020078444896418274,4.395059560877446,0,0,0,-62,-1,0,0,53,3,1,"",""
284,177740526,0,0,0,0,0,0,0,0,0,-127,-2,0,1055,150,0,32,-8,2,1,45,138,2100,152,196,160,137,1,8,0,1,1,0.08945600512101345,-0.02004020729105064,4.395032329899213,0,0,0,-64,-1,0,0,56,3,1,"",""
285,177741862,0,0,0,0,0,0,0,0,0,-128,-2,0,1055,151,0,32,-8,2,1,43,136,2100,144,187,154,137,1,8,0,1,1,0.08916130932418628,-0.019997764849813148,4.3950049949096375,0,0,0,-64,-1,0,0,56,3,1,"",""
286,177743207,0,0,0,0,0,0,0,0,0,-129,-2,0,1055,151,0,32,-8,2,1,42,135,2099,155,199,166,137,1,8,0,1,1,0.08886505528736335,-0.019953168228834275,4.394977493711229,0,0,0,-65,-1,0,0,57,3,1,"",""
287,177744598,0,0,0,0,0,0,0,0,0,-131,-2,0,1055,151,0,32,-7,1,1,40,133,2099,157,201,169,137,1,8,0,1,1,0.08858406202510666,-0.019927185567841964,4.394951217740533,0,0,0,-66,-1,0,0,59,2,1,"",""
288,177745959,0,0,0,0,0,0,0,0,0,-132,-2,0,1055,151,0,32,-7,1,1,39,131,2099,128,173,140,101,1,8,0,1,1,0.08830413581367982,-0.019899737238680746,4.394925519777339,0,0,0,-67,-1,0,0,60,2,1,"",""
289,177747328,0,0,0,0,0,0,0,0,0,-134,-2,0,1055,151,0,32,-7,1,1,38,130,2099,127,173,141,101,1,8,0,1,1,0.08802269740300976,-0.019870236763070162,4.394899679344493,0,0,0,-68,-1,0,0,61,2,1,"",""
290,177748692,0,0,0,0,0,0,0,0,0,-135,-2,0,1055,151,0,32,-6,1,1,37,128,2098,142,189,156,101,1,8,0,1,1,0.08776318177492738,-0.019838953015434445,4.394873943215142,0,0,0,-68,-1,0,0,62,2,1,"",""
291,177750030,0,0,0,0,0,0,0,0,0,-137,-2,0,1055,151,0,32,-6,1,1,36,127,2098,147,194,162,101,1,8,0,1,1,0.08750577190268966,-0.019806190981556178,4.394848707469311,0,0,0,-70,-1,0,0,64,2,1,"",""
292,177751363,0,0,0,0,0,0,0,0,0,-138,-2,0,1055,151,0,32,-6,1,1,36,125,2097,149,196,165,101,1,8,0,1,1,0.08724640891348527,-0.019773718874290858,4.394823575903224,0,0,0,-70,-1,0,0,64,2,1,"",""
293,177752703,0,0,0,0,0,0,0,0,0,-140,-2,0,1055,151,0,32,-5,1,1,35,123,2097,159,208,176,101,1,8,0,1,1,0.08700696700697064,-0.01973927055468221,4.3947983215034725,0,0,0,-72,-1,0,0,67,2,1,"",""
294,177754042,0,0,0,0,0,0,0,0,0,-141,-2,0,1055,151,0,32,-5,1,1,35,121,2096,166,214,184,101,1,8,0,1,1,0.08676508279450165,-0.01970505934571369,4.394773095531106,0,0,0,-72,-1,0,0,67,2,1,"",""
295,177755420,0,0,0,0,0,0,0,0,0,-143,-2,0,1055,151,0,32,-5,1,1,35,120,2096,162,210,181,101,1,8,0,1,1,0.08651912936237065,-0.019670407119115815,4.394747140849127,0,0,0,-74,-1,0,0,69,2,1,"",""
296,177756779,0,0,0,0,0,0,0,0,0,-144,-2,0,1055,151,0,32,-4,0,1,34,118,2095,173,223,193,101,1,8,0,1,1,0.0862960082159102,-0.019657786907722408,4.394723599549622,0,0,0,-74,-1,0,0,70,1,1,"",""
297,177758131,0,0,0,0,0,0,0,0,0,-145,-2,0,1069,151,0,32,-4,0,0,34,117,2095,181,229,203,101,1,8,0,1,1,0.08607310019064984,-0.019643221786773458,4.3947236938878405,0,0,0,-75,-1,0,0,71,1,0,"",""
298,177759472,0,0,0,0,0,0,0,0,0,-146,-2,0,1069,151,0,32,-4,0,0,34,116,2095,207,256,229,127,1,8,0,1,1,0.08585022266737148,-0.01962875806199285,4.394723788789647,0,0,0,-75,-1,0,0,71,1,0,"",""
299,177760939,0,0,0,0,0,0,0,0,0,-147,-2,0,1069,151,0,32,-3,0,0,33,115,2095,214,263,236,127,1,8,0,1,1,0.08564335079928481,-0.019612391449217257,4.394723884374408,0,0,0,-76,-1,0,0,73,1,0,"",""
300,177762468,0,0,0,0,0,0,0,0,0,-148,-2,0,1069,150,0,32,-3,0,-1,33,114,2095,219,269,244,127,1,8,0,1,1,0.08543297047496497,-0.019593866689092312,4.394750574417882,0,0,0,-77,-1,0,0,74,1,-1,"",""
301,177763832,0,0,0,0,0,0,0,0,0,-149,-2,0,1069,150,0,32,-2,0,-2,33,113,2095,220,270,245,127,1,8,0,1,1,0.08525452944607484,-0.01957369072840578,4.39479812033223,0,0,0,-77,-1,0,0,75,1,-2,"",""
302,177765204,0,0,0,0,0,0,0,0,0,-150,-2,0,1069,150,0,32,-2,0,-2,32,113,2096,222,274,248,127,1,8,0,1,1,0.08507672092896094,-0.019551596770578984,4.394845945186283,0,0,0,-78,-1,0,0,76,1,-2,"",""
303,177766557,0,0,0,0,0,0,0,0,0,-152,-2,0,1082,150,0,32,-1,0,-3,32,113,2097,211,262,232,127,1,8,0,1,1,0.08492443235887961,-0.01952766655248538,4.394916643317373,0,0,0,-79,-1,0,1.2903225806451613,78,1,-3,"",""
304,177767883,0,0,0,0,0,0,0,0,0,-153,-2,0,1082,150,0,32,-1,-1,-4,31,114,2097,244,296,270,151,1,8,0,1,1,0.08477600152673108,-0.019523038068059596,4.395010956392205,0,0,0,-80,-1,0,1.2903225806451613,79,0,-4,"",""
