"Product","Blackbox flight data recorder by Nicholas Sherlock"
"firmwareType",3
"firmware","3.3"
"firmwarePatch",3
"firmwareVersion","3.3.3"
"Firmware revision","Betaflight 3.3.3 (a2d5a6482) MATEKF722"
"Firmware date","Apr 16 2020 13:32:09"
"Log start datetime","0000-01-01T00:00:00.000+00:00"
"Craft name","NEUROFLIGHT"
"frameIntervalI",32
"frameIntervalPNum",1
"frameIntervalPDenom",1
"minthrottle",1070
"maxthrottle",2000
"gyroScale",1.7453292519943295e-8
"motorOutput","128,2047"
"acc_1G",2048
"vbatscale",110
"vbatmincellvoltage",33
"vbatwarningcellvoltage",35
"vbatmaxcellvoltage",43
"vbatref",150
"currentMeterOffset",0
"currentMeterScale",179
"looptime",125
"gyro_sync_denom",1
"pid_process_denom",8
"thrMid",50
"thrExpo",0
"dynThrPID",10
"tpa_breakpoint",1650
"rc_rates","100,100,100"
"rc_expo","0,0,0"
"rates","70,70,70"
"rollPID","40,40,30"
"pitchPID","58,50,35"
"yawPID","70,45,20"
"altPID","50,0,0"
"posPID","15,0,0"
"posrPID","34,14,53"
"navrPID","25,33,83"
"levelPID","50,50,75"
"magPID","40,,"
"velPID","55,55,75"
"dterm_filter_type",1
"dterm_lpf_hz",100
"yaw_lpf_hz",0
"dterm_notch_hz",260
"dterm_notch_cutoff",160
"itermWindupPointPercent",50
"vbat_pid_compensation",0
"pidAtMinThrottle",1
"anti_gravity_threshold",350
"anti_gravity_gain",1000
"setpointRelaxRatio",100
"dtermSetpointWeight",0
"yawRateAccelLimit",0.1
"rateAccelLimit",0
"pidSumLimit",500
"pidSumLimitYaw",400
"deadband",0
"yaw_deadband",0
"gyro_lpf",0
"gyro_soft_type",0
"gyro_lowpass_hz",90
"gyro_notch_hz","400,200"
"gyro_notch_cutoff","300,100"
"acc_lpf_hz",1000
"acc_hardware",0
"baro_hardware",0
"mag_hardware",0
"gyro_cal_on_first_arm",0
"rc_interpolation",2
"rc_interpolation_interval",19
"airmode_activate_throttle",32
"serialrx_provider",2
"unsynced_fast_pwm",0
"fast_pwm_protocol",7
"motor_pwm_rate",480
"digitalIdleOffset",400
"debug_mode",0
"features",263176
"loopIteration","time","axisP[0]","axisP[1]","axisP[2]","axisI[0]","axisI[1]","axisI[2]","axisD[0]","axisD[1]","axisD[2]","rcCommand[0]","rcCommand[1]","rcCommand[2]","rcCommand[3]","vbatLatest","amperageLatest","BaroAlt","gyroADC[0]","gyroADC[1]","gyroADC[2]","accSmooth[0]","accSmooth[1]","accSmooth[2]","motor[0]","motor[1]","motor[2]","motor[3]","flightModeFlags","stateFlags","failsafePhase","rxSignalReceived","rxFlightChannelsValid","heading[0]","heading[1]","heading[2]","axisSum[0]","axisSum[1]","axisSum[2]","rcCommands[0]","rcCommands[1]","rcCommands[2]","rcCommands[3]","axisError[0]","axisError[1]","axisError[2]"
0,111417648,0,0,0,0,0,0,0,0,0,0,0,0,1000,150,0,59,1,0,3,101,-57,2073,128,146,136,85,"","","","","",-0.027489455640799212,-0.048664798402692916,4.396484333371582,0,0,0,0,0,0,0,1,0,3,"",""
1,111419150,0,0,0,0,0,0,0,0,0,0,0,0,1000,150,0,59,1,0,4,101,-57,2073,134,155,151,85,1,8,0,1,1,-0.027478909463569984,-0.048663359762266205,4.396379389326434,0,0,0,0,0,0,0,1,0,4,"",""
2,111420778,0,0,0,0,0,0,0,0,0,0,0,0,1000,150,0,59,1,0,4,101,-58,2073,124,159,155,85,1,8,0,1,1,-0.02762813251191947,-0.04866154649776287,4.3962656426873385,0,0,0,0,0,0,0,1,0,4,"",""
3,111422403,0,0,0,0,0,0,0,0,0,0,0,0,1000,150,0,59,1,0,5,102,-59,2073,117,167,154,85,1,8,0,1,1,-0.027818909731597223,-0.0487796694374402,4.396123720697501,0,0,0,0,0,0,0,1,0,5,"",""
4,111423890,0,0,0,0,0,0,0,0,0,0,0,0,1000,150,0,59,1,0,5,102,-60,2073,118,169,163,85,1,8,0,1,1,-0.0280272904831765,-0.048849874280697037,4.395993852481848,0,0,0,0,0,0,0,1,0,5,"",""
5,111425383,0,0,0,0,0,0,0,0,0,0,0,0,1000,150,0,59,1,0,6,102,-61,2073,121,174,170,85,1,8,0,1,1,-0.028244624051889395,-0.04889532334656307,4.395837383268586,0,0,0,0,0,0,0,1,0,6,"",""
6,111426880,0,0,0,0,0,0,0,0,0,0,0,0,1000,150,0,59,1,0,5,103,-62,2074,113,172,166,85,1,8,0,1,1,-0.028463343168491303,-0.048993337657072124,4.395706642538148,0,0,0,0,0,0,0,1,0,5,"",""
7,111428373,0,0,0,0,0,0,0,0,0,0,0,0,1000,150,0,59,1,0,5,103,-63,2073,113,170,167,85,1,8,0,1,1,-0.028687296225612318,-0.049069244936515065,4.395576252727128,0,0,0,0,0,0,0,1,0,5,"",""
8,111429859,0,0,0,0,0,0,0,0,0,0,0,0,1000,150,0,55,1,0,5,104,-64,2073,117,167,167,85,1,8,0,1,1,-0.028913310151499214,-0.049181587067809326,4.395446473260425,0,0,0,0,0,0,0,1,0,5,"",""
9,111431350,0,0,0,0,0,0,0,0,0,0,0,0,1000,150,0,55,1,0,5,104,-64,2073,110,160,159,85,1,8,0,1,1,-0.02909213205960982,-0.049271050949786545,4.395316257183074,0,0,0,0,0,0,0,1,0,5,"",""
10,111432830,0,0,0,0,0,0,0,0,0,0,0,0,1000,150,0,55,1,0,4,105,-64,2074,104,149,151,85,1,8,0,1,1,-0.029234364871035114,-0.04938650674264414,4.395212850472793,0,0,0,0,0,0,0,1,0,4,"",""
11,111434318,0,0,0,0,0,0,0,0,0,0,0,0,1000,150,0,55,1,0,3,105,-63,2074,104,143,143,85,1,8,0,1,1,-0.029309373516018703,-0.049483186743014294,4.395134874378892,0,0,0,0,0,0,0,1,0,3,"",""
12,111435818,0,0,0,0,0,0,0,0,0,0,0,0,1000,150,0,55,1,0,3,106,-63,2074,103,135,135,85,1,8,0,1,1,-0.029370995005184614,-0.04960215541686861,4.395056266961948,0,0,0,0,0,0,0,1,0,3,"",""
13,111437305,0,0,0,0,0,0,0,0,0,0,0,0,1000,150,0,55,1,1,2,106,-62,2074,105,127,126,85,1,8,0,1,1,-0.02938639669648439,-0.049680661680352685,4.3950050767211115,0,0,0,0,0,0,0,1,1,2,"",""
14,111438791,0,0,0,0,0,0,0,0,0,0,0,0,1000,150,0,55,0,1,1,107,-61,2075,89,108,112,85,1,8,0,1,1,-0.02938774695891388,-0.0497784786609113,4.394979873990219,0,0,0,0,0,0,0,0,1,1,"",""
15,111440279,0,0,0,0,0,0,0,0,0,0,0,0,1000,150,0,55,0,1,1,108,-60,2075,85,101,104,88,1,8,0,1,1,-0.029358516780881142,-0.04989285092387304,4.394954632052833,0,0,0,0,0,0,0,0,1,1,"",""
16,111441751,0,0,0,0,0,0,0,0,0,0,0,0,1000,150,0,55,0,1,0,108,-58,2076,91,93,97,85,1,8,0,1,1,-0.02927330119780599,-0.0499918353208858,4.394955364920548,0,0,0,0,0,0,0,0,1,0,"",""
17,111443234,0,0,0,0,0,0,0,0,0,0,0,0,1000,150,0,55,0,1,-1,108,-57,2076,90,85,98,94,1,8,0,1,1,-0.02916919491445693,-0.05007897345351073,4.394982001595964,0,0,0,0,0,0,0,0,1,-1,"",""
18,111444724,0,0,0,0,0,0,0,0,0,0,0,0,1000,150,0,55,-1,1,-1,108,-55,2076,93,85,90,98,1,8,0,1,1,-0.029049121015748657,-0.05015558597843239,4.3950087522541725,0,0,0,0,0,0,0,-1,1,-1,"",""
19,111446207,0,0,0,0,0,0,0,0,0,0,0,0,1000,150,0,55,-1,1,-2,108,-54,2076,106,85,92,102,1,8,0,1,1,-0.028916467221191476,-0.05022414458454875,4.395061273891551,0,0,0,0,0,0,0,-1,1,-2,"",""
20,111447693,0,0,0,0,0,0,0,0,0,0,0,0,1000,150,0,55,-1,1,-2,108,-53,2076,117,85,99,113,1,8,0,1,1,-0.02877426675936417,-0.050285004451607065,4.3951138934144955,0,0,0,0,0,0,0,-1,1,-2,"",""
21,111449177,0,0,0,0,0,0,0,0,0,0,0,0,1000,150,0,55,-1,1,-3,108,-52,2077,120,85,97,118,1,8,0,1,1,-0.02862185269461766,-0.050338881381909825,4.395192355974688,0,0,0,0,0,0,0,-1,1,-3,"",""
22,111450647,0,0,0,0,0,0,0,0,0,0,0,0,1000,150,0,55,-1,1,-3,107,-52,2077,138,85,103,118,1,8,0,1,1,-0.028483445604088553,-0.050365974269593564,4.395270076540946,0,0,0,0,0,0,0,-1,1,-3,"",""
23,111452131,0,0,0,0,0,0,0,0,0,0,0,0,1000,150,0,55,-1,1,-4,107,-52,2076,144,85,105,124,1,8,0,1,1,-0.028357004243054568,-0.050391357954088875,4.39537445849645,0,0,0,0,0,0,0,-1,1,-4,"",""
24,111453631,0,0,0,0,0,0,0,0,0,0,0,0,1000,150,0,55,-1,1,-4,106,-51,2076,144,85,98,124,1,8,0,1,1,-0.028222053616901256,-0.05039397532107509,4.395479958643728,0,0,0,0,0,0,0,-1,1,-4,"",""
25,111455128,0,0,0,0,0,0,0,0,0,0,0,0,1000,150,0,53,-1,0,-4,104,-51,2076,163,85,111,123,1,8,0,1,1,-0.028098270577691077,-0.050382893583469486,4.39558451201021,0,0,0,0,0,0,0,-1,0,-4,"",""
26,111456754,0,0,0,0,0,0,0,0,0,0,0,0,1000,150,0,53,-1,0,-4,103,-50,2075,156,85,106,128,1,8,0,1,1,-0.027968432998764024,-0.050355724985316916,4.395698077886063,0,0,0,0,0,0,0,-1,0,-4,"",""
27,111458478,0,0,0,0,0,0,0,0,0,0,0,0,1000,150,0,53,-1,0,-4,102,-50,2075,153,85,102,128,1,8,0,1,1,-0.027849981654109835,-0.05031322528500524,4.39581849587883,0,0,0,0,0,0,0,-1,0,-4,"",""
28,111459961,0,0,0,0,0,0,0,0,0,0,0,0,1000,150,0,53,-1,0,-4,101,-49,2075,168,85,114,125,1,8,0,1,1,-0.02772027657206971,-0.05025636500355418,4.395922072268383,0,0,0,0,0,0,0,-1,0,-4,"",""
29,111461445,0,0,0,0,0,0,0,0,0,0,0,0,1000,150,0,53,-2,0,-4,100,-50,2075,157,85,113,128,1,8,0,1,1,-0.02764137390377047,-0.05018694772205333,4.396025727016042,0,0,0,0,0,0,0,-2,0,-4,"",""
30,111462936,0,0,0,0,0,0,0,0,0,0,0,0,1000,150,0,53,-2,0,-3,99,-51,2074,149,85,101,120,1,8,0,1,1,-0.02758687933211925,-0.050106289090928215,4.396103832620014,0,0,0,0,0,0,0,-2,0,-3,"",""
31,111464427,0,0,0,0,0,0,0,0,0,0,0,0,1000,150,0,53,-2,0,-3,98,-52,2074,150,85,111,121,1,8,0,1,1,-0.027552704433143095,-0.05001529969589136,4.396181944570962,0,0,0,0,0,0,0,-2,0,-3,"",""
32,111465909,0,0,0,0,0,0,0,0,0,0,0,0,1000,150,0,53,-2,0,-3,97,-54,2073,128,74,98,108,1,8,0,1,1,-0.027552134240276444,-0.049915621043317475,4.396259595257416,0,0,0,0,0,0,0,-2,0,-3,"",""
33,111467395,0,0,0,0,0,0,0,0,0,0,0,0,1000,150,0,53,-2,0,-2,96,-55,2073,123,74,91,95,1,8,0,1,1,-0.027568913995569447,-0.04980662531650032,4.39631150203693,0,0,0,0,0,0,0,-2,0,-2,"",""
34,111468871,0,0,0,0,0,0,0,0,0,0,0,0,1000,150,0,53,-2,0,-2,96,-57,2072,125,74,95,88,1,8,0,1,1,-0.02761448869379429,-0.04970454860571708,4.396363068021705,0,0,0,0,0,0,0,-2,0,-2,"",""
35,111470361,0,0,0,0,0,0,0,0,0,0,0,0,1000,150,0,53,-2,0,-1,95,-57,2072,113,74,91,83,1,8,0,1,1,-0.02766056524309093,-0.04959374592507143,4.396389094695771,0,0,0,0,0,0,0,-2,0,-1,"",""
36,111471855,0,0,0,0,0,0,0,0,0,0,0,0,1000,150,0,53,-1,0,-1,94,-57,2071,118,81,89,74,1,8,0,1,1,-0.02768063839631819,-0.04947622423834874,4.39641519094345,0,0,0,0,0,0,0,-1,0,-1,"",""
37,111473347,0,0,0,0,0,0,0,0,0,0,0,0,1000,150,0,53,-1,0,0,94,-57,2071,117,84,97,74,1,8,0,1,1,-0.02770151236639542,-0.04936419485508725,4.39641518971166,0,0,0,0,0,0,0,-1,0,0,"",""
38,111474834,0,0,0,0,0,0,0,0,0,0,0,0,1000,150,0,53,-1,0,0,94,-55,2070,109,87,97,74,1,8,0,1,1,-0.027696735276973423,-0.04925856410991859,4.396415180452871,0,0,0,0,0,0,0,-1,0,0,"",""
39,111476320,0,0,0,0,0,0,0,0,0,0,0,0,1000,150,0,53,-1,0,1,94,-53,2070,114,98,102,74,1,8,0,1,1,-0.027669170885325074,-0.049157538512896864,4.396389206624529,0,0,0,0,0,0,0,-1,0,1,"",""
40,111477803,0,0,0,0,0,0,0,0,0,0,0,0,1000,150,0,53,-1,0,1,94,-51,2070,121,104,112,74,1,8,0,1,1,-0.02761923839178487,-0.049061450098724785,4.396363278350525,0,0,0,0,0,0,0,-1,0,1,"",""
41,111479292,0,0,0,0,0,0,0,0,0,0,0,0,1000,150,0,53,-1,0,1,94,-48,2069,110,105,110,74,1,8,0,1,1,-0.02753712910349085,-0.048970539325303764,4.396337235209746,0,0,0,0,0,0,0,-1,0,1,"",""
42,111480788,0,0,0,0,0,0,0,0,0,0,0,0,1000,150,0,51,0,0,1,95,-45,2069,113,113,112,74,1,8,0,1,1,-0.027399272466814242,-0.04889545671753654,4.396311060334596,0,0,0,0,0,0,0,0,0,1,"",""
43,111482280,0,0,0,0,0,0,0,0,0,0,0,0,1000,150,0,51,0,0,2,96,-42,2070,108,113,115,74,1,8,0,1,1,-0.02723457889738157,-0.04883389015714321,4.396258884563032,0,0,0,0,0,0,0,0,0,2,"",""
44,111483767,0,0,0,0,0,0,0,0,0,0,0,0,1000,150,0,51,0,0,2,98,-39,2070,97,111,112,74,1,8,0,1,1,-0.027043917116584177,-0.04879724937118356,4.396206874702371,0,0,0,0,0,0,0,0,0,2,"",""
45,111485255,0,0,0,0,0,0,0,0,0,0,0,0,1000,150,0,51,0,0,2,100,-37,2070,98,115,114,74,1,8,0,1,1,-0.026839836278187056,-0.0487839107560847,4.396154824888712,0,0,0,0,0,0,0,0,0,2,"",""
46,111486733,0,0,0,0,0,0,0,0,0,0,0,0,1000,150,0,51,0,0,2,101,-35,2070,97,115,115,74,1,8,0,1,1,-0.026623156703429803,-0.04878178650365216,4.396103119685786,0,0,0,0,0,0,0,0,0,2,"",""
47,111488216,0,0,0,0,0,0,0,0,0,0,0,0,1000,150,0,51,0,0,2,101,-34,2070,90,110,115,74,1,8,0,1,1,-0.02640511181847204,-0.04877974060948,4.396051238784744,0,0,0,0,0,0,0,0,0,2,"",""
48,111489724,0,0,0,0,0,0,0,0,0,0,0,0,1000,150,0,51,0,0,2,102,-33,2070,86,112,110,74,1,8,0,1,1,-0.026185810363187977,-0.048787965187906714,4.395998483241188,0,0,0,0,0,0,0,0,0,2,"",""
49,111491347,0,0,0,0,0,0,0,0,0,0,0,0,1000,150,0,51,0,0,2,102,-32,2070,96,112,118,74,1,8,0,1,1,-0.02596547172747643,-0.04879575341832987,4.395941708988596,0,0,0,0,0,0,0,0,0,2,"",""
50,111492970,0,0,0,0,0,0,0,0,0,0,0,0,1000,150,0,51,-1,1,2,101,-32,2070,78,103,106,74,1,8,0,1,1,-0.02578152782818321,-0.04876564703560462,4.3958856681283525,0,0,0,0,0,0,0,-1,1,2,"",""
51,111494454,0,0,0,0,0,0,0,0,0,0,0,0,1000,150,0,51,-1,1,2,100,-31,2070,77,105,101,74,1,8,0,1,1,-0.025592944258539828,-0.048729018925469623,4.395834408978472,0,0,0,0,0,0,0,-1,1,2,"",""
52,111495942,0,0,0,0,0,0,0,0,0,0,0,0,1000,150,0,51,-1,1,2,100,-31,2070,83,100,107,74,1,8,0,1,1,-0.025412054613378515,-0.04869321614074142,4.3957830040403625,0,0,0,0,0,0,0,-1,1,2,"",""
53,111497441,0,0,0,0,0,0,0,0,0,0,0,0,1000,150,0,51,-1,1,1,100,-31,2070,88,101,107,74,1,8,0,1,1,-0.025237316584188818,-0.048658717558719554,4.395757397399954,0,0,0,0,0,0,0,-1,1,1,"",""
54,111498932,0,0,0,0,0,0,0,0,0,0,0,0,1000,150,0,51,-1,1,1,100,-31,2070,85,97,103,74,1,8,0,1,1,-0.02506925766063779,-0.04862515011272135,4.395731920092686,0,0,0,0,0,0,0,-1,1,1,"",""
55,111500422,0,0,0,0,0,0,0,0,0,0,0,0,1000,150,0,51,-1,0,1,101,-32,2070,100,95,113,74,1,8,0,1,1,-0.024916682312911772,-0.048626839361084896,4.395705808740572,0,0,0,0,0,0,0,-1,0,1,"",""
56,111501909,0,0,0,0,0,0,0,0,0,0,0,0,1000,150,0,51,-1,0,1,103,-32,2070,100,93,109,74,1,8,0,1,1,-0.024769857529132022,-0.04864614494444025,4.395679751593176,0,0,0,0,0,0,0,-1,0,1,"",""
57,111503393,0,0,0,0,0,0,0,0,0,0,0,0,1000,150,0,51,-1,0,1,104,-33,2070,97,91,104,74,1,8,0,1,1,-0.024637198718440945,-0.04867346429904218,4.395653752890714,0,0,0,0,0,0,0,-1,0,1,"",""
58,111504907,0,0,0,0,0,0,0,0,0,0,0,0,1000,150,0,51,-1,0,0,105,-33,2069,104,89,106,74,1,8,0,1,1,-0.024508957389789032,-0.048709450604008116,4.395653679662243,0,0,0,0,0,0,0,-1,0,0,"",""
59,111506399,0,0,0,0,0,0,0,0,0,0,0,0,1000,150,0,50,-1,0,0,105,-34,2069,100,85,102,74,1,8,0,1,1,-0.024393464690643504,-0.04874422776113047,4.395653612592284,0,0,0,0,0,0,0,-1,0,0,"",""
60,111507891,0,0,0,0,0,0,0,0,0,0,0,0,1000,150,0,50,-1,0,0,105,-34,2069,99,82,100,74,1,8,0,1,1,-0.024282159404846123,-0.04877786511239825,4.395653547525942,0,0,0,0,0,0,0,-1,0,0,"",""
61,111509380,0,0,0,0,0,0,0,0,0,0,0,0,1000,150,0,50,-1,0,0,104,-35,2069,101,78,101,74,1,8,0,1,1,-0.024182967360594967,-0.04880224531431105,4.395653488492802,0,0,0,0,0,0,0,-1,0,0,"",""
62,111510861,0,0,0,0,0,0,0,0,0,0,0,0,1000,150,0,50,-1,0,0,102,-35,2069,103,75,100,74,1,8,0,1,1,-0.024087174598970886,-0.048809771626460705,4.395653431802911,0,0,0,0,0,0,0,-1,0,0,"",""
63,111512346,0,0,0,0,0,0,0,0,0,0,0,0,1000,150,0,50,-1,0,0,100,-36,2069,107,76,100,74,1,8,0,1,1,-0.024002761235370953,-0.04880121089247831,4.395653381024867,0,0,0,0,0,0,0,-1,0,0,"",""
64,111513824,0,0,0,0,0,0,0,0,0,0,0,0,1000,150,0,50,-1,0,-1,98,-36,2068,128,97,123,100,1,8,0,1,1,-0.023920147888369662,-0.0487782918175569,4.395679151640198,0,0,0,0,0,0,0,-1,0,-1,"",""
65,111515316,0,0,0,0,0,0,0,0,0,0,0,0,1000,150,0,50,-1,0,-1,95,-36,2068,132,97,127,103,1,8,0,1,1,-0.023840615134594772,-0.04873299566645173,4.395705169064179,0,0,0,0,0,0,0,-1,0,-1,"",""
66,111516811,0,0,0,0,0,0,0,0,0,0,0,0,1000,150,0,50,-1,0,-1,92,-37,2068,140,97,122,97,1,8,0,1,1,-0.023771454396597086,-0.04866629081549143,4.395731244453593,0,0,0,0,0,0,0,-1,0,-1,"",""
67,111518302,0,0,0,0,0,0,0,0,0,0,0,0,1000,150,0,50,-1,0,-1,89,-37,2067,137,97,121,100,1,8,0,1,1,-0.02370478368845461,-0.048579471338491165,4.395757251794931,0,0,0,0,0,0,0,-1,0,-1,"",""
68,111519785,0,0,0,0,0,0,0,0,0,0,0,0,1000,150,0,50,-1,0,-1,85,-38,2067,135,97,115,98,1,8,0,1,1,-0.02364764577628091,-0.04846564312962067,4.395783124633078,0,0,0,0,0,0,0,-1,0,-1,"",""
69,111521265,0,0,0,0,0,0,0,0,0,0,0,0,1000,150,0,50,-1,-1,-1,83,-39,2066,153,105,121,97,1,8,0,1,1,-0.023599918136106682,-0.04836628514469504,4.395808339298905,0,0,0,0,0,0,0,-1,-1,-1,"",""
70,111522739,0,0,0,0,0,0,0,0,0,0,0,0,1000,150,0,50,-1,-1,-1,81,-41,2066,146,99,119,97,1,8,0,1,1,-0.02356815855161367,-0.048255578924960386,4.395833461412417,0,0,0,0,0,0,0,-1,-1,-1,"",""
71,111524222,0,0,0,0,0,0,0,0,0,0,0,0,1000,150,0,50,-1,-1,-1,79,-43,2066,142,100,112,97,1,8,0,1,1,-0.023551958052335852,-0.04813424569658968,4.395858745235926,0,0,0,0,0,0,0,-1,-1,-1,"",""
72,111525732,0,0,0,0,0,0,0,0,0,0,0,0,1000,150,0,50,0,-1,-1,79,-44,2065,162,107,121,97,1,8,0,1,1,-0.023518168686572628,-0.04801737190590147,4.395884494301264,0,0,0,0,0,0,0,0,-1,-1,"",""
73,111527359,0,0,0,0,0,0,0,0,0,0,0,0,1000,150,0,50,0,-1,-1,78,-45,2065,150,101,115,97,1,8,0,1,1,-0.023492107542877217,-0.0478991304116685,4.3959122432637745,0,0,0,0,0,0,0,0,-1,-1,"",""
74,111528980,0,0,0,0,0,0,0,0,0,0,0,0,1000,150,0,50,0,-1,-1,78,-45,2064,144,103,106,97,1,8,0,1,1,-0.023466891791354378,-0.04778461634445257,4.3959398911332705,0,0,0,0,0,0,0,0,-1,-1,"",""
75,111530465,0,0,0,0,0,0,0,0,0,0,0,0,1000,150,0,50,0,-1,-1,78,-45,2064,163,107,119,97,1,8,0,1,1,-0.02344243412649318,-0.04767106725303488,4.3959652201677,0,0,0,0,0,0,0,0,-1,-1,"",""
76,111531950,0,0,0,0,0,0,0,0,0,0,0,0,1000,150,0,50,0,-1,-1,78,-45,2064,140,101,106,97,1,8,0,1,1,-0.02341859829460316,-0.047560779941537686,4.395990550224143,0,0,0,0,0,0,0,0,-1,-1,"",""
77,111533439,0,0,0,0,0,0,0,0,0,0,0,0,1000,150,0,50,0,-1,-1,78,-45,2064,140,107,106,97,1,8,0,1,1,-0.023395357266862364,-0.04745369965917315,4.396015949502365,0,0,0,0,0,0,0,0,-1,-1,"",""
78,111534942,0,0,0,0,0,0,0,0,0,0,0,0,1000,150,0,50,0,-1,-1,78,-45,2064,153,115,115,97,1,8,0,1,1,-0.0233726804818556,-0.04734988275068771,4.3960415885676944,0,0,0,0,0,0,0,0,-1,-1,"",""
79,111536432,0,0,0,0,0,0,0,0,0,0,0,0,1000,150,0,50,0,-1,0,79,-46,2064,137,114,108,97,1,8,0,1,1,-0.02335822271433482,-0.047254556288918316,4.396040980324114,0,0,0,0,0,0,0,0,-1,0,"",""
80,111537913,0,0,0,0,0,0,0,0,0,0,0,0,1000,150,0,50,0,-1,0,79,-47,2065,150,125,116,97,1,8,0,1,1,-0.023350336922771626,-0.04716141478873777,4.396040377353921,0,0,0,0,0,0,0,0,-1,0,"",""
81,111539402,0,0,0,0,0,0,0,0,0,0,0,0,1000,150,0,50,0,0,0,80,-48,2065,134,121,111,97,1,8,0,1,1,-0.023348907313158106,-0.04705160139440242,4.396040379463587,0,0,0,0,0,0,0,0,0,0,"",""
82,111540880,0,0,0,0,0,0,0,0,0,0,0,0,1000,150,0,50,0,0,0,80,-50,2066,128,126,109,97,1,8,0,1,1,-0.023359809662088157,-0.04694412412537963,4.396040383205656,0,0,0,0,0,0,0,0,0,0,"",""
83,111542362,0,0,0,0,0,0,0,0,0,0,0,0,1000,150,0,50,0,0,1,80,-51,2066,138,130,121,97,1,8,0,1,1,-0.023377804506700444,-0.04683859958504816,4.396014500590009,0,0,0,0,0,0,0,0,0,1,"",""
84,111543861,0,0,0,0,0,0,0,0,0,0,0,0,1000,150,0,50,1,0,1,80,-53,2066,128,133,115,97,1,8,0,1,1,-0.023381737678881038,-0.04673552874236912,4.3959883228922445,0,0,0,0,0,0,0,1,0,1,"",""
85,111545351,0,0,0,0,0,0,0,0,0,0,0,0,1000,150,0,50,1,0,1,80,-54,2066,116,138,106,97,1,8,0,1,1,-0.02339147492090797,-0.046634842854346346,4.395962303395481,0,0,0,0,0,0,0,1,0,1,"",""
86,111546836,0,0,0,0,0,0,0,0,0,0,0,0,1000,150,0,50,1,0,1,81,-56,2065,137,143,124,97,1,8,0,1,1,-0.023412853769285764,-0.04654267262453328,4.395936372894402,0,0,0,0,0,0,0,1,0,1,"",""
87,111548319,0,0,0,0,0,0,0,0,0,0,0,0,1000,150,0,50,1,0,2,81,-58,2065,132,144,123,97,1,8,0,1,1,-0.02344649336374286,-0.0464519775002273,4.395884575012668,0,0,0,0,0,0,0,1,0,2,"",""
88,111549791,0,0,0,0,0,0,0,0,0,0,0,0,1000,150,0,50,1,1,2,81,-60,2065,115,143,111,97,1,8,0,1,1,-0.023490934548899386,-0.04633792499211812,4.395833767498491,0,0,0,0,0,0,0,1,1,2,"",""
89,111551355,0,0,0,0,0,0,0,0,0,0,0,0,1000,150,0,50,1,1,2,81,-62,2065,133,145,125,97,1,8,0,1,1,-0.02354424460479203,-0.046224452491495066,4.395779789263057,0,0,0,0,0,0,0,1,1,2,"",""
90,111552855,0,0,0,0,0,0,0,0,0,0,0,0,1000,150,0,50,1,1,1,82,-64,2065,128,141,123,97,1,8,0,1,1,-0.023607358519954914,-0.046120631803606905,4.395754227169277,0,0,0,0,0,0,0,1,1,1,"",""
91,111554348,0,0,0,0,0,0,0,0,0,0,0,0,1000,150,0,50,1,1,2,82,-65,2064,113,141,108,97,1,8,0,1,1,-0.02367593956534452,-0.04601856537545736,4.395702711610413,0,0,0,0,0,0,0,1,1,2,"",""
92,111555837,0,0,0,0,0,0,0,0,0,0,0,0,1000,150,0,50,1,1,1,83,-66,2064,122,137,118,97,1,8,0,1,1,-0.023747287056720263,-0.04592467951650947,4.395677347785298,0,0,0,0,0,0,0,1,1,1,"",""
93,111557327,0,0,0,0,0,0,0,0,0,0,0,0,1000,150,0,50,1,1,1,85,-66,2064,123,132,119,97,1,8,0,1,1,-0.023816855512329742,-0.045843577011229104,4.395651970534695,0,0,0,0,0,0,0,1,1,1,"",""
94,111558810,0,0,0,0,0,0,0,0,0,0,0,0,1000,150,0,50,1,1,1,87,-66,2065,114,133,109,97,1,8,0,1,1,-0.02388470180803799,-0.045774754139967906,4.395626716076993,0,0,0,0,0,0,0,1,1,1,"",""
95,111560293,0,0,0,0,0,0,0,0,0,0,0,0,1000,150,0,50,1,1,1,90,-66,2065,122,129,117,97,1,8,0,1,1,-0.02395089598447848,-0.04572339281751356,4.39560146470851,0,0,0,0,0,0,0,1,1,1,"",""
96,111561803,0,0,0,0,0,0,0,0,0,0,0,0,1000,150,0,50,1,1,1,92,-66,2066,128,132,127,106,1,8,0,1,1,-0.024014915045808004,-0.04568286762845143,4.395575756187179,0,0,0,0,0,0,0,1,1,1,"",""
97,111563430,0,0,0,0,0,0,0,0,0,0,0,0,1000,150,0,50,1,1,1,94,-65,2066,124,133,118,106,1,8,0,1,1,-0.024070124316150934,-0.045651505643779476,4.3955480541406375,0,0,0,0,0,0,0,1,1,1,"",""
98,111565052,0,0,0,0,0,0,0,0,0,0,0,0,1000,150,0,50,1,1,1,95,-64,2066,132,132,127,106,1,8,0,1,1,-0.02411876117982632,-0.04562587691509237,4.395520438178477,0,0,0,0,0,0,0,1,1,1,"",""
99,111566539,0,0,0,0,0,0,0,0,0,0,0,0,1000,150,0,50,0,1,0,96,-63,2067,131,126,127,106,1,8,0,1,1,-0.024187539134651805,-0.04560849346296727,4.39552109656967,0,0,0,0,0,0,0,0,1,0,"",""
100,111568023,0,0,0,0,0,0,0,0,0,0,0,0,1000,150,0,50,0,1,0,95,-62,2067,129,128,120,106,1,8,0,1,1,-0.02424976334204964,-0.04558609540659048,4.395521754252302,0,0,0,0,0,0,0,0,1,0,"",""
101,111569514,0,0,0,0,0,0,0,0,0,0,0,0,1000,150,0,50,0,1,0,94,-61,2067,141,129,128,106,1,8,0,1,1,-0.024305622254228183,-0.04555865473850057,4.395522415043137,0,0,0,0,0,0,0,0,1,0,"",""
102,111571005,0,0,0,0,0,0,0,0,0,0,0,0,1000,150,0,50,0,1,0,93,-61,2067,134,124,125,106,1,8,0,1,1,-0.024360394925986475,-0.04552642744138784,4.395523078364797,0,0,0,0,0,0,0,0,1,0,"",""
103,111572496,0,0,0,0,0,0,0,0,0,0,0,0,1000,150,0,50,0,1,0,92,-61,2067,126,122,116,106,1,8,0,1,1,-0.024414112658025403,-0.045489547772079295,4.395523744143691,0,0,0,0,0,0,0,0,1,0,"",""
104,111573983,0,0,0,0,0,0,0,0,0,0,0,0,1000,150,0,50,0,1,0,92,-61,2066,139,119,129,106,1,8,0,1,1,-0.024466928208619374,-0.04545344113524848,4.3955244104414435,0,0,0,0,0,0,0,0,1,0,"",""
105,111575473,0,0,0,0,0,0,0,0,0,0,0,0,1000,150,0,50,0,1,0,92,-61,2066,137,117,127,106,1,8,0,1,1,-0.024518746040784415,-0.04541774081749902,4.395525080126171,0,0,0,0,0,0,0,0,1,0,"",""
106,111576964,0,0,0,0,0,0,0,0,0,0,0,0,1000,150,0,50,0,1,0,94,-61,2065,130,117,119,106,1,8,0,1,1,-0.02456971510489455,-0.04539252148324136,4.395525751923096,0,0,0,0,0,0,0,0,1,0,"",""
107,111578448,0,0,0,0,0,0,0,0,0,0,0,0,1000,150,0,50,0,0,0,96,-61,2065,146,114,133,106,1,8,0,1,1,-0.02461976836443514,-0.04540304848493621,4.395525784035935,0,0,0,0,0,0,0,0,0,0,"",""
108,111579945,0,0,0,0,0,0,0,0,0,0,0,0,1000,150,0,50,0,0,0,97,-60,2065,147,114,133,106,1,8,0,1,1,-0.024664061908707853,-0.04541821989658536,4.3955258121966745,0,0,0,0,0,0,0,0,0,0,"",""
109,111581436,0,0,0,0,0,0,0,0,0,0,0,0,1000,150,0,50,0,0,0,99,-60,2065,146,117,128,106,1,8,0,1,1,-0.02470754968613316,-0.045442699980810325,4.395525839423053,0,0,0,0,0,0,0,0,0,0,"",""
110,111582919,0,0,0,0,0,0,0,0,0,0,0,0,1000,150,0,50,0,0,-1,99,-59,2064,151,111,137,106,1,8,0,1,1,-0.024744444679712627,-0.045467593267642194,4.395551765212787,0,0,0,0,0,0,0,0,0,-1,"",""
111,111584409,0,0,0,0,0,0,0,0,0,0,0,0,1000,150,0,50,0,0,-1,100,-58,2064,150,108,137,106,1,8,0,1,1,-0.024775942126987475,-0.04549677090779142,4.39557780959345,0,0,0,0,0,0,0,0,0,-1,"",""
112,111585894,0,0,0,0,0,0,0,0,0,0,0,0,1000,150,0,50,0,0,0,100,-56,2063,143,109,131,106,1,8,0,1,1,-0.024798790058714534,-0.04552502344568176,4.395577823256191,0,0,0,0,0,0,0,0,0,0,"",""
113,111587387,0,0,0,0,0,0,0,0,0,0,0,0,1000,150,0,50,0,-1,0,101,-55,2063,147,107,137,106,1,8,0,1,1,-0.024816618608807593,-0.04558322500451151,4.395577186203688,0,0,0,0,0,0,0,0,-1,0,"",""
114,111588879,0,0,0,0,0,0,0,0,0,0,0,0,1000,150,0,50,-1,-1,-1,102,-54,2062,149,106,138,106,1,8,0,1,1,-0.024854256439113123,-0.045646061240935565,4.395602604204934,0,0,0,0,0,0,0,-1,-1,-1,"",""
115,111590370,0,0,0,0,0,0,0,0,0,0,0,0,1000,150,0,50,-1,-1,-1,102,-52,2062,139,106,127,106,1,8,0,1,1,-0.02488227080229429,-0.045708016067729354,4.395627998499956,0,0,0,0,0,0,0,-1,-1,-1,"",""
116,111591857,0,0,0,0,0,0,0,0,0,0,0,0,1000,150,0,50,-1,-1,0,101,-51,2061,148,109,135,106,1,8,0,1,1,-0.024906680147029795,-0.04576408825904959,4.395627349393375,0,0,0,0,0,0,0,-1,-1,0,"",""
117,111593344,0,0,0,0,0,0,0,0,0,0,0,0,1000,150,0,50,-1,-1,-1,100,-50,2060,154,110,138,106,1,8,0,1,1,-0.02492530388063908,-0.045815764059244056,4.395652669746189,0,0,0,0,0,0,0,-1,-1,-1,"",""
118,111594818,0,0,0,0,0,0,0,0,0,0,0,0,1000,150,0,50,-1,-1,-1,98,-48,2060,142,107,129,106,1,8,0,1,1,-0.02493464392821404,-0.045857627408786614,4.395677764370467,0,0,0,0,0,0,0,-1,-1,-1,"",""
119,111596317,0,0,0,0,0,0,0,0,0,0,0,0,1000,150,0,50,-1,-1,0,95,-47,2059,149,115,130,106,1,8,0,1,1,-0.024941287475645516,-0.04588570664277482,4.395677101548304,0,0,0,0,0,0,0,-1,-1,0,"",""
120,111597974,0,0,0,0,0,0,0,0,0,0,0,0,1000,150,0,50,-1,-1,0,93,-45,2058,157,116,139,106,1,8,0,1,1,-0.024942051642259683,-0.0459076665157424,4.39567636668522,0,0,0,0,0,0,0,-1,-1,0,"",""
121,111599601,0,0,0,0,0,0,0,0,0,0,0,0,1000,150,0,50,-1,-1,-1,92,-43,2057,142,110,128,106,1,8,0,1,1,-0.02493256740061222,-0.04592550948888823,4.395704060075337,0,0,0,0,0,0,0,-1,-1,-1,"",""
122,111601089,0,0,0,0,0,0,0,0,0,0,0,0,1000,150,0,50,-1,-1,0,91,-42,2057,140,112,125,106,1,8,0,1,1,-0.02491797986272834,-0.04593584079191937,4.395703396373356,0,0,0,0,0,0,0,-1,-1,0,"",""
123,111602577,0,0,0,0,0,0,0,0,0,0,0,0,1000,150,0,50,0,-1,-1,91,-40,2056,155,116,134,106,1,8,0,1,1,-0.02486837916411505,-0.04594704210186289,4.395728721884933,0,0,0,0,0,0,0,0,-1,-1,"",""
124,111604060,0,0,0,0,0,0,0,0,0,0,0,0,1000,150,0,50,-1,-1,-1,91,-39,2056,140,109,126,106,1,8,0,1,1,-0.02484094158239618,-0.04595817058787324,4.39575396293244,0,0,0,0,0,0,0,-1,-1,-1,"",""
125,111605547,0,0,0,0,0,0,0,0,0,0,0,0,1000,150,0,50,-1,-1,-1,91,-38,2056,135,109,118,106,1,8,0,1,1,-0.024809930791511944,-0.04596938588582267,4.39577927312305,0,0,0,0,0,0,0,-1,-1,-1,"",""
126,111607041,0,0,0,0,0,0,0,0,0,0,0,0,1000,150,0,50,-1,-1,-1,93,-37,2056,147,111,127,106,1,8,0,1,1,-0.024775477867472723,-0.04598916166236201,4.395804703611148,0,0,0,0,0,0,0,-1,-1,-1,"",""
127,111608533,0,0,0,0,0,0,0,0,0,0,0,0,1000,150,0,50,-1,-1,-1,93,-36,2055,136,108,122,106,1,8,0,1,1,-0.02473761606016629,-0.0460089761806863,4.395830101719994,0,0,0,0,0,0,0,-1,-1,-1,"",""
128,111610018,0,0,0,0,0,0,0,0,0,0,0,0,1000,150,0,50,-1,-1,0,93,-35,2055,128,106,111,98,1,8,0,1,1,-0.024697417841463485,-0.04602791191033484,4.395829444834133,0,0,0,0,0,0,0,-1,-1,0,"",""
129,111611503,0,0,0,0,0,0,0,0,0,0,0,0,1000,150,0,50,-1,-1,0,92,-35,2055,128,105,116,98,1,8,0,1,1,-0.02465801353201195,-0.04604261012523306,4.395828790992943,0,0,0,0,0,0,0,-1,-1,0,"",""
130,111612982,0,0,0,0,0,0,0,0,0,0,0,0,1000,150,0,50,-1,0,0,91,-35,2055,125,109,117,98,1,8,0,1,1,-0.024619251919738797,-0.046027472330096006,4.395828778823127,0,0,0,0,0,0,0,-1,0,0,"",""
131,111614468,0,0,0,0,0,0,0,0,0,0,0,0,1000,150,0,50,0,0,0,91,-35,2054,126,115,115,98,1,8,0,1,1,-0.024555752558845463,-0.04601275031000759,4.395828766853607,0,0,0,0,0,0,0,0,0,0,"",""
132,111615964,0,0,0,0,0,0,0,0,0,0,0,0,1000,150,22,50,0,0,0,90,-36,2053,127,114,119,98,1,8,0,1,1,-0.02449735311611454,-0.04599438848322584,4.3958287559937785,0,0,0,0,0,0,0,0,0,0,"",""
133,111617455,0,0,0,0,0,0,0,0,0,0,0,0,1000,150,22,50,-1,0,0,89,-37,2053,104,107,109,98,1,8,0,1,1,-0.024469652203411872,-0.045972280075874235,4.395828746163249,0,0,0,0,0,0,0,-1,0,0,"",""
134,111618939,0,0,0,0,0,0,0,0,0,0,0,0,1000,150,22,50,-1,0,0,89,-38,2053,106,107,111,98,1,8,0,1,1,-0.02444640549898692,-0.045950493426885085,4.395828737218791,0,0,0,0,0,0,0,-1,0,0,"",""
135,111620422,0,0,0,0,0,0,0,0,0,0,0,0,1000,150,22,50,-1,0,0,90,-38,2052,116,114,113,98,1,8,0,1,1,-0.02442374751817804,-0.04593317080983084,4.395828728258949,0,0,0,0,0,0,0,-1,0,0,"",""
136,111621904,0,0,0,0,0,0,0,0,0,0,0,0,1000,150,22,50,-1,0,0,90,-39,2052,103,112,106,98,1,8,0,1,1,-0.024405512886008805,-0.04591609560488006,4.395828720160442,0,0,0,0,0,0,0,-1,0,0,"",""
137,111623385,0,0,0,0,0,0,0,0,0,0,0,0,1000,150,22,50,-1,1,0,91,-40,2052,98,111,101,98,1,8,0,1,1,-0.02439158000155534,-0.04587754184842546,4.395829343864116,0,0,0,0,0,0,0,-1,1,0,"",""
138,111624882,0,0,0,0,0,0,0,0,0,0,0,0,1000,150,22,50,-1,1,0,92,-42,2051,116,118,111,98,1,8,0,1,1,-0.02438617097293932,-0.04584315680153259,4.395829974904579,0,0,0,0,0,0,0,-1,1,0,"",""
139,111626371,0,0,0,0,0,0,0,0,0,0,0,0,1000,150,22,50,-1,1,0,93,-43,2051,111,118,107,98,1,8,0,1,1,-0.024384734523151312,-0.04581309375725904,4.395830602565769,0,0,0,0,0,0,0,-1,1,0,"",""
140,111627860,0,0,0,0,0,0,0,0,0,0,0,0,1000,150,22,50,-1,1,0,95,-44,2051,100,114,102,98,1,8,0,1,1,-0.024387326028394794,-0.04579096664527705,4.395831230443064,0,0,0,0,0,0,0,-1,1,0,"",""
141,111629343,0,0,0,0,0,0,0,0,0,0,0,0,1000,150,22,50,-1,1,0,97,-45,2051,121,118,115,98,1,8,0,1,1,-0.024393759957060647,-0.04577671883719183,4.395831856270058,0,0,0,0,0,0,0,-1,1,0,"",""
142,111630921,0,0,0,0,0,0,0,0,0,0,0,0,1000,150,22,50,-1,1,0,98,-45,2050,116,117,111,98,1,8,0,1,1,-0.024401999025810077,-0.045764831207814896,4.395832522233539,0,0,0,0,0,0,0,-1,1,0,"",""
143,111632421,0,0,0,0,0,0,0,0,0,0,0,0,1000,150,22,50,0,1,0,100,-46,2050,111,118,107,98,1,8,0,1,1,-0.024386740456974764,-0.04576182351179982,4.39583315521457,0,0,0,0,0,0,0,0,1,0,"",""
144,111634056,0,0,0,0,0,0,0,0,0,0,0,0,1000,150,22,50,-1,1,0,100,-46,2050,118,115,115,98,1,8,0,1,1,-0.024400005250351027,-0.045756361621048264,4.395833845689397,0,0,0,0,0,0,0,-1,1,0,"",""
145,111635687,0,0,0,0,0,0,0,0,0,0,0,0,1000,150,22,50,0,1,0,101,-47,2050,118,115,111,98,1,8,0,1,1,-0.02438867219690606,-0.04575459151191788,4.395834535197334,0,0,0,0,0,0,0,0,1,0,"",""
146,111637178,0,0,0,0,0,0,0,0,0,0,0,0,1000,150,22,50,0,1,0,102,-47,2050,118,117,111,98,1,8,0,1,1,-0.02437749532323086,-0.04575880123940261,4.395835164403972,0,0,0,0,0,0,0,0,1,0,"",""
147,111638662,0,0,0,0,0,0,0,0,0,0,0,0,1000,150,22,50,0,1,0,103,-48,2050,124,116,118,98,1,8,0,1,1,-0.024370154790680797,-0.04576659689684238,4.3958357918176745,0,0,0,0,0,0,0,0,1,0,"",""
148,111640152,0,0,0,0,0,0,0,0,0,0,0,0,1000,150,22,50,0,1,0,103,-48,2050,121,113,115,98,1,8,0,1,1,-0.024362912185252713,-0.04577403251376894,4.395836421463821,0,0,0,0,0,0,0,0,1,0,"",""
149,111641643,0,0,0,0,0,0,0,0,0,0,0,0,1000,150,22,50,0,1,0,103,-48,2050,132,119,119,98,1,8,0,1,1,-0.02435576566006801,-0.04578120066839613,4.395837051219116,0,0,0,0,0,0,0,0,1,0,"",""
150,111643129,0,0,0,0,0,0,0,0,0,0,0,0,1000,150,22,50,0,1,0,103,-49,2050,137,118,125,98,1,8,0,1,1,-0.024352335306983986,-0.045788206435710806,4.395837680587074,0,0,0,0,0,0,0,0,1,0,"",""
151,111644676,0,0,0,0,0,0,0,0,0,0,0,0,1000,150,22,50,0,1,0,104,-49,2049,125,114,115,98,1,8,0,1,1,-0.02434903631622695,-0.04579767445153825,4.39583833569873,0,0,0,0,0,0,0,0,1,0,"",""
152,111646176,0,0,0,0,0,0,0,0,0,0,0,0,1000,150,22,50,0,1,0,104,-50,2049,126,115,117,98,1,8,0,1,1,-0.02434936167588956,-0.04580767560246138,4.395838972895556,0,0,0,0,0,0,0,0,1,0,"",""
153,111647664,0,0,0,0,0,0,0,0,0,0,0,0,1000,150,22,50,0,0,0,106,-51,2050,135,118,124,98,1,8,0,1,1,-0.024353185344561046,-0.04585032156153065,4.395838973983607,0,0,0,0,0,0,0,0,0,0,"",""
154,111649150,0,0,0,0,0,0,0,0,0,0,0,0,1000,150,22,50,0,1,0,107,-51,2050,120,112,117,98,1,8,0,1,1,-0.024356931039432424,-0.04587021298644498,4.395839607259681,0,0,0,0,0,0,0,0,1,0,"",""
155,111650635,0,0,0,0,0,0,0,0,0,0,0,0,1000,150,22,50,0,1,0,108,-52,2050,125,116,117,98,1,8,0,1,1,-0.02436414938875234,-0.04589323328310073,4.39584024254289,0,0,0,0,0,0,0,0,1,0,"",""
156,111652124,0,0,0,0,0,0,0,0,0,0,0,0,1000,150,22,50,0,0,0,108,-53,2050,139,120,128,98,1,8,0,1,1,-0.024374805856258036,-0.045941538019683745,4.395840248243335,0,0,0,0,0,0,0,0,0,0,"",""
157,111653614,0,0,0,0,0,0,0,0,0,0,0,0,1000,150,22,50,0,0,0,109,-55,2051,130,119,122,98,1,8,0,1,1,-0.024392206862182603,-0.04599254041522751,4.395840258387287,0,0,0,0,0,0,0,0,0,0,"",""
158,111655101,0,0,0,0,0,0,0,0,0,0,0,0,1000,150,22,50,0,0,0,110,-56,2051,132,119,122,98,1,8,0,1,1,-0.024412852357045996,-0.04604635482685547,4.395840270622462,0,0,0,0,0,0,0,0,0,0,"",""
159,111656587,0,0,0,0,0,0,0,0,0,0,0,0,1000,150,0,50,0,0,0,110,-57,2052,145,121,132,98,1,8,0,1,1,-0.02443660024216302,-0.04609933476072857,4.395840284963285,0,0,0,0,0,0,0,0,0,0,"",""
160,111658069,0,0,0,0,0,0,0,0,0,0,0,0,1000,150,0,50,0,0,0,110,-58,2052,128,110,119,89,1,8,0,1,1,-0.024463479073010795,-0.046151652865258984,4.395840301423951,0,0,0,0,0,0,0,0,0,0,"",""
161,111659556,0,0,0,0,0,0,0,0,0,0,0,0,1000,150,0,50,0,0,0,110,-58,2052,131,112,119,89,1,8,0,1,1,-0.024490026250351776,-0.046203325144386694,4.395840317680325,0,0,0,0,0,0,0,0,0,0,"",""
162,111661045,0,0,0,0,0,0,0,0,0,0,0,0,1000,150,0,50,0,0,0,109,-59,2052,143,109,130,89,1,8,0,1,1,-0.024519637207357652,-0.04625097643372691,4.395840336113408,0,0,0,0,0,0,0,0,0,0,"",""
163,111662534,0,0,0,0,0,0,0,0,0,0,0,0,1000,150,0,50,0,0,0,109,-59,2052,133,108,122,89,1,8,0,1,1,-0.02454888716778188,-0.04629804654494741,4.395840354320972,0,0,0,0,0,0,0,0,0,0,"",""
164,111664035,0,0,0,0,0,0,0,0,0,0,0,0,1000,150,0,50,0,0,0,109,-59,2053,131,109,119,89,1,8,0,1,1,-0.024577700206304103,-0.04634439077113947,4.395840372256473,0,0,0,0,0,0,0,0,0,0,"",""
165,111665521,0,0,0,0,0,0,0,0,0,0,0,0,1000,150,0,50,0,-1,0,109,-60,2053,145,106,133,89,1,8,0,1,1,-0.024609531759823184,-0.04641592231770833,4.395839753334167,0,0,0,0,0,0,0,0,-1,0,"",""
166,111667010,0,0,0,0,0,0,0,0,0,0,0,0,1000,150,0,50,0,-1,0,109,-60,2053,136,105,124,89,1,8,0,1,1,-0.024640982205752775,-0.04648678225960155,4.395839131250515,0,0,0,0,0,0,0,0,-1,0,"",""
167,111668636,0,0,0,0,0,0,0,0,0,0,0,0,1000,150,0,50,0,-1,0,109,-60,2054,136,110,120,89,1,8,0,1,1,-0.024671979490842665,-0.046559151614232734,4.39583844823273,0,0,0,0,0,0,0,0,-1,0,"",""
168,111670263,0,0,0,0,0,0,0,0,0,0,0,0,1000,150,0,50,0,-1,0,109,-60,2054,147,107,135,89,1,8,0,1,1,-0.024702609761422894,-0.04663082500901063,4.395837762834448,0,0,0,0,0,0,0,0,-1,0,"",""
169,111671756,0,0,0,0,0,0,0,0,0,0,0,0,1000,150,0,50,0,-1,0,109,-60,2054,134,107,124,89,1,8,0,1,1,-0.024732876758443698,-0.04669947507508864,4.3958371334211686,0,0,0,0,0,0,0,0,-1,0,"",""
170,111673243,0,0,0,0,0,0,0,0,0,0,0,0,1000,150,0,50,0,-1,1,109,-60,2055,136,114,124,89,1,8,0,1,1,-0.02476391384785882,-0.046766558266514505,4.395810531332738,0,0,0,0,0,0,0,0,-1,1,"",""
171,111674730,0,0,0,0,0,0,0,0,0,0,0,0,1000,150,0,50,0,-1,1,109,-60,2055,141,114,133,89,1,8,0,1,1,-0.024794597293877764,-0.046832985097733905,4.395783927415745,0,0,0,0,0,0,0,0,-1,1,"",""
172,111676217,0,0,0,0,0,0,0,0,0,0,0,0,1000,150,0,50,0,-1,1,110,-59,2055,124,112,122,89,1,8,0,1,1,-0.02482171327507129,-0.046901984363739185,4.3957573201082525,0,0,0,0,0,0,0,0,-1,1,"",""
173,111677722,0,0,0,0,0,0,0,0,0,0,0,0,1000,150,0,50,0,-1,1,111,-59,2056,130,119,124,89,1,8,0,1,1,-0.024848460249723956,-0.04697366436900092,4.395730388840267,0,0,0,0,0,0,0,0,-1,1,"",""
174,111679216,0,0,0,0,0,0,0,0,0,0,0,0,1000,150,0,50,0,-1,1,112,-58,2056,133,119,131,89,1,8,0,1,1,-0.024871711264591933,-0.04704764726832318,4.395703651481656,0,0,0,0,0,0,0,0,-1,1,"",""
175,111680705,0,0,0,0,0,0,0,0,0,0,0,0,1000,150,0,50,0,0,1,113,-57,2057,113,116,120,89,1,8,0,1,1,-0.024891418465969616,-0.0470980361591794,4.395677648412191,0,0,0,0,0,0,0,0,0,1,"",""
176,111682192,0,0,0,0,0,0,0,0,0,0,0,0,1000,150,0,50,0,0,1,114,-57,2057,122,119,125,89,1,8,0,1,1,-0.02491090772730295,-0.04715100183973402,4.3956516799838345,0,0,0,0,0,0,0,0,0,1,"",""
177,111683677,0,0,0,0,0,0,0,0,0,0,0,0,1000,150,0,50,0,-1,1,115,-56,2058,124,117,134,89,1,8,0,1,1,-0.02492699317260924,-0.047232101165813084,4.395625098162268,0,0,0,0,0,0,0,0,-1,1,"",""
178,111685167,0,0,0,0,0,0,0,0,0,0,0,0,1000,150,0,50,0,0,2,115,-55,2058,113,120,123,89,1,8,0,1,1,-0.02494097302836407,-0.04728602461649502,4.395573047518246,0,0,0,0,0,0,0,0,0,2,"",""
179,111686652,0,0,0,0,0,0,0,0,0,0,0,0,1000,150,0,50,0,0,1,116,-55,2059,118,122,126,89,1,8,0,1,1,-0.024953507205156558,-0.047342944718152924,4.395547110252161,0,0,0,0,0,0,0,0,0,1,"",""
180,111688137,0,0,0,0,0,0,0,0,0,0,0,0,1000,150,0,50,0,0,1,117,-55,2060,119,116,133,89,1,8,0,1,1,-0.02496583206099766,-0.04740217382172677,4.395521172669046,0,0,0,0,0,0,0,0,0,1,"",""
181,111689628,0,0,0,0,0,0,0,0,0,0,0,0,1000,150,0,50,0,0,1,118,-55,2060,110,120,120,89,1,8,0,1,1,-0.024978032903234287,-0.047463818925558676,4.395495129980153,0,0,0,0,0,0,0,0,0,1,"",""
182,111691161,0,0,0,0,0,0,0,0,0,0,0,0,1000,150,0,50,0,0,1,118,-55,2061,122,124,123,89,1,8,0,1,1,-0.024990064842154307,-0.047524618715438546,4.395468353471178,0,0,0,0,0,0,0,0,0,1,"",""
183,111692645,0,0,0,0,0,0,0,0,0,0,0,0,1000,150,0,50,0,0,1,119,-55,2061,116,114,123,89,1,8,0,1,1,-0.02500193223690285,-0.04758781907406938,4.395442432562304,0,0,0,0,0,0,0,0,0,1,"",""
184,111694126,0,0,0,0,0,0,0,0,0,0,0,0,1000,150,0,50,0,0,1,119,-55,2061,110,113,112,89,1,8,0,1,1,-0.02501367529921416,-0.04765032917470415,4.3954165638966085,0,0,0,0,0,0,0,0,0,1,"",""
185,111695607,0,0,0,0,0,0,0,0,0,0,0,0,1000,150,0,50,0,0,0,119,-55,2061,119,114,113,89,1,8,0,1,1,-0.025024073945700394,-0.04771280133521292,4.395416564751014,0,0,0,0,0,0,0,0,0,0,"",""
186,111697098,0,0,0,0,0,0,0,0,0,0,0,0,1000,150,0,50,0,0,0,119,-55,2061,117,106,111,89,1,8,0,1,1,-0.02503436060228566,-0.04777460031993791,4.395416565592255,0,0,0,0,0,0,0,0,0,0,"",""
187,111698584,0,0,0,0,0,0,0,0,0,0,0,0,1000,150,0,50,0,0,0,119,-55,2061,107,102,97,89,1,8,0,1,1,-0.025044537054383167,-0.04783573686659133,4.395416566420603,0,0,0,0,0,0,0,0,0,0,"",""
188,111700069,0,0,0,0,0,0,0,0,0,0,0,0,1000,150,0,50,0,0,-1,120,-56,2062,113,99,98,89,1,8,0,1,1,-0.02505628288513204,-0.04789969964037589,4.395442507986776,0,0,0,0,0,0,0,0,0,-1,"",""
189,111701554,0,0,0,0,0,0,0,0,0,0,0,0,1000,150,0,50,0,0,-1,120,-56,2062,113,93,97,89,1,8,0,1,1,-0.02506789690783878,-0.047962986683738044,4.395468449674336,0,0,0,0,0,0,0,0,0,-1,"",""
190,111703047,0,0,0,0,0,0,0,0,0,0,0,0,1000,150,0,50,0,1,-1,120,-57,2062,111,101,89,96,1,8,0,1,1,-0.025082302845976907,-0.04799971806547,4.395495186643271,0,0,0,0,0,0,0,0,1,-1,"",""
191,111704718,0,0,0,0,0,0,0,0,0,0,0,0,1000,150,0,50,0,1,-1,121,-57,2062,112,95,89,92,1,8,0,1,1,-0.025096399011352653,-0.048035882009355546,4.3955251116612635,0,0,0,0,0,0,0,0,1,-1,"",""
192,111706343,0,0,0,0,0,0,0,0,0,0,0,0,1000,150,0,50,0,1,-1,121,-57,2063,128,105,103,105,1,8,0,1,1,-0.025110306107138842,-0.04807218029296684,4.395554213878669,0,0,0,0,0,0,0,0,1,-1,"",""
193,111707833,0,0,0,0,0,0,0,0,0,0,0,0,1000,150,0,50,0,1,-1,121,-57,2063,128,116,103,115,1,8,0,1,1,-0.025124176723253833,-0.04811026280382415,4.395580899549928,0,0,0,0,0,0,0,0,1,-1,"",""
194,111709318,0,0,0,0,0,0,0,0,0,0,0,0,1000,150,0,50,0,1,-1,121,-56,2063,130,115,103,114,1,8,0,1,1,-0.025134994250147303,-0.04814792925584117,4.395607494975765,0,0,0,0,0,0,0,0,1,-1,"",""
195,111710799,0,0,0,0,0,0,0,0,0,0,0,0,1000,150,0,50,0,1,-1,121,-56,2063,130,107,103,108,1,8,0,1,1,-0.025145697290309757,-0.048185166450130316,4.3956340194346115,0,0,0,0,0,0,0,0,1,-1,"",""
196,111712287,0,0,0,0,0,0,0,0,0,0,0,0,1000,150,0,50,0,1,-1,120,-56,2062,132,116,103,115,1,8,0,1,1,-0.02515635073281716,-0.04821905798916995,4.395660670049366,0,0,0,0,0,0,0,0,1,-1,"",""
197,111713769,0,0,0,0,0,0,0,0,0,0,0,0,1000,150,0,50,0,1,-1,120,-56,2062,137,115,103,111,1,8,0,1,1,-0.025166894394538737,-0.048252597790931044,4.395687213857073,0,0,0,0,0,0,0,0,1,-1,"",""
198,111715335,0,0,0,0,0,0,0,0,0,0,0,0,1000,150,0,50,0,1,-1,121,-56,2062,137,107,103,105,1,8,0,1,1,-0.025177252793141532,-0.04828712247864801,4.395715262458448,0,0,0,0,0,0,0,0,1,-1,"",""
199,111716836,0,0,0,0,0,0,0,0,0,0,0,0,1000,150,0,50,0,1,-2,121,-56,2062,141,110,103,107,1,8,0,1,1,-0.0251862983224446,-0.04832294128872333,4.395768367382548,0,0,0,0,0,0,0,0,1,-2,"",""
200,111718324,0,0,0,0,0,0,0,0,0,0,0,0,1000,150,0,50,0,1,-2,121,-55,2062,141,109,103,106,1,8,0,1,1,-0.025192428665747987,-0.04835851412047525,4.39582101120965,0,0,0,0,0,0,0,0,1,-2,"",""
201,111719809,0,0,0,0,0,0,0,0,0,0,0,0,1000,150,0,50,0,1,-2,122,-54,2062,144,105,105,103,1,8,0,1,1,-0.025195668410112955,-0.04839649809248421,4.395873547423438,0,0,0,0,0,0,0,0,1,-2,"",""
202,111721295,0,0,0,0,0,0,0,0,0,0,0,0,1000,150,0,50,0,1,-2,123,-53,2062,139,105,103,105,1,8,0,1,1,-0.02519605144148192,-0.04843679401156659,4.395926117364529,0,0,0,0,0,0,0,0,1,-2,"",""
203,111722778,0,0,0,0,0,0,0,0,0,0,0,0,1000,150,0,50,0,1,-1,123,-52,2063,139,103,103,103,1,8,0,1,1,-0.02519480035382128,-0.04847585872576202,4.3959526739267885,0,0,0,0,0,0,0,0,1,-1,"",""
204,111724270,0,0,0,0,0,0,0,0,0,0,0,0,1000,150,0,50,0,0,-1,124,-51,2063,147,105,109,103,1,8,0,1,1,-0.02519079124284281,-0.04854294992645936,4.395978732882212,0,0,0,0,0,0,0,0,0,-1,"",""
205,111725756,0,0,0,0,0,0,0,0,0,0,0,0,1000,150,0,50,0,0,-1,125,-50,2063,142,108,104,103,1,8,0,1,1,-0.025184043706320155,-0.04861215654550414,4.3960046851009364,0,0,0,0,0,0,0,0,0,-1,"",""
206,111727239,0,0,0,0,0,0,0,0,0,0,0,0,1000,150,0,50,0,0,-1,126,-48,2063,144,105,111,103,1,8,0,1,1,-0.025171828327383485,-0.04868345439023162,4.396030580965664,0,0,0,0,0,0,0,0,0,-1,"",""
207,111728727,0,0,0,0,0,0,0,0,0,0,0,0,1000,150,0,50,0,0,-1,127,-47,2064,148,106,116,103,1,8,0,1,1,-0.025156897617914255,-0.04875668109270848,4.396056562304701,0,0,0,0,0,0,0,0,0,-1,"",""
208,111730214,0,0,0,0,0,0,0,0,0,0,0,0,1000,150,0,50,0,0,-1,128,-46,2064,140,111,109,103,1,8,0,1,1,-0.02513936268450734,-0.04883194113595336,4.396082524397334,0,0,0,0,0,0,0,0,0,-1,"",""
209,111731730,0,0,0,0,0,0,0,0,0,0,0,0,1000,150,0,50,0,0,-1,129,-45,2065,146,110,120,103,1,8,0,1,1,-0.02511916474884068,-0.04890908691485225,4.396108991295145,0,0,0,0,0,0,0,0,0,-1,"",""
210,111733220,0,0,0,0,0,0,0,0,0,0,0,0,1000,150,0,50,0,0,-1,129,-45,2066,147,112,122,103,1,8,0,1,1,-0.02509910703858063,-0.04898535033907778,4.396135004334351,0,0,0,0,0,0,0,0,0,-1,"",""
211,111734708,0,0,0,0,0,0,0,0,0,0,0,0,1000,150,0,50,0,0,0,129,-45,2066,145,116,121,103,1,8,0,1,1,-0.025080501183574803,-0.04906023823263442,4.396134989189827,0,0,0,0,0,0,0,0,0,0,"",""
212,111736192,0,0,0,0,0,0,0,0,0,0,0,0,1000,150,0,50,0,0,0,128,-45,2066,150,119,127,103,1,8,0,1,1,-0.02506207213071337,-0.049131720244190435,4.396134974234283,0,0,0,0,0,0,0,0,0,0,"",""
213,111737765,0,0,0,0,0,0,0,0,0,0,0,0,1000,150,0,50,0,0,0,126,-45,2066,153,118,134,103,1,8,0,1,1,-0.0250438173970239,-0.04919715925032576,4.3961349595121915,0,0,0,0,0,0,0,0,0,0,"",""
214,111739263,0,0,0,0,0,0,0,0,0,0,0,0,1000,150,0,50,0,0,0,124,-44,2066,141,116,129,103,1,8,0,1,1,-0.025023056137805748,-0.04925663946062633,4.396134943028202,0,0,0,0,0,0,0,0,0,0,"",""
215,111740924,0,0,0,0,0,0,0,0,0,0,0,0,1000,150,0,50,0,0,0,122,-43,2066,150,122,135,103,1,8,0,1,1,-0.02499982139437987,-0.04931024023662278,4.39613492480593,0,0,0,0,0,0,0,0,0,0,"",""
216,111742553,0,0,0,0,0,0,0,0,0,0,0,0,1000,150,0,50,0,-1,0,120,-42,2065,152,122,140,103,1,8,0,1,1,-0.024974246844028557,-0.04938643682269187,4.3961341940731495,0,0,0,0,0,0,0,0,-1,0,"",""
217,111744045,0,0,0,0,0,0,0,0,0,0,0,0,1000,150,0,50,0,0,0,118,-41,2065,145,124,136,103,1,8,0,1,1,-0.024946227224404552,-0.049428486234615,4.396134173288292,0,0,0,0,0,0,0,0,0,0,"",""
218,111745533,0,0,0,0,0,0,0,0,0,0,0,0,1000,150,0,50,0,-1,1,117,-40,2065,148,128,139,103,1,8,0,1,1,-0.024917138697684284,-0.04949269463868186,4.396107508779456,0,0,0,0,0,0,0,0,-1,1,"",""
219,111747020,0,0,0,0,0,0,0,0,0,0,0,0,1000,150,0,50,0,-1,1,117,-40,2065,153,129,147,103,1,8,0,1,1,-0.02488832350561868,-0.04955639139212257,4.396080863736951,0,0,0,0,0,0,0,0,-1,1,"",""
220,111748506,0,0,0,0,0,0,0,0,0,0,0,0,1000,150,0,50,0,-1,1,117,-41,2065,146,132,144,103,1,8,0,1,1,-0.024862395814270882,-0.049619579991947056,4.396054239812053,0,0,0,0,0,0,0,0,-1,1,"",""
221,111750004,0,0,0,0,0,0,0,0,0,0,0,0,1000,150,0,50,0,-1,1,117,-41,2065,147,135,148,103,1,8,0,1,1,-0.024836721699515445,-0.04968249021420787,4.396027402416638,0,0,0,0,0,0,0,0,-1,1,"",""
222,111751494,0,0,0,0,0,0,0,0,0,0,0,0,1000,150,0,50,0,-1,2,117,-42,2065,145,137,153,103,1,8,0,1,1,-0.024815165002933938,-0.0497441433129612,4.395974681533075,0,0,0,0,0,0,0,0,-1,2,"",""
223,111752979,0,0,0,0,0,0,0,0,0,0,0,0,1000,150,0,50,0,-1,2,116,-43,2065,141,139,154,103,1,8,0,1,1,-0.024796396133928346,-0.04980266229287727,4.39592214004582,0,0,0,0,0,0,0,0,-1,2,"",""
224,111754467,0,0,0,0,0,0,0,0,0,0,0,0,1000,150,0,50,0,-1,2,115,-43,2065,128,128,145,90,1,8,0,1,1,-0.024777814060655007,-0.04985822150875321,4.3958694933781155,0,0,0,0,0,0,0,0,-1,2,"",""
225,111755948,0,0,0,0,0,0,0,0,0,0,0,0,1000,150,0,50,0,-1,2,113,-43,2065,126,129,148,90,1,8,0,1,1,-0.02475939866250889,-0.04990812960103682,4.395817095346486,0,0,0,0,0,0,0,0,-1,2,"",""
226,111757434,0,0,0,0,0,0,0,0,0,0,0,0,1000,150,0,50,0,-1,3,112,-43,2065,120,130,147,90,1,8,0,1,1,-0.02474245726777448,-0.04995457111256048,4.395738561375787,0,0,0,0,0,0,0,0,-1,3,"",""
227,111758920,0,0,0,0,0,0,0,0,0,0,0,0,1000,150,0,50,0,-1,3,110,-43,2065,116,129,146,90,1,8,0,1,1,-0.024725684141565615,-0.04999559639519614,4.395660028344723,0,0,0,0,0,0,0,0,-1,3,"",""
228,111760407,0,0,0,0,0,0,0,0,0,0,0,0,1000,150,0,50,0,0,3,109,-44,2065,124,138,146,90,1,8,0,1,1,-0.02471158757104639,-0.050008013741464095,4.3955820865440485,0,0,0,0,0,0,0,0,0,3,"",""
229,111761898,0,0,0,0,0,0,0,0,0,0,0,0,1000,150,0,50,0,0,2,108,-44,2065,117,134,141,90,1,8,0,1,1,-0.024696345314628467,-0.050018422890130323,4.395529982637957,0,0,0,0,0,0,0,0,0,2,"",""
230,111763383,0,0,0,0,0,0,0,0,0,0,0,0,1000,150,0,50,0,0,2,107,-45,2065,113,127,137,90,1,8,0,1,1,-0.02468376024968897,-0.050026220388296204,4.395478089660178,0,0,0,0,0,0,0,0,0,2,"",""
231,111764869,0,0,0,0,0,0,0,0,0,0,0,0,1000,150,0,50,0,0,2,105,-46,2065,109,122,130,90,1,8,0,1,1,-0.02467381161614868,-0.05002892262098096,4.395426163181113,0,0,0,0,0,0,0,0,0,2,"",""
232,111766349,0,0,0,0,0,0,0,0,0,0,0,0,1000,150,0,50,0,0,1,104,-47,2064,106,117,122,90,1,8,0,1,1,-0.02466523027160656,-0.05002985779741744,4.395400303061298,0,0,0,0,0,0,0,0,0,1,"",""
233,111767870,0,0,0,0,0,0,0,0,0,0,0,0,1000,150,0,50,0,0,1,104,-48,2064,109,114,120,90,1,8,0,1,1,-0.024659260961424567,-0.050030762228333754,4.395373727884711,0,0,0,0,0,0,0,0,0,1,"",""
234,111769359,0,0,0,0,0,0,0,0,0,0,0,0,1000,150,0,50,0,0,0,104,-49,2064,102,105,110,90,1,8,0,1,1,-0.024654514622634557,-0.05003230487396817,4.395373725548317,0,0,0,0,0,0,0,0,0,0,"",""
235,111770842,0,0,0,0,0,0,0,0,0,0,0,0,1000,150,0,50,0,0,0,104,-50,2064,105,103,105,90,1,8,0,1,1,-0.024652289275719184,-0.050033831218048525,4.395373724407805,0,0,0,0,0,0,0,0,0,0,"",""
236,111772327,0,0,0,0,0,0,0,0,0,0,0,0,1000,150,0,50,0,0,0,105,-49,2064,115,103,104,90,1,8,0,1,1,-0.024647611267365435,-0.05003781381035278,4.395373721966833,0,0,0,0,0,0,0,0,0,0,"",""
237,111773824,0,0,0,0,0,0,0,0,0,0,0,0,1000,150,0,50,0,0,-1,105,-49,2064,112,96,99,90,1,8,0,1,1,-0.024641671680447265,-0.05004240310872626,4.395399871935125,0,0,0,0,0,0,0,0,0,-1,"",""
238,111775449,0,0,0,0,0,0,0,0,0,0,0,0,1000,150,0,50,0,0,-1,106,-49,2064,108,93,90,90,1,8,0,1,1,-0.024635666596189962,-0.050049459698822255,4.395428257958002,0,0,0,0,0,0,0,0,0,-1,"",""
239,111777074,0,0,0,0,0,0,0,0,0,0,0,0,1000,150,0,50,0,0,-1,107,-49,2064,115,90,90,90,1,8,0,1,1,-0.024629707215374705,-0.05005889997729047,4.395456643905184,0,0,0,0,0,0,0,0,0,-1,"",""
240,111778567,0,0,0,0,0,0,0,0,0,0,0,0,1000,150,0,50,0,0,-2,107,-49,2064,120,91,90,94,1,8,0,1,1,-0.02462260914277335,-0.05006884502005634,4.395508806440381,0,0,0,0,0,0,0,0,0,-2,"",""
241,111780057,0,0,0,0,0,0,0,0,0,0,0,0,1000,150,0,50,0,1,-2,107,-49,2065,125,98,90,103,1,8,0,1,1,-0.02461547608551255,-0.05005271963502387,4.395561505093087,0,0,0,0,0,0,0,0,1,-2,"",""
242,111781545,0,0,0,0,0,0,0,0,0,0,0,0,1000,150,0,50,0,0,-2,107,-49,2065,128,93,90,101,1,8,0,1,1,-0.024608428649165518,-0.05006251153931841,4.395613492899042,0,0,0,0,0,0,0,0,0,-2,"",""
243,111783027,0,0,0,0,0,0,0,0,0,0,0,0,1000,150,0,50,0,1,-2,106,-50,2064,131,96,90,106,1,8,0,1,1,-0.024603883936926165,-0.05004420090730372,4.395665909597965,0,0,0,0,0,0,0,0,1,-2,"",""
244,111784543,0,0,0,0,0,0,0,0,0,0,0,0,1000,150,0,50,0,1,-2,105,-50,2064,131,100,90,112,1,8,0,1,1,-0.02459930933833085,-0.05002299846814481,4.395719528777545,0,0,0,0,0,0,0,0,1,-2,"",""
245,111786039,0,0,0,0,0,0,0,0,0,0,0,0,1000,150,0,50,0,1,-2,105,-50,2064,130,93,90,106,1,8,0,1,1,-0.02459479993248338,-0.050002217934299174,4.3957724403721095,0,0,0,0,0,0,0,0,1,-2,"",""
246,111787535,0,0,0,0,0,0,0,0,0,0,0,0,1000,150,0,50,-1,1,-2,104,-50,2063,127,101,90,116,1,8,0,1,1,-0.024616360060980755,-0.049979262333455954,4.395825352460725,0,0,0,0,0,0,0,-1,1,-2,"",""
247,111789022,0,0,0,0,0,0,0,0,0,0,0,0,1000,150,0,50,-1,1,-2,104,-49,2063,124,102,90,117,1,8,0,1,1,-0.024635298811114308,-0.049956566167272155,4.3958779451096275,0,0,0,0,0,0,0,-1,1,-2,"",""
248,111790509,0,0,0,0,0,0,0,0,0,0,0,0,1000,150,0,50,-1,1,-2,105,-49,2062,127,95,90,106,1,8,0,1,1,-0.024654218688535234,-0.04993646356459893,4.395930537977888,0,0,0,0,0,0,0,-1,1,-2,"",""
249,111791988,0,0,0,0,0,0,0,0,0,0,0,0,1000,150,0,50,-1,1,-2,106,-49,2062,124,99,90,110,1,8,0,1,1,-0.024672936521418633,-0.049918939149157175,4.395982848081749,0,0,0,0,0,0,0,-1,1,-2,"",""
250,111793477,0,0,0,0,0,0,0,0,0,0,0,0,1000,150,0,50,-1,1,-2,106,-49,2061,123,107,90,115,1,8,0,1,1,-0.024691792936780796,-0.049901431023398335,4.396035512203642,0,0,0,0,0,0,0,-1,1,-2,"",""
251,111794971,0,0,0,0,0,0,0,0,0,0,0,0,1000,150,0,50,-1,1,-2,107,-49,2061,123,92,90,97,1,8,0,1,1,-0.024710651252569663,-0.04988624995829854,4.39608835340765,0,0,0,0,0,0,0,-1,1,-2,"",""
252,111796462,0,0,0,0,0,0,0,0,0,0,0,0,1000,150,0,50,-1,1,-1,108,-50,2061,120,97,90,100,1,8,0,1,1,-0.024733023094576638,-0.04987285809835365,4.396115043183915,0,0,0,0,0,0,0,-1,1,-1,"",""
253,111798036,0,0,0,0,0,0,0,0,0,0,0,0,1000,150,11,50,-1,1,-1,108,-50,2061,119,103,90,102,1,8,0,1,1,-0.0247566627884056,-0.04985808804102439,4.396143219307166,0,0,0,0,0,0,0,-1,1,-1,"",""
254,111799526,0,0,0,0,0,0,0,0,0,0,0,0,1000,150,11,50,0,1,-1,109,-52,2060,127,96,96,90,1,8,0,1,1,-0.024757648669225456,-0.04984720813975545,4.396169895207544,0,0,0,0,0,0,0,0,1,-1,"",""
255,111801011,0,0,0,0,0,0,0,0,0,0,0,0,1000,150,11,50,0,1,-1,109,-53,2060,123,96,97,90,1,8,0,1,1,-0.024760949530456593,-0.04983641687716649,4.396196483579913,0,0,0,0,0,0,0,0,1,-1,"",""
256,111802493,0,0,0,0,0,0,0,0,0,0,0,0,1000,150,11,50,0,1,-1,108,-53,2060,128,107,102,97,1,8,0,1,1,-0.0247642231781842,-0.04982337297248887,4.396223018456008,0,0,0,0,0,0,0,0,1,-1,"",""
257,111804020,0,0,0,0,0,0,0,0,0,0,0,0,1000,150,11,50,0,1,0,108,-54,2059,136,105,117,97,1,8,0,1,1,-0.024771113976919522,-0.049809046565777546,4.396223685077632,0,0,0,0,0,0,0,0,1,0,"",""
258,111805510,0,0,0,0,0,0,0,0,0,0,0,0,1000,150,11,50,0,1,0,107,-54,2058,129,105,114,97,1,8,0,1,1,-0.024778008579654766,-0.049793211296096596,4.396224336079669,0,0,0,0,0,0,0,0,1,0,"",""
259,111806997,0,0,0,0,0,0,0,0,0,0,0,0,1000,150,11,50,0,0,0,106,-54,2057,135,111,119,97,1,8,0,1,1,-0.02478493819774452,-0.04980111966133461,4.396224342198061,0,0,0,0,0,0,0,0,0,0,"",""
260,111808492,0,0,0,0,0,0,0,0,0,0,0,0,1000,150,11,50,0,0,0,104,-55,2055,141,114,129,97,1,8,0,1,1,-0.024794214164548536,-0.04980462786208429,4.3962243504815275,0,0,0,0,0,0,0,0,0,0,"",""
261,111810113,0,0,0,0,0,0,0,0,0,0,0,0,1000,150,11,50,0,0,0,102,-55,2054,136,115,129,97,1,8,0,1,1,-0.02480347510469552,-0.04980367273201375,4.396224358810417,0,0,0,0,0,0,0,0,0,0,"",""
262,111811746,0,0,0,0,0,0,0,0,0,0,0,0,1000,150,11,50,0,0,1,100,-55,2053,141,120,134,97,1,8,0,1,1,-0.024814134850391783,-0.04979759844831742,4.3961958393606775,0,0,0,0,0,0,0,0,0,1,"",""
263,111813281,0,0,0,0,0,0,0,0,0,0,0,0,1000,150,11,50,0,0,1,98,-55,2052,147,122,143,97,1,8,0,1,1,-0.02482468855690861,-0.049787200760553985,4.396169032010135,0,0,0,0,0,0,0,0,0,1,"",""
264,111814772,0,0,0,0,0,0,0,0,0,0,0,0,1000,150,11,50,0,0,1,96,-55,2051,143,125,142,97,1,8,0,1,1,-0.024835183595402724,-0.04977250239070343,4.39614299341666,0,0,0,0,0,0,0,0,0,1,"",""
265,111816261,0,0,0,0,0,0,0,0,0,0,0,0,1000,150,11,50,0,0,1,94,-55,2050,144,127,144,97,1,8,0,1,1,-0.02484565671243647,-0.04975353056333349,4.396116989874338,0,0,0,0,0,0,0,0,0,1,"",""
266,111817743,0,0,0,0,0,0,0,0,0,0,0,0,1000,150,0,50,0,0,1,92,-55,2049,141,125,145,97,1,8,0,1,1,-0.024856103805013487,-0.04973033211130293,4.396091108746624,0,0,0,0,0,0,0,0,0,1,"",""
267,111819222,0,0,0,0,0,0,0,0,0,0,0,0,1000,150,0,50,0,-1,1,90,-55,2049,150,132,150,97,1,8,0,1,1,-0.024866505343309645,-0.04972852511876791,4.396064637508399,0,0,0,0,0,0,0,0,-1,1,"",""
268,111820704,0,0,0,0,0,0,0,0,0,0,0,0,1000,150,0,50,0,-1,1,88,-55,2048,149,132,148,97,1,8,0,1,1,-0.02487689093689547,-0.049722510341308514,4.396038112185359,0,0,0,0,0,0,0,0,-1,1,"",""
269,111822203,0,0,0,0,0,0,0,0,0,0,0,0,1000,150,0,50,0,-1,1,86,-55,2047,140,126,146,97,1,8,0,1,1,-0.024887273179369365,-0.04971256855903209,4.396011282132819,0,0,0,0,0,0,0,0,-1,1,"",""
270,111823691,0,0,0,0,0,0,0,0,0,0,0,0,1000,150,0,50,0,-1,1,84,-55,2046,143,129,149,97,1,8,0,1,1,-0.024897627368248704,-0.04969826745618618,4.395984648685331,0,0,0,0,0,0,0,0,-1,1,"",""
271,111825178,0,0,0,0,0,0,0,0,0,0,0,0,1000,150,0,50,0,-1,2,82,-55,2046,149,133,153,97,1,8,0,1,1,-0.02490919272919408,-0.04967906675038954,4.3959320557302535,0,0,0,0,0,0,0,0,-1,2,"",""
272,111826666,0,0,0,0,0,0,0,0,0,0,0,0,1000,150,0,50,0,-1,2,81,-55,2046,144,131,152,97,1,8,0,1,1,-0.024920680993787307,-0.04965789145871258,4.39587942706244,0,0,0,0,0,0,0,0,-1,2,"",""
273,111828143,0,0,0,0,0,0,0,0,0,0,0,0,1000,150,0,50,0,-1,2,79,-55,2045,144,135,149,97,1,8,0,1,1,-0.02493212678012216,-0.049632476336477604,4.395827187304421,0,0,0,0,0,0,0,0,-1,2,"",""
274,111829626,0,0,0,0,0,0,0,0,0,0,0,0,1000,150,0,50,0,-1,2,78,-54,2045,146,134,152,97,1,8,0,1,1,-0.024941310505690234,-0.049605227569693364,4.395774733473017,0,0,0,0,0,0,0,0,-1,2,"",""
275,111831143,0,0,0,0,0,0,0,0,0,0,0,0,1000,150,0,50,0,-1,2,77,-54,2044,145,135,150,97,1,8,0,1,1,-0.02495054719329072,-0.049576731825858256,4.395721076788714,0,0,0,0,0,0,0,0,-1,2,"",""
276,111832633,0,0,0,0,0,0,0,0,0,0,0,0,1000,150,0,50,0,-1,2,77,-54,2044,146,137,148,97,1,8,0,1,1,-0.02495967553624776,-0.049548067443848674,4.395668374991707,0,0,0,0,0,0,0,0,-1,2,"",""
277,111834119,0,0,0,0,0,0,0,0,0,0,0,0,1000,150,0,50,0,-1,2,77,-55,2043,147,135,150,97,1,8,0,1,1,-0.024970967312228653,-0.04951971786432303,4.3956158158659635,0,0,0,0,0,0,0,0,-1,2,"",""
278,111835605,0,0,0,0,0,0,0,0,0,0,0,0,1000,150,0,50,0,-1,1,77,-55,2043,139,132,145,97,1,8,0,1,1,-0.024980903478641,-0.04949228518297294,4.395589215690884,0,0,0,0,0,0,0,0,-1,1,"",""
279,111837086,0,0,0,0,0,0,0,0,0,0,0,0,1000,150,0,50,0,-1,1,78,-55,2043,145,134,146,97,1,8,0,1,1,-0.024990766728321772,-0.049467194214222104,4.395562704528422,0,0,0,0,0,0,0,0,-1,1,"",""
280,111838575,0,0,0,0,0,0,0,0,0,0,0,0,1000,150,0,50,0,-1,1,77,-55,2043,151,136,146,97,1,8,0,1,1,-0.025000569333037608,-0.049440333672160455,4.395536049804178,0,0,0,0,0,0,0,0,-1,1,"",""
281,111840069,0,0,0,0,0,0,0,0,0,0,0,0,1000,150,0,50,0,-1,1,77,-54,2042,145,132,143,97,1,8,0,1,1,-0.025008210643737396,-0.049413927451497044,4.395509304031937,0,0,0,0,0,0,0,0,-1,1,"",""
282,111841555,0,0,0,0,0,0,0,0,0,0,0,0,1000,150,0,50,0,-1,1,76,-54,2042,136,126,137,97,1,8,0,1,1,-0.02501579346902678,-0.04938550042918563,4.395482701324768,0,0,0,0,0,0,0,0,-1,1,"",""
283,111843037,0,0,0,0,0,0,0,0,0,0,0,0,1000,150,0,50,0,-1,1,75,-53,2042,138,126,135,97,1,8,0,1,1,-0.02502118107174899,-0.04935514180797478,4.39545616905295,0,0,0,0,0,0,0,0,-1,1,"",""
284,111844532,0,0,0,0,0,0,0,0,0,0,0,0,1000,150,0,50,0,-1,1,74,-52,2042,138,123,133,97,1,8,0,1,1,-0.025024409814842337,-0.04932315780183641,4.39542940299139,0,0,0,0,0,0,0,0,-1,1,"",""
285,111846150,0,0,0,0,0,0,0,0,0,0,0,0,1000,150,0,50,0,-1,1,73,-51,2042,130,125,120,97,1,8,0,1,1,-0.025025597515701017,-0.049291428278425774,4.395400433626114,0,0,0,0,0,0,0,0,-1,1,"",""
286,111847779,0,0,0,0,0,0,0,0,0,0,0,0,1000,150,0,50,0,0,0,73,-50,2042,123,116,117,97,1,8,0,1,1,-0.02502323413826405,-0.049232592933646166,4.395400435799884,0,0,0,0,0,0,0,0,0,0,"",""
287,111849282,0,0,0,0,0,0,0,0,0,0,0,0,1000,150,0,50,0,0,0,74,-51,2043,120,111,112,97,1,8,0,1,1,-0.025022952163976847,-0.04917617565739237,4.395400438718173,0,0,0,0,0,0,0,0,0,0,"",""
288,111850769,0,0,0,0,0,0,0,0,0,0,0,0,1000,150,0,50,0,0,0,75,-51,2043,128,121,114,106,1,8,0,1,1,-0.025022672156895746,-0.04912225947836127,4.395400441499405,0,0,0,0,0,0,0,0,0,0,"",""
289,111852253,0,0,0,0,0,0,0,0,0,0,0,0,1000,150,0,50,0,0,0,77,-51,2044,123,119,107,106,1,8,0,1,1,-0.02502234137254465,-0.04907281919907069,4.3954004440157295,0,0,0,0,0,0,0,0,0,0,"",""
290,111853739,0,0,0,0,0,0,0,0,0,0,0,0,1000,150,0,50,0,0,0,78,-52,2044,124,114,109,106,1,8,0,1,1,-0.025024113971790912,-0.04902581568240177,4.395400447286336,0,0,0,0,0,0,0,0,0,0,"",""
291,111855221,0,0,0,0,0,0,0,0,0,0,0,0,1000,150,0,50,0,0,-1,80,-52,2044,125,118,106,109,1,8,0,1,1,-0.02502461103665369,-0.04898396368450212,4.395426339042811,0,0,0,0,0,0,0,0,0,-1,"",""
292,111856705,0,0,0,0,0,0,0,0,0,0,0,0,1000,150,0,50,0,1,-1,82,-53,2045,130,125,106,112,1,8,0,1,1,-0.025027107543042666,-0.04892068735773593,4.395452915181388,0,0,0,0,0,0,0,0,1,-1,"",""
293,111858206,0,0,0,0,0,0,0,0,0,0,0,0,1000,150,0,50,0,1,-1,85,-54,2045,131,122,106,111,1,8,0,1,1,-0.025031654998468083,-0.04886373039270046,4.395479796394177,0,0,0,0,0,0,0,0,1,-1,"",""
294,111859696,0,0,0,0,0,0,0,0,0,0,0,0,1000,150,0,50,0,1,-1,87,-54,2045,129,119,106,113,1,8,0,1,1,-0.0250361789773758,-0.048811433473059045,4.3955064805557695,0,0,0,0,0,0,0,0,1,-1,"",""
295,111861183,0,0,0,0,0,0,0,0,0,0,0,0,1000,150,0,50,0,1,-1,89,-54,2046,133,124,106,115,1,8,0,1,1,-0.0250406207447136,-0.04876351713398061,4.395533110909184,0,0,0,0,0,0,0,0,1,-1,"",""
296,111862666,0,0,0,0,0,0,0,0,0,0,0,0,1000,150,0,50,0,1,-1,91,-54,2046,132,120,106,112,1,8,0,1,1,-0.025045033650701955,-0.04872005824528562,4.395559669584949,0,0,0,0,0,0,0,0,1,-1,"",""
297,111864145,0,0,0,0,0,0,0,0,0,0,0,0,1000,150,0,50,0,1,-1,93,-53,2046,130,122,106,117,1,8,0,1,1,-0.02504735470107108,-0.048681017913233114,4.395586155416464,0,0,0,0,0,0,0,0,1,-1,"",""
298,111865632,0,0,0,0,0,0,0,0,0,0,0,0,1000,150,0,50,0,1,-1,93,-51,2046,134,122,106,113,1,8,0,1,1,-0.025045535006975376,-0.04864204703539936,4.395612782093511,0,0,0,0,0,0,0,0,1,-1,"",""
299,111867127,0,0,0,0,0,0,0,0,0,0,0,0,1000,150,0,50,0,1,-1,94,-50,2046,133,120,106,112,1,8,0,1,1,-0.025041665719828705,-0.048605190081857146,4.395639550521412,0,0,0,0,0,0,0,0,1,-1,"",""
300,111868613,0,0,0,0,0,0,0,0,0,0,0,0,1000,150,0,50,0,1,-1,94,-49,2046,129,120,106,114,1,8,0,1,1,-0.025035780451771225,-0.048568671365258324,4.395666156246749,0,0,0,0,0,0,0,0,1,-1,"",""
301,111870100,0,0,0,0,0,0,0,0,0,0,0,0,1000,150,0,50,0,1,-1,94,-48,2046,134,122,106,110,1,8,0,1,1,-0.02502788916955189,-0.048532319033765176,4.395692778189667,0,0,0,0,0,0,0,0,1,-1,"",""
302,111871587,0,0,0,0,0,0,0,0,0,0,0,0,1000,150,0,50,0,1,-1,94,-48,2046,130,115,106,106,1,8,0,1,1,-0.02502004835055761,-0.048496145836913744,4.3957193997319255,0,0,0,0,0,0,0,0,1,-1,"",""
303,111873065,0,0,0,0,0,0,0,0,0,0,0,0,1000,150,0,50,0,1,0,94,-48,2047,126,121,106,111,1,8,0,1,1,-0.02501346016878688,-0.04845956158474891,4.395720041486072,0,0,0,0,0,0,0,0,1,0,"",""
304,111874552,0,0,0,0,0,0,0,0,0,0,0,0,1000,150,0,50,0,1,0,94,-48,2047,124,118,106,108,1,8,0,1,1,-0.02500691552958392,-0.04842299971655296,4.3957206868576755,0,0,0,0,0,0,0,0,1,0,"",""
305,111876040,0,0,0,0,0,0,0,0,0,0,0,0,1000,150,0,50,0,1,0,95,-48,2047,125,115,109,106,1,8,0,1,1,-0.025000414177196124,-0.04838861609959851,4.395721332276583,0,0,0,0,0,0,0,0,1,0,"",""
306,111877543,0,0,0,0,0,0,0,0,0,0,0,0,1000,150,0,50,0,1,0,95,-47,2048,117,115,106,106,1,8,0,1,1,-0.024991887986418316,-0.04835403973748432,4.395721982276688,0,0,0,0,0,0,0,0,1,0,"",""
307,111879028,0,0,0,0,0,0,0,0,0,0,0,0,1000,150,0,50,0,1,0,96,-47,2048,117,118,106,106,1,8,0,1,1,-0.02498341829438193,-0.04832194719531731,4.395722623936696,0,0,0,0,0,0,0,0,1,0,"",""
308,111880528,0,0,0,0,0,0,0,0,0,0,0,0,1000,150,0,50,0,1,0,97,-47,2048,127,118,117,106,1,8,0,1,1,-0.02497500386376728,-0.04829174417638131,4.395723271669327,0,0,0,0,0,0,0,0,1,0,"",""
309,111882179,0,0,0,0,0,0,0,0,0,0,0,0,1000,150,0,50,0,1,0,98,-47,2049,121,119,112,106,1,8,0,1,1,-0.024966591313122715,-0.04826095275066605,4.395723984756681,0,0,0,0,0,0,0,0,1,0,"",""
310,111883806,0,0,0,0,0,0,0,0,0,0,0,0,1000,150,0,50,0,1,0,99,-46,2049,127,124,118,106,1,8,0,1,1,-0.0249562368656534,-0.0482327049353741,4.39572468503929,0,0,0,0,0,0,0,0,1,0,"",""
311,111885311,0,0,0,0,0,0,0,0,0,0,0,0,1000,150,0,50,0,1,0,100,-46,2049,135,124,125,106,1,8,0,1,1,-0.024945952340172967,-0.04820868053789544,4.395725331544907,0,0,0,0,0,0,0,0,1,0,"",""
