"Product","Blackbox flight data recorder by Nicholas Sherlock"
"firmwareType",3
"firmware","3.3"
"firmwarePatch",3
"firmwareVersion","3.3.3"
"Firmware revision","Betaflight 3.3.3 (a2d5a6482) MATEKF722"
"Firmware date","Apr 16 2020 13:32:09"
"Log start datetime","0000-01-01T00:00:00.000+00:00"
"Craft name","NEUROFLIGHT"
"frameIntervalI",32
"frameIntervalPNum",1
"frameIntervalPDenom",1
"minthrottle",1070
"maxthrottle",2000
"gyroScale",1.7453292519943295e-8
"motorOutput","128,2047"
"acc_1G",2048
"vbatscale",110
"vbatmincellvoltage",33
"vbatwarningcellvoltage",35
"vbatmaxcellvoltage",43
"vbatref",151
"currentMeterOffset",0
"currentMeterScale",179
"looptime",125
"gyro_sync_denom",1
"pid_process_denom",8
"thrMid",50
"thrExpo",0
"dynThrPID",10
"tpa_breakpoint",1650
"rc_rates","100,100,100"
"rc_expo","0,0,0"
"rates","70,70,70"
"rollPID","40,40,30"
"pitchPID","58,50,35"
"yawPID","70,45,20"
"altPID","50,0,0"
"posPID","15,0,0"
"posrPID","34,14,53"
"navrPID","25,33,83"
"levelPID","50,50,75"
"magPID","40,,"
"velPID","55,55,75"
"dterm_filter_type",1
"dterm_lpf_hz",100
"yaw_lpf_hz",0
"dterm_notch_hz",260
"dterm_notch_cutoff",160
"itermWindupPointPercent",50
"vbat_pid_compensation",0
"pidAtMinThrottle",1
"anti_gravity_threshold",350
"anti_gravity_gain",1000
"setpointRelaxRatio",100
"dtermSetpointWeight",0
"yawRateAccelLimit",0.1
"rateAccelLimit",0
"pidSumLimit",500
"pidSumLimitYaw",400
"deadband",0
"yaw_deadband",0
"gyro_lpf",0
"gyro_soft_type",0
"gyro_lowpass_hz",90
"gyro_notch_hz","400,200"
"gyro_notch_cutoff","300,100"
"acc_lpf_hz",1000
"acc_hardware",0
"baro_hardware",0
"mag_hardware",0
"gyro_cal_on_first_arm",0
"rc_interpolation",2
"rc_interpolation_interval",19
"airmode_activate_throttle",32
"serialrx_provider",2
"unsynced_fast_pwm",0
"fast_pwm_protocol",7
"motor_pwm_rate",480
"digitalIdleOffset",400
"debug_mode",0
"features",263176
"loopIteration","time","axisP[0]","axisP[1]","axisP[2]","axisI[0]","axisI[1]","axisI[2]","axisD[0]","axisD[1]","axisD[2]","rcCommand[0]","rcCommand[1]","rcCommand[2]","rcCommand[3]","vbatLatest","amperageLatest","BaroAlt","gyroADC[0]","gyroADC[1]","gyroADC[2]","accSmooth[0]","accSmooth[1]","accSmooth[2]","motor[0]","motor[1]","motor[2]","motor[3]","flightModeFlags","stateFlags","failsafePhase","rxSignalReceived","rxFlightChannelsValid","heading[0]","heading[1]","heading[2]","axisSum[0]","axisSum[1]","axisSum[2]","rcCommands[0]","rcCommands[1]","rcCommands[2]","rcCommands[3]","axisError[0]","axisError[1]","axisError[2]"
0,26586788,0,0,0,0,0,0,0,0,0,0,0,0,1000,150,0,-16,0,0,0,-25,178,2071,128,110,118,94,"","","","","",0.08573810979035146,0.012026541566204292,4.396484385773716,0,0,0,0,0,0,0,0,0,0,"",""
1,26588285,0,0,0,0,0,0,0,0,0,0,0,0,1000,150,0,-16,0,0,0,-25,178,2071,128,109,118,94,1,8,0,1,1,0.08573810979035147,0.012026541566204292,4.396484385773716,0,0,0,0,0,0,0,0,0,0,"",""
2,26589916,0,0,0,0,0,0,0,0,0,0,0,0,1000,150,0,-16,0,0,0,-25,178,2071,128,110,117,94,1,8,0,1,1,0.08573810979035147,0.012026541566204292,4.396484385773716,0,0,0,0,0,0,0,0,0,0,"",""
3,26591524,0,0,0,0,0,0,0,0,0,0,0,0,1000,150,0,-16,0,0,0,-25,178,2071,126,110,116,94,1,8,0,1,1,0.08573810979035147,0.012026541566204292,4.396484385773716,0,0,0,0,0,0,0,0,0,0,"",""
4,26593017,0,0,0,0,0,0,0,0,0,0,0,0,1000,150,0,-16,0,0,0,-25,178,2071,124,109,114,94,1,8,0,1,1,0.08573810979035146,0.012026541566204288,4.396484385773716,0,0,0,0,0,0,0,0,0,0,"",""
5,26594527,0,0,0,0,0,0,0,0,0,0,0,0,1000,150,0,-16,0,0,0,-25,178,2071,124,110,114,94,1,8,0,1,1,0.08573810979035146,0.012026541566204292,4.396484385773716,0,0,0,0,0,0,0,0,0,0,"",""
6,26596018,0,0,0,0,0,0,0,0,0,0,0,0,1000,150,0,-16,0,0,0,-25,179,2071,123,109,113,94,1,8,0,1,1,0.08580692590041883,0.012026470411645614,4.396484385773716,0,0,0,0,0,0,0,0,0,0,"",""
7,26597504,0,0,0,0,0,0,0,0,0,0,0,0,1000,150,0,-16,0,0,0,-25,179,2071,122,109,114,94,1,8,0,1,1,0.08585853728138061,0.012026417009080703,4.396484385773716,0,0,0,0,0,0,0,0,0,0,"",""
8,26598989,0,0,0,0,0,0,0,0,0,0,0,0,1000,150,0,-16,0,0,0,-25,179,2071,124,108,115,94,1,8,0,1,1,0.08589867900115218,0.012026375452088683,4.396484385773716,0,0,0,0,0,0,0,0,0,0,"",""
9,26600459,0,0,0,0,0,0,0,0,0,0,0,0,1000,150,0,-16,0,0,0,-25,179,2071,124,108,115,94,1,8,0,1,1,0.08593079204358872,0.012026342192888992,4.396484385773716,0,0,0,0,0,0,0,0,0,0,"",""
10,26601941,0,0,0,0,0,0,0,0,0,0,0,0,1000,150,0,-16,0,0,0,-25,179,2071,125,108,115,94,1,8,0,1,1,0.08595706609745353,0.01202631497185542,4.396484385773716,0,0,0,0,0,0,0,0,0,0,"",""
11,26603439,0,0,0,0,0,0,0,0,0,0,0,0,1000,150,0,-16,0,0,0,-25,179,2071,127,109,117,94,1,8,0,1,1,0.0859789609401476,0.01202629228152908,4.396484385773716,0,0,0,0,0,0,0,0,0,0,"",""
12,26604926,0,0,0,0,0,0,0,0,0,0,0,0,1000,150,0,-16,0,0,0,-25,179,2071,130,110,118,94,1,8,0,1,1,0.08599748717820811,0.012026273077693023,4.396484385773716,0,0,0,0,0,0,0,0,0,0,"",""
13,26606412,0,0,0,0,0,0,0,0,0,0,0,0,1000,150,0,-16,0,0,0,-25,179,2071,131,111,118,94,1,8,0,1,1,0.08601336666831953,0.012026256614124901,4.396484385773716,0,0,0,0,0,0,0,0,0,0,"",""
14,26607897,0,0,0,0,0,0,0,0,0,0,0,0,1000,150,0,-16,0,0,0,-25,179,2071,132,112,118,94,1,8,0,1,1,0.08602712876885868,0.01202624234337528,4.396484385773716,0,0,0,0,0,0,0,0,0,0,"",""
15,26609378,0,0,0,0,0,0,0,0,0,0,0,0,1000,150,0,-16,0,0,0,-25,179,2071,131,112,117,94,1,8,0,1,1,0.0860391704965503,0.012026229854715484,4.396484385773716,0,0,0,0,0,0,0,0,0,0,"",""
16,26610859,0,0,0,0,0,0,0,0,0,0,0,0,1000,150,0,-16,0,0,0,-25,179,2071,131,112,117,94,1,8,0,1,1,0.08604979545105174,0.01202621883396479,4.396484385773716,0,0,0,0,0,0,0,0,0,0,"",""
17,26612349,0,0,0,0,0,0,0,0,0,0,0,0,1000,150,0,-16,0,0,0,-25,179,2071,130,111,117,94,1,8,0,1,1,0.08605923976449681,0.012026209036696264,4.396484385773716,0,0,0,0,0,0,0,0,0,0,"",""
18,26613837,0,0,0,0,0,0,0,0,0,0,0,0,1000,150,0,-16,0,0,0,-25,179,2071,129,111,116,94,1,8,0,1,1,0.08606768985633978,0.01202620026989647,4.396484385773716,0,0,0,0,0,0,0,0,0,0,"",""
19,26615327,0,0,0,0,0,0,0,0,0,0,0,0,1000,150,0,-16,0,0,0,-25,179,2071,128,110,116,94,1,8,0,1,1,0.08607529486167982,0.012026192379122747,4.396484385773716,0,0,0,0,0,0,0,0,0,0,"",""
20,26616813,0,0,0,0,0,0,0,0,0,0,0,0,1000,150,0,-16,0,0,0,-25,179,2071,127,109,116,94,1,8,0,1,1,0.08608217550859373,0.012026185239326926,4.396484385773716,0,0,0,0,0,0,0,0,0,0,"",""
21,26618292,0,0,0,0,0,0,0,0,0,0,0,0,1000,150,0,-16,0,0,0,-25,179,2071,127,110,115,94,1,8,0,1,1,0.08608843057435034,0.012026178748179791,4.396484385773716,0,0,0,0,0,0,0,0,0,0,"",""
22,26619783,0,0,0,0,0,0,0,0,0,0,0,0,1000,150,0,-16,0,0,0,-25,179,2071,127,110,114,94,1,8,0,1,1,0.08609414165737699,0.012026172821135725,4.396484385773716,0,0,0,0,0,0,0,0,0,0,"",""
23,26621273,0,0,0,0,0,0,0,0,0,0,0,0,1000,150,0,-16,0,0,0,-25,179,2070,127,110,114,94,1,8,0,1,1,0.08610113369756824,0.012026412163020373,4.396484385773716,0,0,0,0,0,0,0,0,0,0,"",""
24,26622762,0,0,0,0,0,0,0,0,0,0,0,0,1000,150,0,-16,0,0,0,-25,179,2070,128,111,116,94,1,8,0,1,1,0.08610756654901645,0.012026632363006077,4.396484385773716,0,0,0,0,0,0,0,0,0,0,"",""
25,26624263,0,0,0,0,0,0,0,0,0,0,0,0,1000,150,0,-16,0,0,0,-25,179,2070,130,111,116,94,1,8,0,1,1,0.08611350470623073,0.012026835628897751,4.396484385773716,0,0,0,0,0,0,0,0,0,0,"",""
26,26625887,0,0,0,0,0,0,0,0,0,0,0,0,1000,150,0,-16,0,0,0,-25,179,2070,129,110,117,94,1,8,0,1,1,0.086119003112867,0.012027023841543,4.396484385773716,0,0,0,0,0,0,0,0,0,0,"",""
27,26627497,0,0,0,0,0,0,0,0,0,0,0,0,1000,150,0,-16,0,0,0,-25,179,2070,129,111,117,94,1,8,0,1,1,0.08612410886656804,0.01202719861319585,4.396484385773716,0,0,0,0,0,0,0,0,0,0,"",""
28,26628981,0,0,0,0,0,0,0,0,0,0,0,0,1000,150,0,-16,0,0,0,-25,179,2070,129,111,116,94,1,8,0,1,1,0.0861288625712118,0.01202736133380951,4.396484385773716,0,0,0,0,0,0,0,0,0,0,"",""
29,26630573,0,0,0,0,0,0,0,0,0,0,0,0,1000,150,0,-16,0,0,0,-25,179,2070,130,113,116,94,1,8,0,1,1,0.086133299418809,0.012027513208073798,4.396484385773716,0,0,0,0,0,0,0,0,0,0,"",""
30,26632065,0,0,0,0,0,0,0,0,0,0,0,0,1000,150,0,-16,0,0,0,-25,179,2071,130,113,115,94,1,8,0,1,1,0.08613608123588956,0.012027464642912055,4.396484385773716,0,0,0,0,0,0,0,0,0,0,"",""
31,26633553,0,0,0,0,0,0,0,0,0,0,0,0,1000,150,0,-16,0,0,0,-25,179,2071,132,113,116,94,1,8,0,1,1,0.08613868913163353,0.012027419113996882,4.396484385773716,0,0,0,0,0,0,0,0,0,0,"",""
32,26635039,0,0,0,0,0,0,0,0,0,0,0,0,1000,150,0,-16,0,0,0,-25,179,2071,128,109,113,91,1,8,0,1,1,0.08614113891887185,0.012027376345281903,4.396484385773716,0,0,0,0,0,0,0,0,0,0,"",""
33,26636510,0,0,0,0,0,0,0,0,0,0,0,0,1000,150,0,-16,0,0,0,-25,179,2071,127,108,113,91,1,8,0,1,1,0.0861434445498969,0.01202733609319951,4.396484385773716,0,0,0,0,0,0,0,0,0,0,"",""
34,26637996,0,0,0,0,0,0,0,0,0,0,0,0,1000,150,0,-16,0,0,0,-25,179,2071,125,107,113,91,1,8,0,1,1,0.08614561838228228,0.012027298142020667,4.396484385773716,0,0,0,0,0,0,0,0,0,0,"",""
35,26639544,0,0,0,0,0,0,0,0,0,0,0,0,1000,150,0,-16,0,0,0,-25,179,2071,124,106,113,91,1,8,0,1,1,0.08614767140039456,0.012027262299988148,4.396484385773716,0,0,0,0,0,0,0,0,0,0,"",""
36,26641034,0,0,0,0,0,0,0,0,0,0,0,0,1000,150,0,-16,0,0,0,-25,179,2071,124,107,112,91,1,8,0,1,1,0.08614961340098075,0.012027228396076839,4.396484385773716,0,0,0,0,0,0,0,0,0,0,"",""
37,26642520,0,0,0,0,0,0,0,0,0,0,0,0,1000,150,0,-16,0,0,0,-25,179,2071,124,107,112,91,1,8,0,1,1,0.08615145314944937,0.012027196277265622,4.396484385773716,0,0,0,0,0,0,0,0,0,0,"",""
38,26644009,0,0,0,0,0,0,0,0,0,0,0,0,1000,151,0,-16,0,0,0,-25,179,2071,124,107,111,91,1,8,0,1,1,0.08615319851210612,0.012027165806229015,4.396484385773716,0,0,0,0,0,0,0,0,0,0,"",""
39,26645483,0,0,0,0,0,0,0,0,0,0,0,0,1000,151,0,-16,0,0,0,-25,179,2071,125,108,112,91,1,8,0,1,1,0.08615485656855228,0.012027136859375056,4.396484385773716,0,0,0,0,0,0,0,0,0,0,"",""
40,26646965,0,0,0,0,0,0,0,0,0,0,0,0,1000,151,0,-16,0,0,0,-25,179,2071,125,109,112,91,1,8,0,1,1,0.08615643370763308,0.012027109325170385,4.396484385773716,0,0,0,0,0,0,0,0,0,0,"",""
41,26648463,0,0,0,0,0,0,0,0,0,0,0,0,1000,151,0,-16,0,0,0,-25,179,2071,124,107,112,91,1,8,0,1,1,0.08615793570967789,0.012027083102704589,4.396484385773716,0,0,0,0,0,0,0,0,0,0,"",""
42,26649952,0,0,0,0,0,0,0,0,0,0,0,0,1000,151,0,-16,0,0,0,-25,179,2071,125,107,113,91,1,8,0,1,1,0.08615936781726401,0.012027058100454891,4.396484385773716,0,0,0,0,0,0,0,0,0,0,"",""
43,26651439,0,0,0,0,0,0,0,0,0,0,0,0,1000,151,0,-16,0,0,0,-25,179,2071,126,108,113,91,1,8,0,1,1,0.08616073479633025,0.012027034235219317,4.396484385773716,0,0,0,0,0,0,0,0,0,0,"",""
44,26652923,0,0,0,0,0,0,0,0,0,0,0,0,1000,151,0,-16,0,0,0,-25,179,2071,124,108,113,91,1,8,0,1,1,0.08616204098914097,0.012027011431192084,4.396484385773716,0,0,0,0,0,0,0,0,0,0,"",""
45,26654401,0,0,0,0,0,0,0,0,0,0,0,0,1000,151,0,-16,0,0,0,-25,179,2071,125,108,113,91,1,8,0,1,1,0.08616329036034154,0.012026989619159632,4.396484385773716,0,0,0,0,0,0,0,0,0,0,"",""
46,26655896,0,0,0,0,0,0,0,0,0,0,0,0,1000,151,0,-16,0,0,0,-25,179,2071,125,108,113,91,1,8,0,1,1,0.08616448653713375,0.012026968735799278,4.396484385773716,0,0,0,0,0,0,0,0,0,0,"",""
47,26657405,0,0,0,0,0,0,0,0,0,0,0,0,1000,151,0,-16,0,0,0,-25,179,2071,125,108,113,91,1,8,0,1,1,0.08616563284442896,0.012026948723065544,4.396484385773716,0,0,0,0,0,0,0,0,0,0,"",""
48,26658905,0,0,0,0,0,0,0,0,0,0,0,0,1000,151,0,-16,0,0,0,-25,179,2071,125,107,113,91,1,8,0,1,1,0.08616673233569634,0.012026929527651622,4.396484385773716,0,0,0,0,0,0,0,0,0,0,"",""
49,26660529,0,0,0,0,0,0,0,0,0,0,0,0,1000,151,0,-16,0,0,0,-25,179,2071,125,107,114,91,1,8,0,1,1,0.08616778782010924,0.012026911100515507,4.396484385773716,0,0,0,0,0,0,0,0,0,0,"",""
50,26662151,0,0,0,0,0,0,0,0,0,0,0,0,1000,151,0,-16,0,0,0,-25,179,2071,124,107,113,91,1,8,0,1,1,0.08616880188649745,0.012026893396461841,4.396484385773716,0,0,0,0,0,0,0,0,0,0,"",""
51,26663625,0,0,0,0,0,0,0,0,0,0,0,0,1000,150,0,-16,0,0,0,-25,179,2071,125,107,114,91,1,8,0,1,1,0.08616977692453565,0.012026876373772017,4.396484385773716,0,0,0,0,0,0,0,0,0,0,"",""
52,26665115,0,0,0,0,0,0,0,0,0,0,0,0,1000,150,0,-16,0,0,0,-25,179,2071,125,107,114,91,1,8,0,1,1,0.08617071514353293,0.012026859993876177,4.396484385773716,0,0,0,0,0,0,0,0,0,0,"",""
53,26666614,0,0,0,0,0,0,0,0,0,0,0,0,1000,150,0,-16,0,0,0,-25,179,2071,125,107,114,91,1,8,0,1,1,0.08617161858913451,0.012026844221061634,4.396484385773716,0,0,0,0,0,0,0,0,0,0,"",""
54,26668103,0,0,0,0,0,0,0,0,0,0,0,0,1000,150,0,-16,0,0,0,-25,179,2071,125,107,113,91,1,8,0,1,1,0.08617248915820125,0.012026829022213128,4.396484385773716,0,0,0,0,0,0,0,0,0,0,"",""
55,26669586,0,0,0,0,0,0,0,0,0,0,0,0,1000,150,0,-16,0,0,0,-24,179,2071,125,107,113,91,1,8,0,1,1,0.08617332861209484,0.012017825353240098,4.396484385773716,0,0,0,0,0,0,0,0,0,0,"",""
56,26671068,0,0,0,0,0,0,0,0,0,0,0,0,1000,150,0,-16,0,0,0,-24,179,2071,126,108,113,91,1,8,0,1,1,0.08617413858856453,0.01200913784625225,4.396484385773716,0,0,0,0,0,0,0,0,0,0,"",""
57,26672540,0,0,0,0,0,0,0,0,0,0,0,0,1000,150,0,-16,0,0,0,-24,179,2071,125,107,112,91,1,8,0,1,1,0.08617492061240409,0.012000750147073158,4.396484385773716,0,0,0,0,0,0,0,0,0,0,"",""
58,26674026,0,0,0,0,0,0,0,0,0,0,0,0,1000,150,0,-16,0,0,0,-24,179,2071,124,106,112,91,1,8,0,1,1,0.0861756761050248,0.011992647010348136,4.396484385773716,0,0,0,0,0,0,0,0,0,0,"",""
59,26675549,0,0,0,0,0,0,0,0,0,0,0,0,1000,150,0,-16,0,0,0,-24,179,2071,125,107,113,91,1,8,0,1,1,0.0861764063930713,0.011984814207137158,4.396484385773716,0,0,0,0,0,0,0,0,0,0,"",""
60,26677070,0,0,0,0,0,0,0,0,0,0,0,0,1000,150,0,-16,0,0,0,-24,179,2071,125,107,112,91,1,8,0,1,1,0.08617711271618979,0.011977238441597537,4.396484385773716,0,0,0,0,0,0,0,0,0,0,"",""
61,26678557,0,0,0,0,0,0,0,0,0,0,0,0,1000,150,0,-16,0,0,0,-24,179,2071,124,106,113,91,1,8,0,1,1,0.08617779623404447,0.011969907275730007,4.396484385773716,0,0,0,0,0,0,0,0,0,0,"",""
62,26680045,0,0,0,0,0,0,0,0,0,0,0,0,1000,150,0,-16,0,0,0,-24,179,2071,126,107,113,91,1,8,0,1,1,0.08617845803266566,0.011962809061292214,4.396484385773716,0,0,0,0,0,0,0,0,0,0,"",""
63,26681517,0,0,0,0,0,0,0,0,0,0,0,0,1000,150,0,-16,0,0,0,-24,179,2071,126,109,112,91,1,8,0,1,1,0.08617909913020283,0.011955932878095687,4.396484385773716,0,0,0,0,0,0,0,0,0,0,"",""
64,26683002,0,0,0,0,0,0,0,0,0,0,0,0,1000,150,0,-16,0,0,0,-24,179,2071,128,111,115,94,1,8,0,1,1,0.08617972048214649,0.011949268477998742,4.396484385773716,0,0,0,0,0,0,0,0,0,0,"",""
65,26684500,0,0,0,0,0,0,0,0,0,0,0,0,1000,150,0,-16,0,0,0,-24,179,2071,128,111,115,94,1,8,0,1,1,0.08618032298607536,0.011942806233991216,4.396484385773716,0,0,0,0,0,0,0,0,0,0,"",""
66,26685992,0,0,0,0,0,0,0,0,0,0,0,0,1000,150,0,-16,0,0,0,-24,179,2071,129,111,115,94,1,8,0,1,1,0.08618090748597834,0.011936537093839022,4.396484385773716,0,0,0,0,0,0,0,0,0,0,"",""
67,26687477,0,0,0,0,0,0,0,0,0,0,0,0,1000,150,0,-16,0,0,0,-24,179,2071,127,110,115,94,1,8,0,1,1,0.08618147477619521,0.011930452537819058,4.396484385773716,0,0,0,0,0,0,0,0,0,0,"",""
68,26688962,0,0,0,0,0,0,0,0,0,0,0,0,1000,150,0,-16,0,0,0,-24,179,2071,126,108,115,94,1,8,0,1,1,0.0861820256050146,0.011924544540129573,4.396484385773716,0,0,0,0,0,0,0,0,0,0,"",""
69,26690435,0,0,0,0,0,0,0,0,0,0,0,0,1000,150,0,-16,0,0,0,-24,179,2071,126,108,116,94,1,8,0,1,1,0.08618256067796345,0.01191880553360834,4.396484385773716,0,0,0,0,0,0,0,0,0,0,"",""
70,26691926,0,0,0,0,0,0,0,0,0,0,0,0,1000,150,0,-16,0,0,0,-24,179,2071,125,108,115,94,1,8,0,1,1,0.08618308066081869,0.01191322837743253,4.396484385773716,0,0,0,0,0,0,0,0,0,0,"",""
71,26693424,0,0,0,0,0,0,0,0,0,0,0,0,1000,150,0,-16,0,0,0,-24,179,2071,125,108,116,94,1,8,0,1,1,0.0861835861823676,0.011907806327510432,4.396484385773716,0,0,0,0,0,0,0,0,0,0,"",""
72,26694923,0,0,0,0,0,0,0,0,0,0,0,0,1000,150,0,-16,0,0,0,-24,179,2071,126,108,117,94,1,8,0,1,1,0.0861840778369417,0.011902533009306802,4.396484385773716,0,0,0,0,0,0,0,0,0,0,"",""
73,26696545,0,0,0,0,0,0,0,0,0,0,0,0,1000,150,0,-16,0,0,0,-24,179,2071,127,109,118,94,1,8,0,1,1,0.08618455618674482,0.011897402392871688,4.396484385773716,0,0,0,0,0,0,0,0,0,0,"",""
74,26698170,0,0,0,0,0,0,0,0,0,0,0,0,1000,150,0,-16,0,0,0,-24,179,2071,128,110,118,94,1,8,0,1,1,0.08618502176399512,0.011892408769867024,4.396484385773716,0,0,0,0,0,0,0,0,0,0,"",""
75,26699645,0,0,0,0,0,0,0,0,0,0,0,0,1000,150,0,-16,0,0,0,-24,179,2071,128,111,118,94,1,8,0,1,1,0.08618547507289788,0.01188754673240701,4.396484385773716,0,0,0,0,0,0,0,0,0,0,"",""
76,26701129,0,0,0,0,0,0,0,0,0,0,0,0,1000,150,0,-16,0,0,0,-24,179,2071,129,112,118,94,1,8,0,1,1,0.08618591659146461,0.011882811153547357,4.396484385773716,0,0,0,0,0,0,0,0,0,0,"",""
77,26702627,0,0,0,0,0,0,0,0,0,0,0,0,1000,150,0,-16,0,0,0,-24,179,2071,129,112,117,94,1,8,0,1,1,0.08618634677319228,0.01187819716927542,4.396484385773716,0,0,0,0,0,0,0,0,0,0,"",""
78,26704119,0,0,0,0,0,0,0,0,0,0,0,0,1000,150,0,-16,0,0,0,-24,179,2071,130,113,116,94,1,8,0,1,1,0.0861867660486149,0.011873700161868249,4.396484385773716,0,0,0,0,0,0,0,0,0,0,"",""
79,26705602,0,0,0,0,0,0,0,0,0,0,0,0,1000,150,0,-16,0,0,0,-24,179,2071,130,112,116,94,1,8,0,1,1,0.08618717482673871,0.01186931574449881,4.396484385773716,0,0,0,0,0,0,0,0,0,0,"",""
80,26707085,0,0,0,0,0,0,0,0,0,0,0,0,1000,150,0,-16,0,0,0,-24,179,2071,130,111,117,94,1,8,0,1,1,0.08618757349637128,0.01186503974698257,4.396484385773716,0,0,0,0,0,0,0,0,0,0,"",""
81,26708557,0,0,0,0,0,0,0,0,0,0,0,0,1000,150,0,-16,0,0,0,-24,179,2071,127,110,115,94,1,8,0,1,1,0.08618796242735303,0.011860868202567026,4.396484385773716,0,0,0,0,0,0,0,0,0,0,"",""
82,26710041,0,0,0,0,0,0,0,0,0,0,0,0,1000,150,0,-16,0,0,0,-24,179,2071,127,110,115,94,1,8,0,1,1,0.08618834197169999,0.011856797335676255,4.396484385773716,0,0,0,0,0,0,0,0,0,0,"",""
83,26711560,0,0,0,0,0,0,0,0,0,0,0,0,1000,150,0,-16,0,0,0,-24,178,2071,126,110,114,94,1,8,0,1,1,0.08618260322129642,0.011852829806302152,4.396484385773716,0,0,0,0,0,0,0,0,0,0,"",""
84,26713050,0,0,0,0,0,0,0,0,0,0,0,0,1000,150,0,-16,0,0,0,-24,178,2071,126,110,114,94,1,8,0,1,1,0.08617699971791029,0.011848955780260476,4.396484385773716,0,0,0,0,0,0,0,0,0,0,"",""
85,26714537,0,0,0,0,0,0,0,0,0,0,0,0,1000,150,0,-16,0,0,0,-24,178,2071,126,109,114,94,1,8,0,1,1,0.08617152674360884,0.011845171995823396,4.396484385773716,0,0,0,0,0,0,0,0,0,0,"",""
86,26716024,0,0,0,0,0,0,0,0,0,0,0,0,1000,150,0,-16,0,0,0,-24,178,2071,126,109,115,94,1,8,0,1,1,0.0861661797973757,0.011841475341226409,4.396484385773716,0,0,0,0,0,0,0,0,0,0,"",""
87,26717495,0,0,0,0,0,0,0,0,0,0,0,0,1000,150,0,-16,0,0,0,-24,178,2071,126,109,116,94,1,8,0,1,1,0.08616095458278628,0.011837862846147778,4.396484385773716,0,0,0,0,0,0,0,0,0,0,"",""
88,26718977,0,0,0,0,0,0,0,0,0,0,0,0,1000,150,0,-16,0,0,0,-24,178,2071,126,109,116,94,1,8,0,1,1,0.08615584699651362,0.011834331673762351,4.396484385773716,0,0,0,0,0,0,0,0,0,0,"",""
89,26720468,0,0,0,0,0,0,0,0,0,0,0,0,1000,150,0,-16,0,0,0,-24,178,2071,125,107,116,94,1,8,0,1,1,0.08615085311760091,0.011830879113325143,4.396484385773716,0,0,0,0,0,0,0,0,0,0,"",""
90,26721960,0,0,0,0,0,0,0,0,0,0,0,0,1000,150,0,-16,0,0,0,-24,178,2071,125,108,115,94,1,8,0,1,1,0.08614596919744114,0.0118275025732439,4.396484385773716,0,0,0,0,0,0,0,0,0,0,"",""
91,26723462,0,0,0,0,0,0,0,0,0,0,0,0,1000,150,0,-16,0,0,0,-24,178,2071,124,108,114,94,1,8,0,1,1,0.08614119165041009,0.011824199574603454,4.396484385773716,0,0,0,0,0,0,0,0,0,0,"",""
92,26724947,0,0,0,0,0,0,0,0,0,0,0,0,1000,150,0,-16,0,0,0,-24,178,2071,123,108,114,94,1,8,0,1,1,0.08613651704510404,0.011820967745107852,4.396484385773716,0,0,0,0,0,0,0,0,0,0,"",""
93,26726420,0,0,0,0,0,0,0,0,0,0,0,0,1000,150,0,-16,0,0,0,-24,178,2071,124,108,114,94,1,8,0,1,1,0.0861319420961364,0.011817804813409173,4.396484385773716,0,0,0,0,0,0,0,0,0,0,"",""
94,26727907,0,0,0,0,0,0,0,0,0,0,0,0,1000,150,0,-16,0,0,0,-24,178,2071,126,109,115,94,1,8,0,1,1,0.08612746365645256,0.011814708603794482,4.396484385773716,0,0,0,0,0,0,0,0,0,0,"",""
95,26729432,0,0,0,0,0,0,0,0,0,0,0,0,1000,150,0,-16,0,0,0,-24,178,2071,127,111,115,94,1,8,0,1,1,0.08612307871012528,0.01181167703120491,4.396484385773716,0,0,0,0,0,0,0,0,0,0,"",""
96,26730929,0,0,0,0,0,0,0,0,0,0,0,0,1000,150,0,-16,0,0,0,-24,178,2071,128,110,115,93,1,8,0,1,1,0.08611878436559535,0.01180870809656276,4.396484385773716,0,0,0,0,0,0,0,0,0,0,"",""
97,26732554,0,0,0,0,0,0,0,0,0,0,0,0,1000,150,0,-16,0,0,0,-24,178,2071,130,112,115,93,1,8,0,1,1,0.08611457784932633,0.011805799882384761,4.396484385773716,0,0,0,0,0,0,0,0,0,0,"",""
98,26734180,0,0,0,0,0,0,0,0,0,0,0,0,1000,150,0,-16,0,0,0,-24,178,2071,129,111,115,93,1,8,0,1,1,0.08611045649984393,0.011802950548661168,4.396484385773716,0,0,0,0,0,0,0,0,0,0,"",""
99,26735652,0,0,0,0,0,0,0,0,0,0,0,0,1000,150,0,-16,0,0,0,-24,178,2071,129,110,116,93,1,8,0,1,1,0.08610641776213271,0.011800158328982084,4.396484385773716,0,0,0,0,0,0,0,0,0,0,"",""
100,26737146,0,0,0,0,0,0,0,0,0,0,0,0,1000,150,0,-16,0,0,0,-24,178,2071,129,110,116,93,1,8,0,1,1,0.08610245918236595,0.011797421526893953,4.396484385773716,0,0,0,0,0,0,0,0,0,0,"",""
101,26738643,0,0,0,0,0,0,0,0,0,0,0,0,1000,150,0,-16,0,0,0,-24,178,2071,129,111,116,93,1,8,0,1,1,0.08609857840294537,0.01179473851247034,4.396484385773716,0,0,0,0,0,0,0,0,0,0,"",""
102,26740135,0,0,0,0,0,0,0,0,0,0,0,0,1000,150,0,-16,0,0,0,-24,178,2071,129,110,117,93,1,8,0,1,1,0.0860947731578299,0.011792107719082467,4.396484385773716,0,0,0,0,0,0,0,0,0,0,"",""
103,26741620,0,0,0,0,0,0,0,0,0,0,0,0,1000,150,0,-16,0,0,0,-24,178,2071,129,110,117,93,1,8,0,1,1,0.08609104126813377,0.011789527640356094,4.396484385773716,0,0,0,0,0,0,0,0,0,0,"",""
104,26743107,0,0,0,0,0,0,0,0,0,0,0,0,1000,150,0,-16,0,0,0,-24,179,2071,131,111,117,93,1,8,0,1,1,0.0860923520034352,0.01178699177062367,4.396484385773716,0,0,0,0,0,0,0,0,0,0,"",""
105,26744596,0,0,0,0,0,0,0,0,0,0,0,0,1000,150,0,-16,0,0,0,-24,179,2071,131,111,117,93,1,8,0,1,1,0.08609363794439487,0.011784503870150847,4.396484385773716,0,0,0,0,0,0,0,0,0,0,"",""
106,26746081,0,0,0,0,0,0,0,0,0,0,0,0,1000,150,0,-16,0,0,0,-24,179,2071,128,110,115,93,1,8,0,1,1,0.0860948997862158,0.01178206259394286,4.396484385773716,0,0,0,0,0,0,0,0,0,0,"",""
107,26747585,0,0,0,0,0,0,0,0,0,0,0,0,1000,150,0,-16,0,0,0,-24,179,2071,127,110,114,93,1,8,0,1,1,0.08609613819835173,0.01177966664682152,4.396484385773716,0,0,0,0,0,0,0,0,0,0,"",""
108,26749077,0,0,0,0,0,0,0,0,0,0,0,0,1000,150,0,-16,0,0,0,-24,179,2071,127,111,113,93,1,8,0,1,1,0.08609735382568821,0.011777314781139967,4.396484385773716,0,0,0,0,0,0,0,0,0,0,"",""
109,26750563,0,0,0,0,0,0,0,0,0,0,0,0,1000,150,0,-16,0,0,0,-24,179,2071,127,111,113,93,1,8,0,1,1,0.08609854728965945,0.011775005794622068,4.396484385773716,0,0,0,0,0,0,0,0,0,0,"",""
110,26752048,0,0,0,0,0,0,0,0,0,0,0,0,1000,150,0,-16,0,0,0,-24,179,2071,125,110,112,93,1,8,0,1,1,0.08609971918930462,0.011772738528318609,4.396484385773716,0,0,0,0,0,0,0,0,0,0,"",""
111,26753541,0,0,0,0,0,0,0,0,0,0,0,0,1000,150,0,-16,0,0,0,-24,179,2071,126,109,113,93,1,8,0,1,1,0.08610087010226783,0.011770511864672971,4.396484385773716,0,0,0,0,0,0,0,0,0,0,"",""
112,26755035,0,0,0,0,0,0,0,0,0,0,0,0,1000,150,0,-16,0,0,0,-25,179,2071,128,109,115,93,1,8,0,1,1,0.0861020005857448,0.011772990692828457,4.396484385773716,0,0,0,0,0,0,0,0,0,0,"",""
113,26756570,0,0,0,0,0,0,0,0,0,0,0,0,1000,150,0,-16,0,0,0,-25,179,2071,128,109,115,93,1,8,0,1,1,0.08610311117737968,0.011775425903686496,4.396484385773716,0,0,0,0,0,0,0,0,0,0,"",""
114,26758057,0,0,0,0,0,0,0,0,0,0,0,0,1000,150,0,-16,0,0,0,-25,179,2071,127,107,116,93,1,8,0,1,1,0.08610420239611523,0.011777818635148773,4.396484385773716,0,0,0,0,0,0,0,0,0,0,"",""
115,26759542,0,0,0,0,0,0,0,0,0,0,0,0,1000,150,0,-16,0,0,0,-25,179,2071,129,108,117,93,1,8,0,1,1,0.08610527474299892,0.0117801699858773,4.396484385773716,0,0,0,0,0,0,0,0,0,0,"",""
116,26761027,0,0,0,0,0,0,0,0,0,0,0,0,1000,150,0,-16,0,0,0,-25,179,2070,129,108,117,93,1,8,0,1,1,0.0861067175629045,0.011782534090825119,4.396484385773716,0,0,0,0,0,0,0,0,0,0,"",""
117,26762506,0,0,0,0,0,0,0,0,0,0,0,0,1000,150,0,-16,0,0,0,-25,179,2070,128,108,116,93,1,8,0,1,1,0.08610813586326996,0.011784858019597355,4.396484385773716,0,0,0,0,0,0,0,0,0,0,"",""
118,26763988,0,0,0,0,0,0,0,0,0,0,0,0,1000,150,0,-16,0,0,0,-25,179,2070,126,107,115,93,1,8,0,1,1,0.08610953026194608,0.01178714278456927,4.396484385773716,0,0,0,0,0,0,0,0,0,0,"",""
119,26765490,0,0,0,0,0,0,0,0,0,0,0,0,1000,151,0,-16,0,0,0,-25,179,2070,125,108,114,93,1,8,0,1,1,0.0861109013561984,0.011789389364386123,4.396484385773716,0,0,0,0,0,0,0,0,0,0,"",""
120,26767124,0,0,0,0,0,0,0,0,0,0,0,0,1000,151,0,-16,0,0,0,-26,179,2070,123,108,113,93,1,8,0,1,1,0.0861122497235574,0.01179598443409809,4.396484385773716,0,0,0,0,0,0,0,0,0,0,"",""
121,26768833,0,0,0,0,0,0,0,0,0,0,0,0,1000,151,0,-16,0,0,0,-26,179,2070,121,107,112,93,1,8,0,1,1,0.08611357592262699,0.011802471074314848,4.396484385773716,0,0,0,0,0,0,0,0,0,0,"",""
122,26770341,0,0,0,0,0,0,0,0,0,0,0,0,1000,151,0,-16,0,0,0,-26,179,2070,121,107,112,93,1,8,0,1,1,0.08611488049385346,0.01180885192849064,4.396484385773716,0,0,0,0,0,0,0,0,0,0,"",""
123,26771808,0,0,0,0,0,0,0,0,0,0,0,0,1000,151,0,-16,0,0,0,-26,179,2070,125,108,115,93,1,8,0,1,1,0.08611616396025734,0.011815129554845318,4.396484385773716,0,0,0,0,0,0,0,0,0,0,"",""
124,26773294,0,0,0,0,0,0,0,0,0,0,0,0,1000,151,0,-16,0,0,0,-26,179,2070,125,108,115,93,1,8,0,1,1,0.08611742682813012,0.011821306429772206,4.396484385773716,0,0,0,0,0,0,0,0,0,0,"",""
125,26774805,0,0,0,0,0,0,0,0,0,0,0,0,1000,151,0,-16,0,0,0,-26,179,2070,125,109,115,93,1,8,0,1,1,0.0861186695876978,0.011827384951083765,4.396484385773716,0,0,0,0,0,0,0,0,0,0,"",""
126,26776295,0,0,0,0,0,0,0,0,0,0,0,0,1000,151,0,-16,0,0,0,-26,179,2070,128,110,116,93,1,8,0,1,1,0.0861198927137531,0.011833367441103979,4.396484385773716,0,0,0,0,0,0,0,0,0,0,"",""
127,26777780,0,0,0,0,0,0,0,0,0,0,0,0,1000,151,0,-16,0,0,0,-26,179,2070,127,110,115,93,1,8,0,1,1,0.0861210966662581,0.011839256149615824,4.396484385773716,0,0,0,0,0,0,0,0,0,0,"",""
128,26779264,0,0,0,0,0,0,0,0,0,0,0,0,1000,151,0,-16,0,0,0,-27,179,2070,128,112,117,96,1,8,0,1,1,0.08612228189091875,0.01184919365399628,4.396484385773716,0,0,0,0,0,0,0,0,0,0,"",""
129,26780738,0,0,0,0,0,0,0,0,0,0,0,0,1000,151,0,-16,0,0,0,-27,179,2070,127,112,116,96,1,8,0,1,1,0.08612344881973295,0.011858977754731565,4.396484385773716,0,0,0,0,0,0,0,0,0,0,"",""
130,26782218,0,0,0,0,0,0,0,0,0,0,0,0,1000,151,0,-16,0,0,0,-27,179,2070,128,112,116,96,1,8,0,1,1,0.08612459787151364,0.011868611963457766,4.396484385773716,0,0,0,0,0,0,0,0,0,0,"",""
131,26783720,0,0,0,0,0,0,0,0,0,0,0,0,1000,151,0,-16,0,0,0,-27,179,2070,129,112,117,96,1,8,0,1,1,0.08612572945238783,0.01187809968544219,4.396484385773716,0,0,0,0,0,0,0,0,0,0,"",""
132,26785206,0,0,0,0,0,0,0,0,0,0,0,0,1000,151,0,-16,0,0,0,-27,179,2070,131,113,117,96,1,8,0,1,1,0.08612684395627353,0.011887444223580559,4.396484385773716,0,0,0,0,0,0,0,0,0,0,"",""
133,26786692,0,0,0,0,0,0,0,0,0,0,0,0,1000,151,0,-16,0,0,0,-27,179,2070,130,113,117,96,1,8,0,1,1,0.08612794176533489,0.011896648782215262,4.396484385773716,0,0,0,0,0,0,0,0,0,0,"",""
134,26788174,0,0,0,0,0,0,0,0,0,0,0,0,1000,151,0,-16,0,0,0,-27,179,2070,132,113,118,96,1,8,0,1,1,0.08612902325041755,0.01190571647078402,4.396484385773716,0,0,0,0,0,0,0,0,0,0,"",""
135,26789647,0,0,0,0,0,0,0,0,0,0,0,0,1000,151,0,-16,0,0,0,-27,179,2070,132,114,118,96,1,8,0,1,1,0.08613008877146444,0.011914650307307602,4.396484385773716,0,0,0,0,0,0,0,0,0,0,"",""
136,26791129,0,0,0,0,0,0,0,0,0,0,0,0,1000,151,0,-16,0,0,0,-27,179,2070,131,114,116,96,1,8,0,1,1,0.08613113867791361,0.011923453221724884,4.396484385773716,0,0,0,0,0,0,0,0,0,0,"",""
137,26792632,0,0,0,0,0,0,0,0,0,0,0,0,1000,151,0,-16,0,0,0,-27,179,2070,130,113,116,96,1,8,0,1,1,0.08613217330907866,0.01193212805908296,4.396484385773716,0,0,0,0,0,0,0,0,0,0,"",""
138,26794123,0,0,0,0,0,0,0,0,0,0,0,0,1000,151,0,-16,0,0,0,-26,179,2070,130,113,117,96,1,8,0,1,1,0.08613319299451276,0.011936804013036977,4.396484385773716,0,0,0,0,0,0,0,0,0,0,"",""
139,26795611,0,0,0,0,0,0,0,0,0,0,0,0,1000,151,0,-16,0,0,0,-26,179,2070,131,114,117,96,1,8,0,1,1,0.08613419805435714,0.011941412898152806,4.396484385773716,0,0,0,0,0,0,0,0,0,0,"",""
140,26797101,0,0,0,0,0,0,0,0,0,0,0,0,1000,151,0,-16,0,0,0,-26,179,2070,130,113,117,96,1,8,0,1,1,0.08613518879967466,0.011945956140888196,4.396484385773716,0,0,0,0,0,0,0,0,0,0,"",""
141,26798572,0,0,0,0,0,0,0,0,0,0,0,0,1000,151,0,-16,0,0,0,-26,179,2070,130,112,118,96,1,8,0,1,1,0.08613616553276941,0.011950435127534844,4.396484385773716,0,0,0,0,0,0,0,0,0,0,"",""
142,26800063,0,0,0,0,0,0,0,0,0,0,0,0,1000,151,0,-16,0,0,0,-26,179,2071,132,113,119,96,1,8,0,1,1,0.08613680353623165,0.01195480621366786,4.396484385773716,0,0,0,0,0,0,0,0,0,0,"",""
143,26801580,0,0,0,0,0,0,0,0,0,0,0,0,1000,151,0,-16,0,0,0,-26,179,2071,131,113,119,96,1,8,0,1,1,0.08613743263575459,0.011959116296724377,4.396484385773716,0,0,0,0,0,0,0,0,0,0,"",""
144,26803211,0,0,0,0,0,0,0,0,0,0,0,0,1000,151,0,-16,0,0,0,-26,179,2071,130,112,119,96,1,8,0,1,1,0.08613805301558664,0.011963366639044723,4.396484385773716,0,0,0,0,0,0,0,0,0,0,"",""
145,26804932,0,0,0,0,0,0,0,0,0,0,0,0,1000,150,0,-16,0,0,0,-26,179,2071,130,113,118,96,1,8,0,1,1,0.08613866485492763,0.011967558468379672,4.396484385773716,0,0,0,0,0,0,0,0,0,0,"",""
146,26806424,0,0,0,0,0,0,0,0,0,0,0,0,1000,150,0,-16,0,0,0,-26,179,2071,129,113,117,96,1,8,0,1,1,0.08613926832810055,0.011971692979067132,4.396484385773716,0,0,0,0,0,0,0,0,0,0,"",""
147,26807892,0,0,0,0,0,0,0,0,0,0,0,0,1000,150,0,-16,0,0,0,-25,178,2071,128,112,116,96,1,8,0,1,1,0.08613621237245667,0.011972110813585433,4.396484385773716,0,0,0,0,0,0,0,0,0,0,"",""
148,26809375,0,0,0,0,0,0,0,0,0,0,0,0,1000,150,0,-16,0,0,0,-25,178,2071,131,113,117,96,1,8,0,1,1,0.08613319764602193,0.011972523010805288,4.396484385773716,0,0,0,0,0,0,0,0,0,0,"",""
149,26810873,0,0,0,0,0,0,0,0,0,0,0,0,1000,150,0,-16,0,0,0,-25,178,2071,132,113,118,96,1,8,0,1,1,0.0861302233241221,0.011972929683487246,4.396484385773716,0,0,0,0,0,0,0,0,0,0,"",""
150,26812362,0,0,0,0,0,0,0,0,0,0,0,0,1000,150,0,-16,0,0,0,-25,178,2071,133,114,118,96,1,8,0,1,1,0.0861272886039304,0.011973330941404531,4.396484385773716,0,0,0,0,0,0,0,0,0,0,"",""
151,26813849,0,0,0,0,0,0,0,0,0,0,0,0,1000,150,0,-16,0,0,0,-25,178,2071,133,114,118,96,1,8,0,1,1,0.0861243927037489,0.01197372689144129,4.396484385773716,0,0,0,0,0,0,0,0,0,0,"",""
152,26815398,0,0,0,0,0,0,0,0,0,0,0,0,1000,150,0,-16,0,0,0,-25,178,2071,133,115,118,96,1,8,0,1,1,0.0861215348623178,0.011974117637687035,4.396484385773716,0,0,0,0,0,0,0,0,0,0,"",""
153,26816872,0,0,0,0,0,0,0,0,0,0,0,0,1000,150,0,-16,0,0,0,-25,178,2071,132,114,118,96,1,8,0,1,1,0.08611871433815192,0.011974503281527384,4.396484385773716,0,0,0,0,0,0,0,0,0,0,"",""
154,26818357,0,0,0,0,0,0,0,0,0,0,0,0,1000,150,0,-16,0,0,0,-25,178,2071,129,113,117,96,1,8,0,1,1,0.08611593040890272,0.011974883921731289,4.396484385773716,0,0,0,0,0,0,0,0,0,0,"",""
155,26819855,0,0,0,0,0,0,0,0,0,0,0,0,1000,150,0,-16,0,0,0,-25,178,2071,129,113,117,96,1,8,0,1,1,0.08611318237074488,0.011975259654534913,4.396484385773716,0,0,0,0,0,0,0,0,0,0,"",""
156,26821345,0,0,0,0,0,0,0,0,0,0,0,0,1000,150,0,-16,0,0,0,-24,178,2071,129,112,117,96,1,8,0,1,1,0.08611046953778635,0.011972151471686242,4.396484385773716,0,0,0,0,0,0,0,0,0,0,"",""
157,26822827,0,0,0,0,0,0,0,0,0,0,0,0,1000,150,0,-16,0,0,0,-24,178,2071,129,113,118,96,1,8,0,1,1,0.0861077912415008,0.011969082858337851,4.396484385773716,0,0,0,0,0,0,0,0,0,0,"",""
158,26824313,0,0,0,0,0,0,0,0,0,0,0,0,1000,150,0,-16,0,0,0,-24,178,2071,129,113,117,96,1,8,0,1,1,0.08610514683018143,0.011966053067819579,4.396484385773716,0,0,0,0,0,0,0,0,0,0,"",""
159,26825784,0,0,0,0,0,0,0,0,0,0,0,0,1000,150,0,-16,0,0,0,-24,178,2071,130,114,117,96,1,8,0,1,1,0.08610253566841547,0.011963061372129309,4.396484385773716,0,0,0,0,0,0,0,0,0,0,"",""
160,26827270,0,0,0,0,0,0,0,0,0,0,0,0,1000,150,0,-16,0,0,0,-24,178,2071,128,112,116,95,1,8,0,1,1,0.08609995713657789,0.011960107061353165,4.396484385773716,0,0,0,0,0,0,0,0,0,0,"",""
161,26828772,0,0,0,0,0,0,0,0,0,0,0,0,1000,150,0,-16,0,0,0,-24,178,2071,128,111,116,95,1,8,0,1,1,0.08609741063034423,0.01195718944310719,4.396484385773716,0,0,0,0,0,0,0,0,0,0,"",""
162,26830261,0,0,0,0,0,0,0,0,0,0,0,0,1000,150,0,-16,0,0,0,-24,178,2071,128,111,116,95,1,8,0,1,1,0.08609489556022125,0.011954307841999579,4.396484385773716,0,0,0,0,0,0,0,0,0,0,"",""
163,26831746,0,0,0,0,0,0,0,0,0,0,0,0,1000,150,0,-16,0,0,0,-24,178,2071,128,112,116,95,1,8,0,1,1,0.08609241135109458,0.011951461599112588,4.396484385773716,0,0,0,0,0,0,0,0,0,0,"",""
164,26833234,0,0,0,0,0,0,0,0,0,0,0,0,1000,150,0,-16,0,0,0,-24,178,2071,130,112,117,95,1,8,0,1,1,0.08608995744179304,0.01194865007150328,4.396484385773716,0,0,0,0,0,0,0,0,0,0,"",""
165,26834702,0,0,0,0,0,0,0,0,0,0,0,0,1000,150,0,-16,0,0,0,-24,178,2071,131,113,118,95,1,8,0,1,1,0.08608753328466871,0.011945872631722336,4.396484385773716,0,0,0,0,0,0,0,0,0,0,"",""
166,26836198,0,0,0,0,0,0,0,0,0,0,0,0,1000,150,0,-16,0,0,0,-24,178,2071,132,114,118,95,1,8,0,1,1,0.08608513834519184,0.011943128667350115,4.396484385773716,0,0,0,0,0,0,0,0,0,0,"",""
167,26837898,0,0,0,0,0,0,0,0,0,0,0,0,1000,150,0,-16,0,0,0,-24,178,2071,132,113,119,95,1,8,0,1,1,0.08608277210156057,0.011940417580549345,4.396484385773716,0,0,0,0,0,0,0,0,0,0,"",""
168,26839524,0,0,0,0,0,0,0,0,0,0,0,0,1000,150,0,-16,0,0,0,-24,178,2071,132,113,119,95,1,8,0,1,1,0.08608043404432418,0.011937738787633623,4.396484385773716,0,0,0,0,0,0,0,0,0,0,"",""
169,26841014,0,0,0,0,0,0,0,0,0,0,0,0,1000,150,0,-16,0,0,0,-24,178,2071,131,112,119,95,1,8,0,1,1,0.08607812367601993,0.011935091718651213,4.396484385773716,0,0,0,0,0,0,0,0,0,0,"",""
170,26842496,0,0,0,0,0,0,0,0,0,0,0,0,1000,150,0,-16,0,0,0,-24,178,2071,129,112,117,95,1,8,0,1,1,0.0860758405108224,0.01193247581698341,4.396484385773716,0,0,0,0,0,0,0,0,0,0,"",""
171,26843966,0,0,0,0,0,0,0,0,0,0,0,0,1000,150,0,-16,0,0,0,-24,178,2071,129,112,117,95,1,8,0,1,1,0.08607358407420522,0.011929890538956916,4.396484385773716,0,0,0,0,0,0,0,0,0,0,"",""
172,26845453,0,0,0,0,0,0,0,0,0,0,0,0,1000,150,5,-16,0,0,0,-24,178,2071,129,112,117,95,1,8,0,1,1,0.0860713539026145,0.011927335353469688,4.396484385773716,0,0,0,0,0,0,0,0,0,0,"",""
173,26846955,0,0,0,0,0,0,0,0,0,0,0,0,1000,150,5,-16,0,0,0,-24,178,2071,129,113,116,95,1,8,0,1,1,0.08606914954315344,0.01192480974162965,4.396484385773716,0,0,0,0,0,0,0,0,0,0,"",""
174,26848446,0,0,0,0,0,0,0,0,0,0,0,0,1000,150,5,-16,0,0,0,-24,178,2071,129,113,116,95,1,8,0,1,1,0.0860669705532779,0.011922313196405828,4.396484385773716,0,0,0,0,0,0,0,0,0,0,"",""
175,26849928,0,0,0,0,0,0,0,0,0,0,0,0,1000,150,5,-16,0,0,0,-24,178,2071,130,113,116,95,1,8,0,1,1,0.08606481650050223,0.011919845222291357,4.396484385773716,0,0,0,0,0,0,0,0,0,0,"",""
176,26851414,0,0,0,0,0,0,0,0,0,0,0,0,1000,150,5,-16,0,0,0,-24,178,2071,130,113,116,95,1,8,0,1,1,0.08606268696211507,0.011917405334977912,4.396484385773716,0,0,0,0,0,0,0,0,0,0,"",""
177,26852882,0,0,0,0,0,0,0,0,0,0,0,0,1000,150,5,-16,0,0,0,-24,178,2071,130,112,116,95,1,8,0,1,1,0.08606058152490485,0.011914993061041152,4.396484385773716,0,0,0,0,0,0,0,0,0,0,"",""
178,26854364,0,0,0,0,0,0,0,0,0,0,0,0,1000,150,5,-16,0,0,0,-24,178,2072,130,112,116,95,1,8,0,1,1,0.08605823284544749,0.01191257108141959,4.396484385773716,0,0,0,0,0,0,0,0,0,0,"",""
179,26855873,0,0,0,0,0,0,0,0,0,0,0,0,1000,150,5,-16,0,0,0,-24,178,2072,130,112,117,95,1,8,0,1,1,0.08605591047049967,0.011910176227045528,4.396484385773716,0,0,0,0,0,0,0,0,0,0,"",""
180,26857363,0,0,0,0,0,0,0,0,0,0,0,0,1000,150,5,-16,0,0,0,-24,178,2072,130,112,117,95,1,8,0,1,1,0.0860536139637848,0.011907808048033337,4.396484385773716,0,0,0,0,0,0,0,0,0,0,"",""
181,26858849,0,0,0,0,0,0,0,0,0,0,0,0,1000,150,5,-16,0,0,0,-24,178,2072,130,113,117,95,1,8,0,1,1,0.08605134289862063,0.011905466104390925,4.396484385773716,0,0,0,0,0,0,0,0,0,0,"",""
182,26860330,0,0,0,0,0,0,0,0,0,0,0,0,1000,150,5,-16,0,0,0,-24,178,2072,130,113,117,95,1,8,0,1,1,0.08604909685765687,0.011903149965749253,4.396484385773716,0,0,0,0,0,0,0,0,0,0,"",""
183,26861813,0,0,0,0,0,0,0,0,0,0,0,0,1000,150,5,-16,0,0,0,-24,178,2072,130,113,117,95,1,8,0,1,1,0.08604687543262157,0.011900859211100675,4.396484385773716,0,0,0,0,0,0,0,0,0,0,"",""
184,26863302,0,0,0,0,0,0,0,0,0,0,0,0,1000,150,5,-16,0,0,0,-24,178,2072,130,113,117,95,1,8,0,1,1,0.08604467822407556,0.011898593428545797,4.396484385773716,0,0,0,0,0,0,0,0,0,0,"",""
185,26864803,0,0,0,0,0,0,0,0,0,0,0,0,1000,150,5,-16,0,0,0,-24,178,2072,129,113,116,95,1,8,0,1,1,0.08604250484117483,0.011896352215048457,4.396484385773716,0,0,0,0,0,0,0,0,0,0,"",""
186,26866289,0,0,0,0,0,0,0,0,0,0,0,0,1000,150,0,-16,0,0,0,-24,178,2072,129,113,116,95,1,8,0,1,1,0.08604035490144062,0.011894135176198617,4.396484385773716,0,0,0,0,0,0,0,0,0,0,"",""
187,26867775,0,0,0,0,0,0,0,0,0,0,0,0,1000,150,0,-16,0,0,0,-25,178,2072,128,111,117,95,1,8,0,1,1,0.08603822803053679,0.01189491951638255,4.396484385773716,0,0,0,0,0,0,0,0,0,0,"",""
188,26869263,0,0,0,0,0,0,0,0,0,0,0,0,1000,150,0,-16,0,0,0,-25,178,2072,129,111,117,95,1,8,0,1,1,0.0860361238620543,0.011895695484377784,4.396484385773716,0,0,0,0,0,0,0,0,0,0,"",""
189,26870733,0,0,0,0,0,0,0,0,0,0,0,0,1000,150,0,-16,0,0,0,-25,178,2072,129,111,117,95,1,8,0,1,1,0.0860340420373024,0.011896463212463184,4.396484385773716,0,0,0,0,0,0,0,0,0,0,"",""
190,26872230,0,0,0,0,0,0,0,0,0,0,0,0,1000,150,0,-16,0,0,0,-25,178,2072,129,110,118,95,1,8,0,1,1,0.08603198220510659,0.011897222830145762,4.396484385773716,0,0,0,0,0,0,0,0,0,0,"",""
191,26873868,0,0,0,0,0,0,0,0,0,0,0,0,1000,150,0,-16,0,0,0,-25,178,2072,128,110,117,95,1,8,0,1,1,0.08602994402161265,0.011897974464232906,4.396484385773716,0,0,0,0,0,0,0,0,0,0,"",""
192,26875494,0,0,0,0,0,0,0,0,0,0,0,0,1000,150,0,-16,0,0,0,-25,178,2072,128,111,117,96,1,8,0,1,1,0.08602792715009697,0.011898718238902341,4.396484385773716,0,0,0,0,0,0,0,0,0,0,"",""
193,26876985,0,0,0,0,0,0,0,0,0,0,0,0,1000,150,0,-16,0,0,0,-25,178,2072,127,110,117,96,1,8,0,1,1,0.0860259312607826,0.011899454275769952,4.396484385773716,0,0,0,0,0,0,0,0,0,0,"",""
194,26878471,0,0,0,0,0,0,0,0,0,0,0,0,1000,150,0,-16,0,0,0,-25,178,2072,126,110,116,96,1,8,0,1,1,0.08602395603066108,0.011900182693955536,4.396484385773716,0,0,0,0,0,0,0,0,0,0,"",""
195,26879944,0,0,0,0,0,0,0,0,0,0,0,0,1000,150,0,-16,0,0,0,-25,178,2072,126,111,116,96,1,8,0,1,1,0.08602200114331963,0.011900903610146469,4.396484385773716,0,0,0,0,0,0,0,0,0,0,"",""
196,26881426,0,0,0,0,0,0,0,0,0,0,0,0,1000,150,0,-16,0,0,0,-25,178,2072,127,111,117,96,1,8,0,1,1,0.08602006628877369,0.011901617138659514,4.396484385773716,0,0,0,0,0,0,0,0,0,0,"",""
197,26882930,0,0,0,0,0,0,0,0,0,0,0,0,1000,150,0,-16,0,0,0,-25,178,2072,126,111,116,96,1,8,0,1,1,0.08601815116330445,0.011902323391500708,4.396484385773716,0,0,0,0,0,0,0,0,0,0,"",""
198,26884418,0,0,0,0,0,0,0,0,0,0,0,0,1000,150,0,-16,0,0,0,-25,179,2072,127,112,116,96,1,8,0,1,1,0.08601908277420564,0.01190301957674376,4.396484385773716,0,0,0,0,0,0,0,0,0,0,"",""
199,26885908,0,0,0,0,0,0,0,0,0,0,0,0,1000,151,0,-16,0,0,0,-25,179,2072,129,112,118,96,1,8,0,1,1,0.08602000497868106,0.011903708732619896,4.396484385773716,0,0,0,0,0,0,0,0,0,0,"",""
200,26887451,0,0,0,0,0,0,0,0,0,0,0,0,1000,151,0,-16,0,0,0,-25,179,2072,130,111,119,96,1,8,0,1,1,0.08602091791721991,0.011904390964116161,4.396484385773716,0,0,0,0,0,0,0,0,0,0,"",""
201,26888924,0,0,0,0,0,0,0,0,0,0,0,0,1000,151,0,-16,0,0,0,-25,179,2072,130,111,119,96,1,8,0,1,1,0.08602182172752774,0.011905066374139423,4.396484385773716,0,0,0,0,0,0,0,0,0,0,"",""
202,26890417,0,0,0,0,0,0,0,0,0,0,0,0,1000,151,0,-16,0,0,0,-25,179,2072,130,111,120,96,1,8,0,1,1,0.0860227165445951,0.011905735063567626,4.396484385773716,0,0,0,0,0,0,0,0,0,0,"",""
203,26891920,0,0,0,0,0,0,0,0,0,0,0,0,1000,151,0,-16,0,0,0,-25,179,2072,130,110,120,96,1,8,0,1,1,0.08602360250076412,0.011906397131299555,4.396484385773716,0,0,0,0,0,0,0,0,0,0,"",""
204,26893408,0,0,0,0,0,0,0,0,0,0,0,0,1000,151,0,-16,0,0,0,-25,179,2072,128,110,118,96,1,8,0,1,1,0.08602447972579312,0.011907052674303155,4.396484385773716,0,0,0,0,0,0,0,0,0,0,"",""
205,26894895,0,0,0,0,0,0,0,0,0,0,0,0,1000,151,0,-16,0,0,0,-25,179,2071,127,111,117,96,1,8,0,1,1,0.08602558517830312,0.01190773448606506,4.396484385773716,0,0,0,0,0,0,0,0,0,0,"",""
206,26896384,0,0,0,0,0,0,0,0,0,0,0,0,1000,151,0,-16,0,0,0,-25,179,2071,128,111,117,96,1,8,0,1,1,0.08602667984581928,0.011908409645923348,4.396484385773716,0,0,0,0,0,0,0,0,0,0,"",""
207,26897852,0,0,0,0,0,0,0,0,0,0,0,0,1000,151,0,-16,0,0,0,-25,179,2071,130,113,117,96,1,8,0,1,1,0.08602776388391019,0.011909078249829013,4.396484385773716,0,0,0,0,0,0,0,0,0,0,"",""
208,26899337,0,0,0,0,0,0,0,0,0,0,0,0,1000,151,0,-16,0,0,0,-25,179,2071,130,114,117,96,1,8,0,1,1,0.08602883744516691,0.011909740391896647,4.396484385773716,0,0,0,0,0,0,0,0,0,0,"",""
209,26900838,0,0,0,0,0,0,0,0,0,0,0,0,1000,151,0,-16,0,0,0,-25,179,2071,131,114,119,96,1,8,0,1,1,0.08602990067927407,0.011910396164448164,4.396484385773716,0,0,0,0,0,0,0,0,0,0,"",""
210,26902329,0,0,0,0,0,0,0,0,0,0,0,0,1000,151,0,-16,0,0,0,-25,179,2071,132,114,119,96,1,8,0,1,1,0.08603095373307867,0.011911045658055277,4.396484385773716,0,0,0,0,0,0,0,0,0,0,"",""
211,26903816,0,0,0,0,0,0,0,0,0,0,0,0,1000,151,0,-16,0,0,0,-25,179,2071,133,115,119,96,1,8,0,1,1,0.08603199675065695,0.011911688961580794,4.396484385773716,0,0,0,0,0,0,0,0,0,0,"",""
212,26905305,0,0,0,0,0,0,0,0,0,0,0,0,1000,151,0,-16,0,0,0,-25,179,2071,133,114,119,96,1,8,0,1,1,0.08603302987337949,0.011912326162218718,4.396484385773716,0,0,0,0,0,0,0,0,0,0,"",""
213,26906780,0,0,0,0,0,0,0,0,0,0,0,0,1000,150,0,-16,0,0,0,-25,179,2071,133,115,118,96,1,8,0,1,1,0.08603405323997443,0.011912957345533243,4.396484385773716,0,0,0,0,0,0,0,0,0,0,"",""
214,26908429,0,0,0,0,0,0,0,0,0,0,0,0,1000,150,0,-16,0,0,0,-25,179,2071,132,115,117,96,1,8,0,1,1,0.08603506698658893,0.01191358259549667,4.396484385773716,0,0,0,0,0,0,0,0,0,0,"",""
215,26910069,0,0,0,0,0,0,0,0,0,0,0,0,1000,150,0,-16,0,0,0,-25,179,2071,131,114,116,96,1,8,0,1,1,0.08603607124684887,0.011914201994526235,4.396484385773716,0,0,0,0,0,0,0,0,0,0,"",""
216,26911563,0,0,0,0,0,0,0,0,0,0,0,0,1000,150,0,-16,0,0,0,-25,179,2071,131,113,117,96,1,8,0,1,1,0.08603706615191696,0.011914815623519962,4.396484385773716,0,0,0,0,0,0,0,0,0,0,"",""
217,26913053,0,0,0,0,0,0,0,0,0,0,0,0,1000,150,0,-16,0,0,0,-25,179,2071,131,113,118,96,1,8,0,1,1,0.0860380518305493,0.011915423561891497,4.396484385773716,0,0,0,0,0,0,0,0,0,0,"",""
218,26914540,0,0,0,0,0,0,0,0,0,0,0,0,1000,150,0,-16,0,0,0,-25,179,2071,130,113,116,96,1,8,0,1,1,0.08603902840915026,0.011916025887603994,4.396484385773716,0,0,0,0,0,0,0,0,0,0,"",""
219,26916019,0,0,0,0,0,0,0,0,0,0,0,0,1000,150,0,-16,0,0,0,-25,179,2071,130,113,116,96,1,8,0,1,1,0.0860399960118259,0.011916622677203094,4.396484385773716,0,0,0,0,0,0,0,0,0,0,"",""
220,26917505,0,0,0,0,0,0,0,0,0,0,0,0,1000,150,0,-16,0,0,0,-26,179,2071,130,112,117,96,1,8,0,1,1,0.08604095476043606,0.011919813354507359,4.396484385773716,0,0,0,0,0,0,0,0,0,0,"",""
221,26919006,0,0,0,0,0,0,0,0,0,0,0,0,1000,150,0,-16,0,0,0,-26,179,2071,129,111,117,96,1,8,0,1,1,0.08604190477464496,0.0119229749638207,4.396484385773716,0,0,0,0,0,0,0,0,0,0,"",""
222,26920493,0,0,0,0,0,0,0,0,0,0,0,0,1000,150,0,-16,0,0,0,-26,179,2071,130,111,117,96,1,8,0,1,1,0.08604284617197025,0.011926107896244145,4.396484385773716,0,0,0,0,0,0,0,0,0,0,"",""
223,26921980,0,0,0,0,0,0,0,0,0,0,0,0,1000,150,0,-16,0,0,0,-26,179,2071,130,111,118,96,1,8,0,1,1,0.08604377906783114,0.011929212535894728,4.396484385773716,0,0,0,0,0,0,0,0,0,0,"",""
224,26923470,0,0,0,0,0,0,0,0,0,0,0,0,1000,150,0,-16,0,0,0,-26,179,2071,128,109,114,93,1,8,0,1,1,0.08604470357559495,0.011932289260060683,4.396484385773716,0,0,0,0,0,0,0,0,0,0,"",""
225,26924942,0,0,0,0,0,0,0,0,0,0,0,0,1000,150,0,-16,0,0,0,-26,180,2071,128,110,114,93,1,8,0,1,1,0.08604816251285238,0.011935335821781239,4.396484385773716,0,0,0,0,0,0,0,0,0,0,"",""
226,26926436,0,0,0,0,0,0,0,0,0,0,0,0,1000,150,0,-16,0,0,0,-26,180,2070,127,109,113,93,1,8,0,1,1,0.08605180916561812,0.011938385467368516,4.396484385773716,0,0,0,0,0,0,0,0,0,0,"",""
227,26927942,0,0,0,0,0,0,0,0,0,0,0,0,1000,150,0,-16,0,0,0,-26,180,2070,125,109,113,93,1,8,0,1,1,0.0860554234678225,0.011941408058250185,4.396484385773716,0,0,0,0,0,0,0,0,0,0,"",""
228,26929432,0,0,0,0,0,0,0,0,0,0,0,0,1000,150,0,-16,0,0,0,-26,180,2070,125,109,113,93,1,8,0,1,1,0.08605900584310645,0.011944403948721228,4.396484385773716,0,0,0,0,0,0,0,0,0,0,"",""
229,26930917,0,0,0,0,0,0,0,0,0,0,0,0,1000,150,0,-16,0,0,0,-26,180,2070,125,109,114,93,1,8,0,1,1,0.08606255670774726,0.011947373486918135,4.396484385773716,0,0,0,0,0,0,0,0,0,0,"",""
230,26932404,0,0,0,0,0,0,0,0,0,0,0,0,1000,150,0,-16,0,0,0,-26,180,2070,126,108,115,93,1,8,0,1,1,0.0860660764708176,0.011950317014952149,4.396484385773716,0,0,0,0,0,0,0,0,0,0,"",""
231,26933870,0,0,0,0,0,0,0,0,0,0,0,0,1000,150,0,-16,0,0,0,-26,180,2070,126,108,116,93,1,8,0,1,1,0.08606956553434093,0.011953234869039058,4.396484385773716,0,0,0,0,0,0,0,0,0,0,"",""
232,26935352,0,0,0,0,0,0,0,0,0,0,0,0,1000,150,0,-16,0,0,0,-26,180,2070,126,107,116,93,1,8,0,1,1,0.08607302429344263,0.01195612737962564,4.396484385773716,0,0,0,0,0,0,0,0,0,0,"",""
233,26936855,0,0,0,0,0,0,0,0,0,0,0,0,1000,150,0,-16,0,0,0,-26,180,2070,126,107,116,93,1,8,0,1,1,0.08607645313649731,0.011958994871512888,4.396484385773716,0,0,0,0,0,0,0,0,0,0,"",""
234,26938345,0,0,0,0,0,0,0,0,0,0,0,0,1000,150,0,-16,0,0,0,-26,180,2070,125,107,115,93,1,8,0,1,1,0.08607985244527237,0.011961837663976052,4.396484385773716,0,0,0,0,0,0,0,0,0,0,"",""
235,26939827,0,0,0,0,0,0,0,0,0,0,0,0,1000,150,0,-16,0,0,0,-26,180,2070,125,108,115,93,1,8,0,1,1,0.08608322259506794,0.01196465607088168,4.396484385773716,0,0,0,0,0,0,0,0,0,0,"",""
236,26941308,0,0,0,0,0,0,0,0,0,0,0,0,1000,150,0,-16,0,0,0,-26,180,2070,126,109,115,93,1,8,0,1,1,0.08608656395485324,0.011967450400801648,4.396484385773716,0,0,0,0,0,0,0,0,0,0,"",""
237,26942790,0,0,0,0,0,0,0,0,0,0,0,0,1000,150,0,-16,0,0,0,-26,180,2070,127,109,115,93,1,8,0,1,1,0.08608987688739951,0.011970220957124359,4.396484385773716,0,0,0,0,0,0,0,0,0,0,"",""
238,26944418,0,0,0,0,0,0,0,0,0,0,0,0,1000,150,0,-16,0,0,0,-26,180,2070,126,109,115,93,1,8,0,1,1,0.08609316174940963,0.011972968038163126,4.396484385773716,0,0,0,0,0,0,0,0,0,0,"",""
239,26946064,0,0,0,0,0,0,0,0,0,0,0,0,1000,150,0,-16,0,0,0,-26,180,2070,125,109,114,93,1,8,0,1,1,0.08609641889164449,0.01197569193726185,4.396484385773716,0,0,0,0,0,0,0,0,0,0,"",""
240,26947554,0,0,0,0,0,0,0,0,0,0,0,0,1000,150,0,-16,0,0,0,-26,180,2070,124,108,114,93,1,8,0,1,1,0.08609964865904615,0.011978392942898073,4.396484385773716,0,0,0,0,0,0,0,0,0,0,"",""
241,26949043,0,0,0,0,0,0,0,0,0,0,0,0,1000,150,0,-16,0,0,0,-26,180,2070,123,108,114,93,1,8,0,1,1,0.08610285139085808,0.011981071338783476,4.396484385773716,0,0,0,0,0,0,0,0,0,0,"",""
242,26950526,0,0,0,0,0,0,0,0,0,0,0,0,1000,150,0,-16,0,0,0,-26,180,2070,124,108,114,93,1,8,0,1,1,0.08610602742074233,0.011983727403961916,4.396484385773716,0,0,0,0,0,0,0,0,0,0,"",""
243,26951995,0,0,0,0,0,0,0,0,0,0,0,0,1000,150,0,-16,0,0,0,-25,180,2070,125,108,115,93,1,8,0,1,1,0.08610917707689383,0.011983964436485582,4.396484385773716,0,0,0,0,0,0,0,0,0,0,"",""
244,26953483,0,0,0,0,0,0,0,0,0,0,0,0,1000,150,0,-16,0,0,0,-25,180,2070,127,109,116,93,1,8,0,1,1,0.08611230068215198,0.011984199508387937,4.396484385773716,0,0,0,0,0,0,0,0,0,0,"",""
245,26955043,0,0,0,0,0,0,0,0,0,0,0,0,1000,150,0,-16,0,0,0,-25,179,2071,128,109,116,93,1,8,0,1,1,0.08611282101803377,0.011984406665324639,4.396484385773716,0,0,0,0,0,0,0,0,0,0,"",""
246,26956532,0,0,0,0,0,0,0,0,0,0,0,0,1000,150,0,-16,0,0,0,-25,179,2071,127,110,116,93,1,8,0,1,1,0.08611333708185946,0.011984612121459435,4.396484385773716,0,0,0,0,0,0,0,0,0,0,"",""
247,26958019,0,0,0,0,0,0,0,0,0,0,0,0,1000,150,0,-16,0,0,0,-25,179,2071,127,110,115,93,1,8,0,1,1,0.08611384892531868,0.01198481589737121,4.396484385773716,0,0,0,0,0,0,0,0,0,0,"",""
248,26959503,0,0,0,0,0,0,0,0,0,0,0,0,1000,150,0,-16,0,0,0,-25,179,2071,127,110,115,93,1,8,0,1,1,0.08611435659927072,0.01198501801330824,4.396484385773716,0,0,0,0,0,0,0,0,0,0,"",""
249,26960975,0,0,0,0,0,0,0,0,0,0,0,0,1000,150,0,-16,0,0,0,-25,179,2071,126,109,114,93,1,8,0,1,1,0.08611486015376114,0.011985218489194833,4.396484385773716,0,0,0,0,0,0,0,0,0,0,"",""
250,26962458,0,0,0,0,0,0,0,0,0,0,0,0,1000,150,0,-16,0,0,0,-25,179,2071,126,109,114,93,1,8,0,1,1,0.08611535963803792,0.011985417344637761,4.396484385773716,0,0,0,0,0,0,0,0,0,0,"",""
251,26963958,0,0,0,0,0,0,0,0,0,0,0,0,1000,150,0,-16,0,0,0,-25,179,2071,127,109,115,93,1,8,0,1,1,0.0861158551005672,0.01198561459893256,4.396484385773716,0,0,0,0,0,0,0,0,0,0,"",""
252,26965446,0,0,0,0,0,0,0,0,0,0,0,0,1000,150,0,-16,0,0,0,-25,179,2071,128,110,115,93,1,8,0,1,1,0.08611634658904897,0.011985810271069697,4.396484385773716,0,0,0,0,0,0,0,0,0,0,"",""
253,26966931,0,0,0,0,0,0,0,0,0,0,0,0,1000,151,0,-16,0,0,0,-25,179,2071,127,109,115,93,1,8,0,1,1,0.08611683415043199,0.01198600437974057,4.396484385773716,0,0,0,0,0,0,0,0,0,0,"",""
254,26968416,0,0,0,0,0,0,0,0,0,0,0,0,1000,151,0,-16,0,0,0,-25,179,2071,127,109,116,93,1,8,0,1,1,0.08611731783092849,0.011986196943343358,4.396484385773716,0,0,0,0,0,0,0,0,0,0,"",""
255,26969881,0,0,0,0,0,0,0,0,0,0,0,0,1000,151,0,-16,0,0,0,-25,179,2071,127,108,116,93,1,8,0,1,1,0.08611779767602863,0.011986387979988768,4.396484385773716,0,0,0,0,0,0,0,0,0,0,"",""
256,26971379,0,0,0,0,0,0,0,0,0,0,0,0,1000,151,0,-16,0,0,0,-25,179,2071,128,110,118,96,1,8,0,1,1,0.08611827373051457,0.011986577507505623,4.396484385773716,0,0,0,0,0,0,0,0,0,0,"",""
257,26972886,0,0,0,0,0,0,0,0,0,0,0,0,1000,151,0,-16,0,0,0,-25,179,2071,128,110,119,96,1,8,0,1,1,0.08611874603847416,0.011986765543446316,4.396484385773716,0,0,0,0,0,0,0,0,0,0,"",""
258,26974378,0,0,0,0,0,0,0,0,0,0,0,0,1000,151,0,-16,0,0,0,-25,179,2071,128,110,118,96,1,8,0,1,1,0.08611921464331429,0.011986952105092154,4.396484385773716,0,0,0,0,0,0,0,0,0,0,"",""
259,26975862,0,0,0,0,0,0,0,0,0,0,0,0,1000,151,0,-16,0,0,0,-25,179,2071,127,110,117,96,1,8,0,1,1,0.08611967958777407,0.011987137209458576,4.396484385773716,0,0,0,0,0,0,0,0,0,0,"",""
260,26977357,0,0,0,0,0,0,0,0,0,0,0,0,1000,151,0,-16,0,0,0,-25,179,2071,128,110,118,96,1,8,0,1,1,0.08612014091393756,0.011987320873300235,4.396484385773716,0,0,0,0,0,0,0,0,0,0,"",""
261,26978968,0,0,0,0,0,0,0,0,0,0,0,0,1000,151,0,-16,0,0,0,-25,179,2071,129,111,118,96,1,8,0,1,1,0.08612059866324635,0.011987503113115984,4.396484385773716,0,0,0,0,0,0,0,0,0,0,"",""
262,26980601,0,0,0,0,0,0,0,0,0,0,0,0,1000,151,0,-16,0,0,0,-25,179,2071,128,112,117,96,1,8,0,1,1,0.08612105287651171,0.011987683945153744,4.396484385773716,0,0,0,0,0,0,0,0,0,0,"",""
263,26982097,0,0,0,0,0,0,0,0,0,0,0,0,1000,151,0,-16,0,0,0,-25,179,2071,127,112,116,96,1,8,0,1,1,0.08612150359392651,0.011987863385415243,4.396484385773716,0,0,0,0,0,0,0,0,0,0,"",""
264,26983587,0,0,0,0,0,0,0,0,0,0,0,0,1000,151,0,-16,0,0,0,-25,179,2071,128,112,117,96,1,8,0,1,1,0.08612195085507694,0.011988041449660662,4.396484385773716,0,0,0,0,0,0,0,0,0,0,"",""
265,26985075,0,0,0,0,0,0,0,0,0,0,0,0,1000,151,0,-16,0,0,0,-25,179,2072,129,112,118,96,1,8,0,1,1,0.08612220229899896,0.011988191440189176,4.396484385773716,0,0,0,0,0,0,0,0,0,0,"",""
266,26986559,0,0,0,0,0,0,0,0,0,0,0,0,1000,151,0,-16,0,0,0,-25,179,2072,129,112,118,96,1,8,0,1,1,0.08612245182763661,0.011988340288217077,4.396484385773716,0,0,0,0,0,0,0,0,0,0,"",""
267,26988040,0,0,0,0,0,0,0,0,0,0,0,0,1000,151,0,-16,0,0,0,-25,179,2072,129,112,118,96,1,8,0,1,1,0.08612269946244831,0.011988488006544689,4.396484385773716,0,0,0,0,0,0,0,0,0,0,"",""
268,26989529,0,0,0,0,0,0,0,0,0,0,0,0,1000,151,0,-16,0,0,0,-26,179,2072,130,112,119,96,1,8,0,1,1,0.08612294522457316,0.011990851242715237,4.396484385773716,0,0,0,0,0,0,0,0,0,0,"",""
269,26991032,0,0,0,0,0,0,0,0,0,0,0,0,1000,151,0,-16,0,0,0,-26,179,2072,132,114,119,96,1,8,0,1,1,0.08612318913483696,0.011993196671350213,4.396484385773716,0,0,0,0,0,0,0,0,0,0,"",""
270,26992523,0,0,0,0,0,0,0,0,0,0,0,0,1000,151,0,-16,0,0,0,-26,179,2072,131,115,117,96,1,8,0,1,1,0.08612343121375787,0.011995524489754422,4.396484385773716,0,0,0,0,0,0,0,0,0,0,"",""
271,26994010,0,0,0,0,0,0,0,0,0,0,0,0,1000,151,0,-16,0,0,0,-26,179,2072,130,114,117,96,1,8,0,1,1,0.08612367148155219,0.011997834892329364,4.396484385773716,0,0,0,0,0,0,0,0,0,0,"",""
272,26995494,0,0,0,0,0,0,0,0,0,0,0,0,1000,151,0,-16,0,0,0,-26,179,2072,131,114,119,96,1,8,0,1,1,0.08612390995813976,0.012000128070626453,4.396484385773716,0,0,0,0,0,0,0,0,0,0,"",""
273,26996969,0,0,0,0,0,0,0,0,0,0,0,0,1000,151,0,-16,0,0,0,-26,179,2072,130,113,119,96,1,8,0,1,1,0.08612414666314948,0.012002404213399046,4.396484385773716,0,0,0,0,0,0,0,0,0,0,"",""
274,26998462,0,0,0,0,0,0,0,0,0,0,0,0,1000,151,0,-16,0,0,0,-25,179,2072,129,113,118,96,1,8,0,1,1,0.08612438161592464,0.012002485225623138,4.396484385773716,0,0,0,0,0,0,0,0,0,0,"",""
275,26999960,0,0,0,0,0,0,0,0,0,0,0,0,1000,151,0,-16,0,0,0,-25,179,2072,130,112,119,96,1,8,0,1,1,0.08612461483552793,0.012002565640245015,4.396484385773716,0,0,0,0,0,0,0,0,0,0,"",""
276,27001472,0,0,0,0,0,0,0,0,0,0,0,0,1000,151,0,-16,0,0,0,-25,179,2072,130,112,119,96,1,8,0,1,1,0.0861248463407466,0.012002645463742596,4.396484385773716,0,0,0,0,0,0,0,0,0,0,"",""
277,27002958,0,0,0,0,0,0,0,0,0,0,0,0,1000,151,0,-16,0,0,0,-25,179,2072,130,113,118,96,1,8,0,1,1,0.08612507615009754,0.012002724702500533,4.396484385773716,0,0,0,0,0,0,0,0,0,0,"",""
278,27004443,0,0,0,0,0,0,0,0,0,0,0,0,1000,151,0,-16,0,0,0,-25,180,2072,131,113,118,96,1,8,0,1,1,0.08612745025303098,0.012002801139109315,4.396484385773716,0,0,0,0,0,0,0,0,0,0,"",""
279,27005916,0,0,0,0,0,0,0,0,0,0,0,0,1000,151,0,-16,0,0,0,-25,180,2072,132,113,119,96,1,8,0,1,1,0.08612980708382938,0.012002877019557458,4.396484385773716,0,0,0,0,0,0,0,0,0,0,"",""
280,27007400,0,0,0,0,0,0,0,0,0,0,0,0,1000,150,0,-16,0,0,0,-25,180,2072,131,113,118,96,1,8,0,1,1,0.08613214682706513,0.012002952349788907,4.396484385773716,0,0,0,0,0,0,0,0,0,0,"",""
281,27008905,0,0,0,0,0,0,0,0,0,0,0,0,1000,150,0,-16,0,0,0,-25,180,2072,131,113,118,96,1,8,0,1,1,0.0861344696646909,0.012003027135663235,4.396484385773716,0,0,0,0,0,0,0,0,0,0,"",""
282,27010392,0,0,0,0,0,0,0,0,0,0,0,0,1000,150,0,-16,0,0,0,-25,180,2072,131,113,117,96,1,8,0,1,1,0.08613677577608606,0.012003101382957132,4.396484385773716,0,0,0,0,0,0,0,0,0,0,"",""
283,27011875,0,0,0,0,0,0,0,0,0,0,0,0,1000,150,0,-16,0,0,0,-25,180,2072,131,114,117,96,1,8,0,1,1,0.0861390653381019,0.012003175097365868,4.396484385773716,0,0,0,0,0,0,0,0,0,0,"",""
284,27013372,0,0,0,0,0,0,0,0,0,0,0,0,1000,150,0,-16,0,0,0,-25,180,2072,131,114,117,96,1,8,0,1,1,0.08614133852510608,0.012003248284504713,4.396484385773716,0,0,0,0,0,0,0,0,0,0,"",""
285,27014981,0,0,0,0,0,0,0,0,0,0,0,0,1000,150,0,-16,0,0,0,-25,180,2072,131,114,118,96,1,8,0,1,1,0.0861435955090261,0.012003320949910358,4.396484385773716,0,0,0,0,0,0,0,0,0,0,"",""
286,27016614,0,0,0,0,0,0,0,0,0,0,0,0,1000,150,0,-16,0,0,0,-25,180,2072,133,115,118,96,1,8,0,1,1,0.08614583645939183,0.012003393099042262,4.396484385773716,0,0,0,0,0,0,0,0,0,0,"",""
287,27018119,0,0,0,0,0,0,0,0,0,0,0,0,1000,150,0,-16,0,0,0,-25,180,2072,134,115,119,96,1,8,0,1,1,0.08614806154337708,0.012003464737284007,4.396484385773716,0,0,0,0,0,0,0,0,0,0,"",""
288,27019608,0,0,0,0,0,0,0,0,0,0,0,0,1000,150,0,-16,0,0,0,-25,180,2072,128,111,115,93,1,8,0,1,1,0.0861502709258405,0.012003535869944602,4.396484385773716,0,0,0,0,0,0,0,0,0,0,"",""
289,27021090,0,0,0,0,0,0,0,0,0,0,0,0,1000,150,0,-13,0,0,0,-25,180,2072,129,111,115,93,1,8,0,1,1,0.08615246476936547,0.012003606502259786,4.396484385773716,0,0,0,0,0,0,0,0,0,0,"",""
290,27022577,0,0,0,0,0,0,0,0,0,0,0,0,1000,150,0,-13,0,0,0,-25,180,2072,129,111,115,93,1,8,0,1,1,0.08615464323429926,0.01200367663939327,4.396484385773716,0,0,0,0,0,0,0,0,0,0,"",""
291,27024052,0,0,0,0,0,0,0,0,0,0,0,0,1000,150,0,-13,0,0,0,-25,180,2072,128,110,115,93,1,8,0,1,1,0.0861568064787912,0.01200374628643798,4.396484385773716,0,0,0,0,0,0,0,0,0,0,"",""
292,27025534,0,0,0,0,0,0,0,0,0,0,0,0,1000,150,0,-13,0,0,0,-25,180,2072,128,110,115,93,1,8,0,1,1,0.08615895465883049,0.012003815448417277,4.396484385773716,0,0,0,0,0,0,0,0,0,0,"",""
293,27027030,0,0,0,0,0,0,0,0,0,0,0,0,1000,150,0,-13,0,0,0,-25,180,2072,128,110,115,93,1,8,0,1,1,0.08616108792828264,0.01200388413028611,4.396484385773716,0,0,0,0,0,0,0,0,0,0,"",""
294,27028518,0,0,0,0,0,0,0,0,0,0,0,0,1000,150,0,-13,0,0,0,-25,180,2072,129,109,115,93,1,8,0,1,1,0.08616320643892572,0.012003952336932203,4.396484385773716,0,0,0,0,0,0,0,0,0,0,"",""
295,27030008,0,0,0,0,0,0,0,0,0,0,0,0,1000,150,0,-13,0,0,0,-25,180,2072,127,109,114,93,1,8,0,1,1,0.08616531034048554,0.01200402007317719,4.396484385773716,0,0,0,0,0,0,0,0,0,0,"",""
296,27031492,0,0,0,0,0,0,0,0,0,0,0,0,1000,150,0,-13,0,0,0,-25,180,2072,126,109,114,93,1,8,0,1,1,0.0861673997806703,0.012004087343777716,4.396484385773716,0,0,0,0,0,0,0,0,0,0,"",""
297,27032968,0,0,0,0,0,0,0,0,0,0,0,0,1000,150,0,-13,0,0,0,-25,179,2072,127,110,114,93,1,8,0,1,1,0.0861674363891104,0.0120041562670571,4.396484385773716,0,0,0,0,0,0,0,0,0,0,"",""
298,27034451,0,0,0,0,0,0,0,0,0,0,0,0,1000,150,0,-13,0,0,0,-25,179,2072,128,110,114,93,1,8,0,1,1,0.08616747274754921,0.012004224719655024,4.396484385773716,0,0,0,0,0,0,0,0,0,0,"",""
299,27035954,0,0,0,0,0,0,0,0,0,0,0,0,1000,150,0,-13,0,0,0,-25,179,2072,128,110,114,93,1,8,0,1,1,0.08616750885848899,0.012004292706282602,4.396484385773716,0,0,0,0,0,0,0,0,0,0,"",""
300,27037441,0,0,0,0,0,0,0,0,0,0,0,0,1000,150,0,-13,0,0,0,-25,179,2072,128,110,114,93,1,8,0,1,1,0.0861675447243988,0.012004360231588315,4.396484385773716,0,0,0,0,0,0,0,0,0,0,"",""
301,27038944,0,0,0,0,0,0,0,0,0,0,0,0,1000,150,0,-13,0,0,0,-25,179,2071,128,110,114,93,1,8,0,1,1,0.08616775463600695,0.012004451518662947,4.396484385773716,0,0,0,0,0,0,0,0,0,0,"",""
302,27040425,0,0,0,0,0,0,0,0,0,0,0,0,1000,150,0,-13,0,0,0,-25,179,2071,128,110,113,93,1,8,0,1,1,0.08616796313312855,0.012004542190600133,4.396484385773716,0,0,0,0,0,0,0,0,0,0,"",""
303,27041893,0,0,0,0,0,0,0,0,0,0,0,0,1000,150,0,-13,0,0,0,-25,179,2071,128,110,114,93,1,8,0,1,1,0.08616817022972667,0.012004632253472185,4.396484385773716,0,0,0,0,0,0,0,0,0,0,"",""
304,27043376,0,0,0,0,0,0,0,0,0,0,0,0,1000,150,0,-13,0,0,0,-25,179,2071,127,109,114,93,1,8,0,1,1,0.08616837593958122,0.012004721713271792,4.396484385773716,0,0,0,0,0,0,0,0,0,0,"",""
305,27044880,0,0,0,0,0,0,0,0,0,0,0,0,1000,150,0,-13,0,0,0,-25,179,2071,128,110,115,93,1,8,0,1,1,0.08616858027629205,0.012004810575913304,4.396484385773716,0,0,0,0,0,0,0,0,0,0,"",""
306,27046367,0,0,0,0,0,0,0,0,0,0,0,0,1000,150,0,-11,0,0,0,-25,179,2071,129,110,115,93,1,8,0,1,1,0.08616878325328184,0.012004898847234035,4.396484385773716,0,0,0,0,0,0,0,0,0,0,"",""
307,27047911,0,0,0,0,0,0,0,0,0,0,0,0,1000,150,0,-11,0,0,0,-25,179,2071,128,109,116,93,1,8,0,1,1,0.08616898488379893,0.012004986532995488,4.396484385773716,0,0,0,0,0,0,0,0,0,0,"",""
308,27049410,0,0,0,0,0,0,0,0,0,0,0,0,1000,150,0,-11,0,0,0,-25,179,2071,128,110,115,93,1,8,0,1,1,0.08616918518092025,0.0120050736388846,4.396484385773716,0,0,0,0,0,0,0,0,0,0,"",""
309,27051022,0,0,0,0,0,0,0,0,0,0,0,0,1000,150,0,-11,0,0,0,-24,179,2071,129,111,116,93,1,8,0,1,1,0.08616938415755393,0.012003175478093153,4.396484385773716,0,0,0,0,0,0,0,0,0,0,"",""
310,27052647,0,0,0,0,0,0,0,0,0,0,0,0,1000,150,0,-11,0,0,0,-24,179,2071,128,110,116,93,1,8,0,1,1,0.08616958182644215,0.0120012897926058,4.396484385773716,0,0,0,0,0,0,0,0,0,0,"",""
311,27054146,0,0,0,0,0,0,0,0,0,0,0,0,1000,150,0,-11,0,0,0,-24,179,2071,129,111,116,93,1,8,0,1,1,0.08616977820016376,0.011999416462427023,4.396484385773716,0,0,0,0,0,0,0,0,0,0,"",""
312,27055697,0,0,0,0,0,0,0,0,0,0,0,0,1000,150,0,-11,0,0,0,-24,179,2071,130,112,116,93,1,8,0,1,1,0.08616997329113683,0.011997555369094578,4.396484385773716,0,0,0,0,0,0,0,0,0,0,"",""
313,27057185,0,0,0,0,0,0,0,0,0,0,0,0,1000,150,0,-11,0,0,0,-24,179,2071,130,113,116,93,1,8,0,1,1,0.0861701671116213,0.011995706395655104,4.396484385773716,0,0,0,0,0,0,0,0,0,0,"",""
314,27058671,0,0,0,0,0,0,0,0,0,0,0,0,1000,150,0,-11,0,0,0,-24,179,2071,130,112,116,93,1,8,0,1,1,0.08617035967372144,0.011993869426640148,4.396484385773716,0,0,0,0,0,0,0,0,0,0,"",""
315,27060144,0,0,0,0,0,0,0,0,0,0,0,0,1000,150,0,-11,0,0,0,-24,178,2071,129,111,115,93,1,8,0,1,1,0.08616860204965715,0.011992046366784435,4.396484385773716,0,0,0,0,0,0,0,0,0,0,"",""
316,27061631,0,0,0,0,0,0,0,0,0,0,0,0,1000,150,0,-11,0,0,0,-24,178,2071,128,110,114,93,1,8,0,1,1,0.08616685576762534,0.011990235071105878,4.396484385773716,0,0,0,0,0,0,0,0,0,0,"",""
317,27063124,0,0,0,0,0,0,0,0,0,0,0,0,1000,150,0,-11,0,0,0,-24,179,2071,126,109,113,93,1,8,0,1,1,0.08616706034941217,0.011988433420176085,4.396484385773716,0,0,0,0,0,0,0,0,0,0,"",""
318,27064613,0,0,0,0,0,0,0,0,0,0,0,0,1000,150,0,-11,0,0,0,-24,179,2071,125,109,113,93,1,8,0,1,1,0.08616726361885947,0.011986643326295978,4.396484385773716,0,0,0,0,0,0,0,0,0,0,"",""
