"Product","Blackbox flight data recorder by Nicholas Sherlock"
"firmwareType",3
"firmware","3.3"
"firmwarePatch",3
"firmwareVersion","3.3.3"
"Firmware revision","Betaflight 3.3.3 (4cb38c175) MATEKF722"
"Firmware date","Oct 22 2020 11:50:07"
"Log start datetime","0000-01-01T00:00:00.000+00:00"
"Craft name","NEUROFLIGHT"
"frameIntervalI",32
"frameIntervalPNum",1
"frameIntervalPDenom",1
"minthrottle",1070
"maxthrottle",2000
"gyroScale",1.7453292519943295e-8
"motorOutput","68,2047"
"acc_1G",2048
"vbatscale",110
"vbatmincellvoltage",33
"vbatwarningcellvoltage",35
"vbatmaxcellvoltage",43
"vbatref",155
"currentMeterOffset",0
"currentMeterScale",179
"looptime",125
"gyro_sync_denom",1
"pid_process_denom",8
"thrMid",50
"thrExpo",0
"dynThrPID",10
"tpa_breakpoint",1650
"rc_rates","100,100,100"
"rc_expo","0,0,0"
"rates","70,70,70"
"rollPID","40,40,30"
"pitchPID","58,50,35"
"yawPID","70,45,20"
"altPID","50,0,0"
"posPID","15,0,0"
"posrPID","34,14,53"
"navrPID","25,33,83"
"levelPID","50,50,75"
"magPID","40,,"
"velPID","55,55,75"
"dterm_filter_type",1
"dterm_lpf_hz",100
"yaw_lpf_hz",0
"dterm_notch_hz",260
"dterm_notch_cutoff",160
"itermWindupPointPercent",50
"vbat_pid_compensation",0
"pidAtMinThrottle",1
"anti_gravity_threshold",350
"anti_gravity_gain",1000
"setpointRelaxRatio",100
"dtermSetpointWeight",0
"yawRateAccelLimit",0.1
"rateAccelLimit",0
"pidSumLimit",500
"pidSumLimitYaw",400
"deadband",0
"yaw_deadband",0
"gyro_lpf",0
"gyro_soft_type",0
"gyro_lowpass_hz",90
"gyro_notch_hz","400,200"
"gyro_notch_cutoff","300,100"
"acc_lpf_hz",1000
"acc_hardware",0
"baro_hardware",0
"mag_hardware",0
"gyro_cal_on_first_arm",0
"rc_interpolation",2
"rc_interpolation_interval",19
"airmode_activate_throttle",32
"serialrx_provider",2
"unsynced_fast_pwm",0
"fast_pwm_protocol",7
"motor_pwm_rate",480
"digitalIdleOffset",100
"debug_mode",0
"features",263192
"loopIteration","time","axisP[0]","axisP[1]","axisP[2]","axisI[0]","axisI[1]","axisI[2]","axisD[0]","axisD[1]","axisD[2]","rcCommand[0]","rcCommand[1]","rcCommand[2]","rcCommand[3]","vbatLatest","amperageLatest","BaroAlt","gyroADC[0]","gyroADC[1]","gyroADC[2]","accSmooth[0]","accSmooth[1]","accSmooth[2]","motor[0]","motor[1]","motor[2]","motor[3]","flightModeFlags","stateFlags","failsafePhase","rxSignalReceived","rxFlightChannelsValid","heading[0]","heading[1]","heading[2]","axisSum[0]","axisSum[1]","axisSum[2]","rcCommands[0]","rcCommands[1]","rcCommands[2]","rcCommands[3]","axisError[0]","axisError[1]","axisError[2]"
0,132137328,0,0,0,0,0,0,0,0,0,0,0,0,1000,155,0,-68,0,0,0,213,-154,2057,68,65,66,67,"","","","","",-0.07472690434542403,-0.10289520182371938,4.396484385773716,0,0,0,0,0,0,0,0,0,0,"",""
1,132138791,0,0,0,0,0,0,0,0,0,0,0,0,1000,155,0,-68,0,0,0,213,-154,2057,68,65,66,67,1,8,0,1,1,-0.07472690434542402,-0.10289520182371933,4.396484385773716,0,0,0,0,0,0,0,0,0,0,"",""
2,132140388,0,0,0,0,0,0,0,0,0,0,0,0,1000,155,0,-68,0,0,0,213,-154,2057,68,65,66,67,1,8,0,1,1,-0.07472690434542402,-0.10289520182371935,4.396484385773716,0,0,0,0,0,0,0,0,0,0,"",""
3,132141981,0,0,0,0,0,0,0,0,0,0,0,0,1000,155,0,-68,0,0,0,213,-154,2057,68,65,66,67,1,8,0,1,1,-0.07472690434542405,-0.10289520182371936,4.396484385773716,0,0,0,0,0,0,0,0,0,0,"",""
4,132143426,0,0,0,0,0,0,0,0,0,0,0,0,1000,155,0,-68,0,0,0,213,-154,2058,68,65,66,67,1,8,0,1,1,-0.07471964231883456,-0.10288529128232812,4.396484385773716,0,0,0,0,0,0,0,0,0,0,"",""
5,132144878,0,0,0,0,0,0,0,0,0,0,0,0,1000,155,0,-68,0,0,0,213,-154,2058,67,65,66,67,1,8,0,1,1,-0.07471480176159478,-0.10287868532380791,4.396484385773716,0,0,0,0,0,0,0,0,0,0,"",""
6,132146343,0,0,0,0,0,0,0,0,0,0,0,0,1000,155,0,-68,0,0,0,213,-154,2058,67,65,65,67,1,8,0,1,1,-0.07471134461354578,-0.10287396731113464,4.396484385773716,0,0,0,0,0,0,0,0,0,0,"",""
7,132147799,0,0,0,0,0,0,0,0,0,0,0,0,1000,155,0,-68,0,0,0,213,-154,2058,67,65,65,67,1,8,0,1,1,-0.07470875197045494,-0.10287042909524625,4.396484385773716,0,0,0,0,0,0,0,0,0,0,"",""
8,132149254,0,0,0,0,0,0,0,0,0,0,0,0,1000,155,0,-68,0,0,0,213,-154,2058,67,65,66,67,1,8,0,1,1,-0.074706735601897,-0.10286767732692265,4.396484385773716,0,0,0,0,0,0,0,0,0,0,"",""
9,132150714,0,0,0,0,0,0,0,0,0,0,0,0,1000,155,0,-68,0,0,0,213,-154,2058,68,65,66,67,1,8,0,1,1,-0.07470512259197924,-0.10286547602674251,4.396484385773716,0,0,0,0,0,0,0,0,0,0,"",""
10,132152153,0,0,0,0,0,0,0,0,0,0,0,0,1000,155,0,-68,0,0,0,213,-154,2058,68,65,66,67,1,8,0,1,1,-0.07470380291440255,-0.10286367504091198,4.396484385773716,0,0,0,0,0,0,0,0,0,0,"",""
11,132153599,0,0,0,0,0,0,0,0,0,0,0,0,1000,155,0,-68,0,0,0,213,-154,2057,68,65,66,67,1,8,0,1,1,-0.07470574516569695,-0.10286632566310484,4.396484385773716,0,0,0,0,0,0,0,0,0,0,"",""
12,132155087,0,0,0,0,0,0,0,0,0,0,0,0,1000,155,0,-68,0,0,0,213,-154,2057,67,65,66,67,1,8,0,1,1,-0.07470738867872258,-0.10286856859084918,4.396484385773716,0,0,0,0,0,0,0,0,0,0,"",""
13,132156541,0,0,0,0,0,0,0,0,0,0,0,0,1000,155,0,-68,0,0,0,213,-154,2057,67,65,65,67,1,8,0,1,1,-0.07470879745315835,-0.10287049116614892,4.396484385773716,0,0,0,0,0,0,0,0,0,0,"",""
14,132157996,0,0,0,0,0,0,0,0,0,0,0,0,1000,155,0,-68,0,0,0,213,-154,2057,67,65,65,67,1,8,0,1,1,-0.07471001842599999,-0.10287215744505535,4.396484385773716,0,0,0,0,0,0,0,0,0,0,"",""
15,132159448,0,0,0,0,0,0,0,0,0,0,0,0,1000,155,0,-68,0,0,0,213,-154,2057,67,65,65,67,1,8,0,1,1,-0.07471108680250675,-0.10287361547299005,4.396484385773716,0,0,0,0,0,0,0,0,0,0,"",""
16,132160891,0,0,0,0,0,0,0,0,0,0,0,0,1000,155,0,-68,0,0,0,213,-154,2057,67,65,65,67,1,8,0,1,1,-0.07471202950601691,-0.10287490199281743,4.396484385773716,0,0,0,0,0,0,0,0,0,0,"",""
17,132162337,0,0,0,0,0,0,0,0,0,0,0,0,1000,155,0,-68,0,0,0,213,-154,2056,68,65,65,66,1,8,0,1,1,-0.07471490607962786,-0.10287882768782661,4.396484385773716,0,0,0,0,0,0,0,0,0,0,"",""
18,132163836,0,0,0,0,0,0,0,0,0,0,0,0,1000,155,0,-68,0,0,0,213,-154,2056,67,65,65,66,1,8,0,1,1,-0.07471748002201987,-0.1028823403749147,4.396484385773716,0,0,0,0,0,0,0,0,0,0,"",""
19,132165288,0,0,0,0,0,0,0,0,0,0,0,0,1000,155,0,-68,0,0,0,213,-154,2056,67,65,65,67,1,8,0,1,1,-0.07471979670118091,-0.10288550196932494,4.396484385773716,0,0,0,0,0,0,0,0,0,0,"",""
20,132166736,0,0,0,0,0,0,0,0,0,0,0,0,1000,155,0,-68,0,0,0,213,-154,2055,67,65,65,67,1,8,0,1,1,-0.0747236449835194,-0.10289075375159953,4.396484385773716,0,0,0,0,0,0,0,0,0,0,"",""
21,132168188,0,0,0,0,0,0,0,0,0,0,0,0,1000,155,0,-68,0,0,0,213,-154,2055,67,65,66,67,1,8,0,1,1,-0.07472714373140357,-0.10289552851509887,4.396484385773716,0,0,0,0,0,0,0,0,0,0,"",""
22,132169637,0,0,0,0,0,0,0,0,0,0,0,0,1000,155,0,-68,0,0,0,213,-154,2055,67,65,66,67,1,8,0,1,1,-0.07473033849347802,-0.1028998884220246,4.396484385773716,0,0,0,0,0,0,0,0,0,0,"",""
23,132171098,0,0,0,0,0,0,0,0,0,0,0,0,1000,155,0,-68,0,0,0,213,-154,2054,67,65,65,67,1,8,0,1,1,-0.07473480462507061,-0.1029059833646217,4.396484385773716,0,0,0,0,0,0,0,0,0,0,"",""
24,132172581,0,0,0,0,0,0,0,0,0,0,0,0,1000,155,0,-68,0,0,0,213,-154,2054,67,65,65,66,1,8,0,1,1,-0.07473891389117057,-0.10291159128327936,4.396484385773716,0,0,0,0,0,0,0,0,0,0,"",""
25,132174046,0,0,0,0,0,0,0,0,0,0,0,0,1000,155,0,-68,0,0,0,213,-154,2054,68,65,66,67,1,8,0,1,1,-0.07474270741640518,-0.10291676830283326,4.396484385773716,0,0,0,0,0,0,0,0,0,0,"",""
26,132175637,0,0,0,0,0,0,0,0,0,0,0,0,1000,155,0,-68,0,0,0,213,-154,2053,68,65,66,67,1,8,0,1,1,-0.07474759067495325,-0.10292343246987998,4.396484385773716,0,0,0,0,0,0,0,0,0,0,"",""
27,132177229,0,0,0,0,0,0,0,0,0,0,0,0,1000,155,0,-68,0,0,0,213,-154,2053,68,65,66,67,1,8,0,1,1,-0.07475212564304393,-0.10292962131567446,4.396484385773716,0,0,0,0,0,0,0,0,0,0,"",""
28,132178675,0,0,0,0,0,0,0,0,0,0,0,0,1000,155,0,-68,0,0,0,213,-154,2052,68,65,66,67,1,8,0,1,1,-0.07475762666989987,-0.1029371285230645,4.396484385773716,0,0,0,0,0,0,0,0,0,0,"",""
29,132180130,0,0,0,0,0,0,0,0,0,0,0,0,1000,155,0,-68,0,0,0,213,-154,2052,68,65,66,67,1,8,0,1,1,-0.07476276162196999,-0.10294413613782127,4.396484385773716,0,0,0,0,0,0,0,0,0,0,"",""
30,132181594,0,0,0,0,0,0,0,0,0,0,0,0,1000,155,0,-68,0,0,0,213,-154,2052,67,65,65,67,1,8,0,1,1,-0.07476756585766481,-0.1029506924158124,4.396484385773716,0,0,0,0,0,0,0,0,0,0,"",""
31,132183046,0,0,0,0,0,0,0,0,0,0,0,0,1000,155,0,-68,0,0,0,213,-154,2051,67,65,65,67,1,8,0,1,1,-0.07477323221095451,-0.10295842520002814,4.396484385773716,0,0,0,0,0,0,0,0,0,0,"",""
32,132184494,0,0,0,0,0,0,0,0,0,0,0,0,1000,155,0,-68,0,0,0,213,-155,2051,68,66,66,68,1,8,0,1,1,-0.07479360939185589,-0.10296557495898695,4.396484385773716,0,0,0,0,0,0,0,0,0,0,"",""
33,132185946,0,0,0,0,0,0,0,0,0,0,0,0,1000,155,0,-68,0,0,0,213,-155,2050,68,66,67,68,1,8,0,1,1,-0.07481388633321777,-0.10297380014943203,4.396484385773716,0,0,0,0,0,0,0,0,0,0,"",""
34,132187399,0,0,0,0,0,0,0,0,0,0,0,0,1000,155,0,-68,0,0,0,213,-155,2050,68,66,66,68,1,8,0,1,1,-0.07483300728020266,-0.10298155636803406,4.396484385773716,0,0,0,0,0,0,0,0,0,0,"",""
35,132188849,0,0,0,0,0,0,0,0,0,0,0,0,1000,155,0,-68,0,0,0,214,-155,2050,69,66,67,68,1,8,0,1,1,-0.07485106832402802,-0.10300261112151048,4.396484385773716,0,0,0,0,0,0,0,0,0,0,"",""
36,132190330,0,0,0,0,0,0,0,0,0,0,0,0,1000,155,0,-68,0,0,0,214,-155,2049,69,66,67,68,1,8,0,1,1,-0.07486916589769999,-0.10302390849219561,4.396484385773716,0,0,0,0,0,0,0,0,0,0,"",""
37,132191785,0,0,0,0,0,0,0,0,0,0,0,0,1000,155,0,-68,0,0,0,214,-155,2049,68,66,67,68,1,8,0,1,1,-0.07488631338729304,-0.10304408767882703,4.396484385773716,0,0,0,0,0,0,0,0,0,0,"",""
38,132193238,0,0,0,0,0,0,0,0,0,0,0,0,1000,155,0,-68,0,0,0,214,-155,2048,68,66,67,68,1,8,0,1,1,-0.07490354472551311,-0.10306454503747153,4.396484385773716,0,0,0,0,0,0,0,0,0,0,"",""
39,132194687,0,0,0,0,0,0,0,0,0,0,0,0,1000,155,0,-68,0,0,0,214,-155,2048,68,66,67,68,1,8,0,1,1,-0.07491991694215311,-0.10308398232296952,4.396484385773716,0,0,0,0,0,0,0,0,0,0,"",""
40,132196140,0,0,0,0,0,0,0,0,0,0,0,0,1000,155,0,-68,0,0,0,214,-155,2048,68,66,67,68,1,8,0,1,1,-0.07493549270460859,-0.10310247395079794,4.396484385773716,0,0,0,0,0,0,0,0,0,0,"",""
41,132197651,0,0,0,0,0,0,0,0,0,0,0,0,1000,155,0,-68,0,0,0,214,-155,2047,69,66,67,68,1,8,0,1,1,-0.07495122413098755,-0.10312130819717204,4.396484385773716,0,0,0,0,0,0,0,0,0,0,"",""
42,132199107,0,0,0,0,0,0,0,0,0,0,0,0,1000,155,0,-68,0,0,0,214,-155,2047,69,66,67,68,1,8,0,1,1,-0.07496622608669809,-0.10313926900224477,4.396484385773716,0,0,0,0,0,0,0,0,0,0,"",""
43,132200568,0,0,0,0,0,0,0,0,0,0,0,0,1000,155,0,-68,0,0,0,214,-155,2047,69,66,67,69,1,8,0,1,1,-0.07498054814123957,-0.10315641572480909,4.396484385773716,0,0,0,0,0,0,0,0,0,0,"",""
44,132202026,0,0,0,0,0,0,0,0,0,0,0,0,1000,155,0,-68,0,0,0,214,-155,2046,68,66,67,69,1,8,0,1,1,-0.0749950739407174,-0.10317394566451726,4.396484385773716,0,0,0,0,0,0,0,0,0,0,"",""
45,132203474,0,0,0,0,0,0,0,0,0,0,0,0,1000,155,0,-68,0,0,0,214,-155,2046,68,66,67,68,1,8,0,1,1,-0.07500897022749378,-0.103190715819628,4.396484385773716,0,0,0,0,0,0,0,0,0,0,"",""
46,132204927,0,0,0,0,0,0,0,0,0,0,0,0,1000,155,0,-64,0,0,0,214,-155,2046,68,66,67,68,1,8,0,1,1,-0.07502227703789076,-0.10320677451657435,4.396484385773716,0,0,0,0,0,0,0,0,0,0,"",""
47,132206373,0,0,0,0,0,0,0,0,0,0,0,0,1000,155,0,-64,0,0,0,214,-155,2045,68,66,67,68,1,8,0,1,1,-0.0750358197105132,-0.10322324123308375,4.396484385773716,0,0,0,0,0,0,0,0,0,0,"",""
48,132207836,0,0,0,0,0,0,0,0,0,0,0,0,1000,155,0,-64,0,0,0,214,-155,2045,68,66,67,68,1,8,0,1,1,-0.0750488115168679,-0.10323903807347859,4.396484385773716,0,0,0,0,0,0,0,0,0,0,"",""
49,132209438,0,0,0,0,0,0,0,0,0,0,0,0,1000,155,0,-64,0,0,0,214,-155,2045,68,66,67,68,1,8,0,1,1,-0.07506128538087259,-0.10325420507872388,4.396484385773716,0,0,0,0,0,0,0,0,0,0,"",""
50,132211030,0,0,0,0,0,0,0,0,0,0,0,0,1000,155,0,-64,0,0,0,214,-155,2045,68,66,67,68,1,8,0,1,1,-0.07507327165398738,-0.10326877916093292,4.396484385773716,0,0,0,0,0,0,0,0,0,0,"",""
51,132212482,0,0,0,0,0,0,0,0,0,0,0,0,1000,155,0,-64,0,0,0,214,-155,2045,68,66,67,69,1,8,0,1,1,-0.0750847983616448,-0.10328279440312683,4.396484385773716,0,0,0,0,0,0,0,0,0,0,"",""
52,132213935,0,0,0,0,0,0,0,0,0,0,0,0,1000,155,0,-64,0,0,0,214,-155,2044,69,66,67,68,1,8,0,1,1,-0.07509660944840811,-0.10329726113374414,4.396484385773716,0,0,0,0,0,0,0,0,0,0,"",""
53,132215370,0,0,0,0,0,0,0,0,0,0,0,0,1000,155,0,-64,0,0,0,214,-155,2044,69,66,67,68,1,8,0,1,1,-0.07510798459079146,-0.10331119384625954,4.396484385773716,0,0,0,0,0,0,0,0,0,0,"",""
54,132216829,0,0,0,0,0,0,0,0,0,0,0,0,1000,155,0,-64,0,0,0,214,-155,2044,68,66,67,68,1,8,0,1,1,-0.0751189474724165,-0.10332462155526859,4.396484385773716,0,0,0,0,0,0,0,0,0,0,"",""
55,132218294,0,0,0,0,0,0,0,0,0,0,0,-1,1000,155,0,-64,0,0,0,214,-155,2044,68,66,67,68,1,8,0,1,1,-0.07512952009186828,-0.1033375712108408,4.396484385773716,0,0,0,0,0,-1,0,0,0,1,"",""
56,132219748,0,0,0,0,0,0,0,0,0,0,0,-1,1000,155,0,-64,0,0,0,214,-155,2044,66,66,67,66,1,8,0,1,1,-0.07513972290993447,-0.1033500678789361,4.396484385773716,0,0,0,0,0,-1,0,0,0,1,"",""
57,132221198,0,0,0,0,0,0,0,0,0,0,0,-1,1000,155,0,-64,0,0,0,215,-155,2044,66,66,67,66,1,8,0,1,1,-0.07514957498167082,-0.10337082585796578,4.396484385773716,0,0,0,0,0,-1,0,0,0,1,"",""
58,132222654,0,0,0,0,0,0,0,0,0,0,0,-1,1000,155,0,-64,0,0,0,215,-155,2044,66,66,67,66,1,8,0,1,1,-0.07515909407508646,-0.1033908821686506,4.396484385773716,0,0,0,0,0,-1,0,0,0,1,"",""
59,132224103,0,0,0,0,0,0,0,0,0,0,0,-1,1000,155,0,-64,0,0,0,215,-155,2044,66,66,67,66,1,8,0,1,1,-0.07516829677800405,-0.10341027177028343,4.396484385773716,0,0,0,0,0,-1,0,0,0,1,"",""
60,132225552,0,0,0,0,0,0,0,0,0,0,0,-1,1000,155,0,-64,0,0,0,215,-155,2044,66,66,67,66,1,8,0,1,1,-0.07517719859444721,-0.10342902733772523,4.396484385773716,0,0,0,0,0,-1,0,0,0,1,"",""
61,132227019,0,0,0,0,0,0,0,0,0,0,0,0,1000,155,0,-64,0,0,0,215,-155,2044,66,66,67,66,1,8,0,1,1,-0.0751858140317331,-0.10344717944500226,4.396484385773716,0,0,0,0,0,0,0,0,0,0,"",""
62,132228476,0,0,0,0,0,0,0,0,0,0,0,0,1000,155,0,-64,0,0,0,215,-155,2044,68,66,67,68,1,8,0,1,1,-0.07519415667929963,-0.10346475673147687,4.396484385773716,0,0,0,0,0,0,0,0,0,0,"",""
63,132229930,0,0,0,0,0,0,0,0,0,0,0,0,1000,155,0,-62,0,0,0,215,-155,2045,68,66,67,69,1,8,0,1,1,-0.0752016380104451,-0.1034809661204045,4.396484385773716,0,0,0,0,0,0,0,0,0,0,"",""
64,132231382,0,0,0,0,0,0,0,0,0,0,0,0,1000,155,0,-62,0,0,0,215,-155,2045,68,66,67,69,1,8,0,1,1,-0.07520888959763423,-0.1034966776781584,4.396484385773716,0,0,0,0,0,0,0,0,0,0,"",""
65,132232827,0,0,0,0,0,0,0,0,0,0,0,0,1000,155,0,-62,0,0,0,215,-155,2045,69,66,68,69,1,8,0,1,1,-0.07521592185402638,-0.10351191397153513,4.396484385773716,0,0,0,0,0,0,0,0,0,0,"",""
66,132234281,0,0,0,0,0,0,0,0,0,0,0,0,1000,155,0,-62,0,0,0,215,-155,2045,69,66,67,69,1,8,0,1,1,-0.07522274457284497,-0.10352669622369187,4.396484385773716,0,0,0,0,0,0,0,0,0,0,"",""
67,132235746,0,0,0,0,0,0,0,0,0,0,0,0,1000,155,0,-62,0,0,0,215,-155,2045,69,66,67,69,1,8,0,1,1,-0.07522936697283489,-0.10354104441268079,4.396484385773716,0,0,0,0,0,0,0,0,0,0,"",""
68,132237202,0,0,0,0,0,0,0,0,0,0,0,0,1000,155,0,-62,0,0,0,215,-155,2045,68,66,67,68,1,8,0,1,1,-0.07523579773977787,-0.10355497736143793,4.396484385773716,0,0,0,0,0,0,0,0,0,0,"",""
69,132238650,0,0,0,0,0,0,0,0,0,0,0,0,1000,155,0,-62,0,0,0,215,-155,2046,68,66,67,68,1,8,0,1,1,-0.07524149220331866,-0.1035677586791158,4.396484385773716,0,0,0,0,0,0,0,0,0,0,"",""
70,132240106,0,0,0,0,0,0,0,0,0,0,0,0,1000,155,0,-62,0,0,0,215,-155,2046,68,66,67,68,1,8,0,1,1,-0.07524702642484282,-0.10358018029520041,4.396484385773716,0,0,0,0,0,0,0,0,0,0,"",""
71,132241552,0,0,0,0,0,0,0,0,0,0,0,0,1000,155,0,-62,0,0,0,215,-155,2046,68,66,67,68,1,8,0,1,1,-0.07525240706695425,-0.10359225716696686,4.396484385773716,0,0,0,0,0,0,0,0,0,0,"",""
72,132243012,0,0,0,0,0,0,0,0,0,0,0,0,1000,155,0,-62,0,0,0,215,-155,2046,68,66,67,68,1,8,0,1,1,-0.07525764042794605,-0.10360400343374863,4.396484385773716,0,0,0,0,0,0,0,0,0,0,"",""
73,132244644,0,0,0,0,0,0,0,0,0,0,0,-1,1000,155,0,-62,0,0,0,215,-155,2046,68,66,67,68,1,8,0,1,1,-0.07526273246636543,-0.10361543247209516,4.396484385773716,0,0,0,0,0,-1,0,0,0,1,"",""
74,132246236,0,0,0,0,0,0,0,0,0,0,0,-1,1000,155,0,-62,0,0,0,215,-155,2047,66,66,67,66,1,8,0,1,1,-0.07526717046264012,-0.10362584971754309,4.396484385773716,0,0,0,0,0,-1,0,0,0,1,"",""
75,132247689,0,0,0,0,0,0,0,0,0,0,0,-1,1000,155,0,-62,0,0,0,214,-155,2047,66,66,67,66,1,8,0,1,1,-0.0752714916954144,-0.10362925733322503,4.396484385773716,0,0,0,0,0,-1,0,0,0,1,"",""
76,132249137,0,0,0,0,0,0,0,0,0,0,0,-1,1000,155,0,-62,0,0,0,214,-155,2047,66,66,67,66,1,8,0,1,1,-0.07527570070716032,-0.10363257645005221,4.396484385773716,0,0,0,0,0,-1,0,0,0,1,"",""
77,132250582,0,0,0,0,0,0,0,0,0,0,0,-1,1000,155,0,-62,0,0,0,214,-155,2047,66,66,67,66,1,8,0,1,1,-0.07527980180774439,-0.10363581046699563,4.396484385773716,0,0,0,0,0,-1,0,0,0,1,"",""
78,132252034,0,0,0,0,0,0,0,0,0,0,0,-1,1000,155,0,-62,0,0,0,214,-155,2048,66,66,67,66,1,8,0,1,1,-0.07528330522731515,-0.10363828887302053,4.396484385773716,0,0,0,0,0,-1,0,0,0,1,"",""
79,132253494,0,0,0,0,0,0,0,0,0,0,0,-1,1000,155,0,-62,0,0,0,214,-155,2048,66,66,67,66,1,8,0,1,1,-0.07528672101765525,-0.10364070528550486,4.396484385773716,0,0,0,0,0,-1,0,0,0,1,"",""
80,132254952,0,0,0,0,0,0,0,0,0,0,0,-1,1000,155,0,-61,0,0,0,214,-155,2048,66,66,67,66,1,8,0,1,1,-0.07529005242133037,-0.10364306199850024,4.396484385773716,0,0,0,0,0,-1,0,0,0,1,"",""
81,132256401,0,0,0,0,0,0,0,0,0,0,0,-1,1000,155,0,-61,0,0,0,214,-155,2048,66,66,67,66,1,8,0,1,1,-0.07529330252287503,-0.10364536119425008,4.396484385773716,0,0,0,0,0,-1,0,0,0,1,"",""
82,132257852,0,0,0,0,0,0,0,0,0,0,0,-1,1000,155,0,-61,0,0,0,214,-155,2049,66,66,67,66,1,8,0,1,1,-0.07529600256661134,-0.10364696151263841,4.396484385773716,0,0,0,0,0,-1,0,0,0,1,"",""
83,132259299,0,0,0,0,0,0,0,0,0,0,0,-1,1000,155,0,-61,0,0,0,214,-155,2049,66,66,67,66,1,8,0,1,1,-0.0752986382465221,-0.10364852368129107,4.396484385773716,0,0,0,0,0,-1,0,0,0,1,"",""
84,132260754,0,0,0,0,0,0,0,0,0,0,0,-1,1000,155,0,-61,0,0,0,214,-155,2049,66,66,67,66,1,8,0,1,1,-0.07530121183343658,-0.10365004904621755,4.396484385773716,0,0,0,0,0,-1,0,0,0,1,"",""
85,132262200,0,0,0,0,0,0,0,0,0,0,0,-1,1000,155,0,-61,0,0,0,214,-155,2050,66,66,67,66,1,8,0,1,1,-0.07530326909630901,-0.10365091635499252,4.396484385773716,0,0,0,0,0,-1,0,0,0,1,"",""
86,132263647,0,0,0,0,0,0,0,0,0,0,0,0,1000,155,0,-61,0,0,0,214,-156,2050,66,66,67,66,1,8,0,1,1,-0.07531126357421145,-0.10365171721968905,4.396484385773716,0,0,0,0,0,0,0,0,0,0,"",""
87,132265100,0,0,0,0,0,0,0,0,0,0,0,0,1000,155,0,-61,0,0,0,214,-156,2050,68,66,67,68,1,8,0,1,1,-0.07531907601188612,-0.10365249984161563,4.396484385773716,0,0,0,0,0,0,0,0,0,0,"",""
88,132266547,0,0,0,0,0,0,0,0,0,0,0,0,1000,155,0,-61,0,0,0,214,-156,2050,68,66,67,68,1,8,0,1,1,-0.0753267125466555,-0.10365326483602762,4.396484385773716,0,0,0,0,0,0,0,0,0,0,"",""
89,132267996,0,0,0,0,0,0,0,0,0,0,0,0,1000,155,0,-61,0,0,0,214,-156,2051,68,66,67,68,1,8,0,1,1,-0.07533374134127335,-0.1036534159830189,4.396484385773716,0,0,0,0,0,0,0,0,0,0,"",""
90,132269449,0,0,0,0,0,0,0,0,0,0,0,0,1000,155,0,-61,0,0,0,214,-156,2051,68,66,67,68,1,8,0,1,1,-0.07534061526465279,-0.1036535637947416,4.396484385773716,0,0,0,0,0,0,0,0,0,0,"",""
91,132270911,0,0,0,0,0,0,0,0,0,0,0,0,1000,155,0,-61,0,0,0,214,-156,2051,68,66,67,69,1,8,0,1,1,-0.07534733937040339,-0.10365370838018838,4.396484385773716,0,0,0,0,0,0,0,0,0,0,"",""
92,132272373,0,0,0,0,0,0,0,0,0,0,0,0,1000,155,0,-61,0,0,0,214,-156,2051,68,66,67,68,1,8,0,1,1,-0.07535391849462865,-0.10365384984365425,4.396484385773716,0,0,0,0,0,0,0,0,0,0,"",""
93,132273823,0,0,0,0,0,0,0,0,0,0,0,0,1000,155,0,-61,0,0,0,214,-156,2051,68,66,67,68,1,8,0,1,1,-0.07536035726750312,-0.1036539882849867,4.396484385773716,0,0,0,0,0,0,0,0,0,0,"",""
94,132275275,0,0,0,0,0,0,0,0,0,0,0,0,1000,155,0,-61,0,0,0,214,-155,2052,68,66,67,68,1,8,0,1,1,-0.07536072760365864,-0.10365359899215759,4.396484385773716,0,0,0,0,0,0,0,0,0,0,"",""
95,132276726,0,0,0,0,0,0,0,0,0,0,0,0,1000,155,0,-61,0,0,0,214,-155,2052,68,66,67,68,1,8,0,1,1,-0.07536109019986705,-0.10365321783542185,4.396484385773716,0,0,0,0,0,0,0,0,0,0,"",""
96,132278177,0,0,0,0,0,0,0,0,0,0,0,0,1000,155,0,-61,0,0,0,214,-155,2052,68,66,66,68,1,8,0,1,1,-0.07536144529577653,-0.1036528445628669,4.396484385773716,0,0,0,0,0,0,0,0,0,0,"",""
97,132279778,0,0,0,0,0,0,0,0,0,0,0,0,1000,155,0,-61,0,0,0,214,-155,2052,69,66,67,68,1,8,0,1,1,-0.07536179312124294,-0.10365247893287372,4.396484385773716,0,0,0,0,0,0,0,0,0,0,"",""
98,132281384,0,0,0,0,0,0,0,0,0,0,0,0,1000,155,0,-60,0,0,0,214,-155,2053,69,66,67,68,1,8,0,1,1,-0.07536173296071554,-0.1036515742492574,4.396484385773716,0,0,0,0,0,0,0,0,0,0,"",""
99,132282840,0,0,0,0,0,0,0,0,0,0,0,0,1000,155,0,-60,0,0,0,214,-155,2053,69,66,67,68,1,8,0,1,1,-0.07536167400801642,-0.10365068772858899,4.396484385773716,0,0,0,0,0,0,0,0,0,0,"",""
100,132284288,0,0,0,0,0,0,0,0,0,0,0,0,1000,155,0,-60,0,0,0,214,-155,2053,68,66,67,68,1,8,0,1,1,-0.07536161622721255,-0.10364981883052277,4.396484385773716,0,0,0,0,0,0,0,0,0,0,"",""
101,132285734,0,0,0,0,0,0,0,0,0,0,0,0,1000,155,0,-60,0,0,0,214,-155,2053,68,66,67,68,1,8,0,1,1,-0.07536155958378216,-0.10364896703593603,4.396484385773716,0,0,0,0,0,0,0,0,0,0,"",""
102,132287183,0,0,0,0,0,0,0,0,0,0,0,0,1000,155,0,-60,0,0,0,214,-155,2053,68,66,67,68,1,8,0,1,1,-0.07536150404454624,-0.1036481318458974,4.396484385773716,0,0,0,0,0,0,0,0,0,0,"",""
103,132288632,0,0,0,0,0,0,0,0,0,0,0,0,1000,155,0,-60,0,0,0,214,-155,2054,68,66,66,68,1,8,0,1,1,-0.07536106640508351,-0.10364679054673287,4.396484385773716,0,0,0,0,0,0,0,0,0,0,"",""
104,132290124,0,0,0,0,0,0,0,0,0,0,0,0,1000,155,0,-60,0,0,0,214,-155,2054,68,66,66,68,1,8,0,1,1,-0.0753606371392242,-0.10364547491102119,4.396484385773716,0,0,0,0,0,0,0,0,0,0,"",""
105,132291593,0,0,0,0,0,0,0,0,0,0,0,0,1000,155,0,-60,0,0,0,214,-155,2054,69,66,67,68,1,8,0,1,1,-0.07536021600949866,-0.10364418421097547,4.396484385773716,0,0,0,0,0,0,0,0,0,0,"",""
106,132293046,0,0,0,0,0,0,0,0,0,0,0,0,1000,155,0,-60,0,0,0,214,-155,2054,69,66,67,68,1,8,0,1,1,-0.07535980278733251,-0.10364291774606986,4.396484385773716,0,0,0,0,0,0,0,0,0,0,"",""
107,132294497,0,0,0,0,0,0,0,0,0,0,0,0,1000,155,0,-60,0,0,0,214,-155,2055,69,66,67,68,1,8,0,1,1,-0.07535902711706405,-0.10364117038940794,4.396484385773716,0,0,0,0,0,0,0,0,0,0,"",""
108,132295938,0,0,0,0,0,0,0,0,0,0,0,0,1000,155,0,-60,0,0,0,214,-155,2055,69,66,67,68,1,8,0,1,1,-0.07535826575259441,-0.10363945525881947,4.396484385773716,0,0,0,0,0,0,0,0,0,0,"",""
109,132297397,0,0,0,0,0,0,0,0,0,0,0,0,1000,155,0,-60,0,0,0,214,-155,2055,68,66,67,68,1,8,0,1,1,-0.07535751830280088,-0.10363777147325717,4.396484385773716,0,0,0,0,0,0,0,0,0,0,"",""
110,132298874,0,0,0,0,0,0,0,0,0,0,0,0,1000,155,0,-60,0,0,0,214,-155,2055,68,66,67,68,1,8,0,1,1,-0.0753567843906897,-0.10363611818350016,4.396484385773716,0,0,0,0,0,0,0,0,0,0,"",""
111,132300327,0,0,0,0,0,0,0,0,0,0,0,0,1000,155,0,-60,0,0,0,214,-155,2055,68,66,66,68,1,8,0,1,1,-0.07535606365276376,-0.10363449457072962,4.396484385773716,0,0,0,0,0,0,0,0,0,0,"",""
112,132301779,0,0,0,0,0,0,0,0,0,0,0,0,1000,155,0,-60,0,0,0,215,-155,2056,68,66,67,68,1,8,0,1,1,-0.07535500061007692,-0.10363708255664943,4.396484385773716,0,0,0,0,0,0,0,0,0,0,"",""
113,132303231,0,0,0,0,0,0,0,0,0,0,0,0,1000,155,0,-60,0,0,0,215,-155,2056,68,66,67,68,1,8,0,1,1,-0.07535395632576056,-0.10363962487369657,4.396484385773716,0,0,0,0,0,0,0,0,0,0,"",""
114,132304676,0,0,0,0,0,0,0,0,0,0,0,0,1000,155,0,-60,0,0,0,215,-155,2056,68,66,67,69,1,8,0,1,1,-0.07535293030905406,-0.10364212271670838,4.396484385773716,0,0,0,0,0,0,0,0,0,0,"",""
115,132306131,0,0,0,0,0,0,0,0,0,0,0,0,1000,155,0,-60,0,0,0,215,-155,2056,69,66,67,69,1,8,0,1,1,-0.07535192208616796,-0.10364457723920197,4.396484385773716,0,0,0,0,0,0,0,0,0,0,"",""
116,132307620,0,0,0,0,0,0,0,0,0,0,0,0,1000,155,0,-60,0,0,0,215,-155,2057,69,66,67,69,1,8,0,1,1,-0.07535058716074594,-0.10364652059308957,4.396484385773716,0,0,0,0,0,0,0,0,0,0,"",""
117,132309076,0,0,0,0,0,0,0,0,0,0,0,0,1000,155,0,-60,0,0,0,215,-154,2057,69,66,67,69,1,8,0,1,1,-0.07534475293657256,-0.10364846592492777,4.396484385773716,0,0,0,0,0,0,0,0,0,0,"",""
118,132310526,0,0,0,0,0,0,0,0,0,0,0,0,1000,155,0,-60,0,0,0,215,-154,2057,68,66,67,68,1,8,0,1,1,-0.07533901739809475,-0.1036503783473649,4.396484385773716,0,0,0,0,0,0,0,0,0,0,"",""
119,132311986,0,0,0,0,0,0,0,0,0,0,0,0,1000,155,0,-60,0,0,0,215,-154,2057,68,66,67,68,1,8,0,1,1,-0.07533337807016821,-0.10365225868590898,4.396484385773716,0,0,0,0,0,0,0,0,0,0,"",""
120,132313574,0,0,0,0,0,0,0,0,0,0,0,0,1000,155,0,-60,0,0,0,215,-154,2057,68,66,67,68,1,8,0,1,1,-0.07532783255973387,-0.10365410773868773,4.396484385773716,0,0,0,0,0,0,0,0,0,0,"",""
121,132315184,0,0,0,0,0,0,0,0,0,0,0,0,1000,155,0,-60,0,0,0,215,-154,2058,68,66,66,68,1,8,0,1,1,-0.0753220474544617,-0.10365547474516427,4.396484385773716,0,0,0,0,0,0,0,0,0,0,"",""
122,132316649,0,0,0,0,0,0,0,0,0,0,0,0,1000,155,0,-60,0,0,0,215,-154,2058,68,66,67,68,1,8,0,1,1,-0.07531635708200218,-0.10365681936276533,4.396484385773716,0,0,0,0,0,0,0,0,0,0,"",""
123,132318105,0,0,0,0,0,0,0,0,0,0,0,0,1000,155,0,-60,0,0,0,215,-154,2058,68,66,67,68,1,8,0,1,1,-0.0753107591420351,-0.10365814213523251,4.396484385773716,0,0,0,0,0,0,0,0,0,0,"",""
124,132319555,0,0,0,0,0,0,0,0,0,0,0,0,1000,155,0,-60,0,0,0,215,-154,2058,68,66,66,68,1,8,0,1,1,-0.0753052514081171,-0.10365944358884174,4.396484385773716,0,0,0,0,0,0,0,0,0,0,"",""
125,132321001,0,0,0,0,0,0,0,0,0,0,0,0,1000,155,0,-60,0,0,0,215,-154,2059,68,66,66,68,1,8,0,1,1,-0.07529951024037292,-0.10366028565940441,4.396484385773716,0,0,0,0,0,0,0,0,0,0,"",""
126,132322450,0,0,0,0,0,0,0,0,0,0,0,0,1000,155,0,-60,0,0,0,215,-154,2059,68,66,67,69,1,8,0,1,1,-0.07529386018272086,-0.10366111436317975,4.396484385773716,0,0,0,0,0,0,0,0,0,0,"",""
127,132323905,0,0,0,0,0,0,0,0,0,0,0,0,1000,155,0,-60,0,0,0,215,-154,2059,68,66,67,69,1,8,0,1,1,-0.07528829909106277,-0.10366193001481025,4.396484385773716,0,0,0,0,0,0,0,0,0,0,"",""
128,132325365,0,0,0,0,0,0,0,0,0,0,0,0,1000,155,0,-60,0,0,0,215,-153,2059,68,66,67,68,1,8,0,1,1,-0.07527865302182188,-0.10366276530405219,4.396484385773716,0,0,0,0,0,0,0,0,0,0,"",""
129,132326821,0,0,0,0,0,0,0,0,0,0,0,0,1000,155,0,-60,0,0,0,215,-153,2059,69,66,67,68,1,8,0,1,1,-0.07526915650535591,-0.10366358763346277,4.396484385773716,0,0,0,0,0,0,0,0,0,0,"",""
130,132328273,0,0,0,0,0,0,0,0,0,0,0,0,1000,155,0,-60,0,0,0,215,-153,2060,69,66,67,68,1,8,0,1,1,-0.07525949585980793,-0.10366397382178101,4.396484385773716,0,0,0,0,0,0,0,0,0,0,"",""
131,132329727,0,0,0,0,0,0,0,0,0,0,0,0,1000,155,0,-60,0,0,0,215,-153,2060,68,66,67,68,1,8,0,1,1,-0.0752499828099754,-0.10366435410048234,4.396484385773716,0,0,0,0,0,0,0,0,0,0,"",""
132,132331174,0,0,0,0,0,0,0,0,0,0,0,0,1000,155,0,-60,0,0,0,215,-153,2060,68,66,67,68,1,8,0,1,1,-0.07524061401193534,-0.10366472860366813,4.396484385773716,0,0,0,0,0,0,0,0,0,0,"",""
133,132332624,0,0,0,0,0,0,0,0,0,0,0,0,1000,155,0,-60,0,0,0,215,-153,2060,68,66,67,68,1,8,0,1,1,-0.07523138622201907,-0.10366509746141303,4.396484385773716,0,0,0,0,0,0,0,0,0,0,"",""
134,132334074,0,0,0,0,0,0,0,0,0,0,0,0,1000,155,0,-60,0,0,0,215,-153,2060,68,66,67,68,1,8,0,1,1,-0.07522229629308305,-0.10366546079991473,4.396484385773716,0,0,0,0,0,0,0,0,0,0,"",""
135,132335529,0,0,0,0,0,0,0,0,0,0,0,0,1000,155,0,-60,0,0,0,215,-153,2060,68,66,66,68,1,8,0,1,1,-0.07521334117094487,-0.10366581874163756,4.396484385773716,0,0,0,0,0,0,0,0,0,0,"",""
136,132336983,0,0,0,0,0,0,0,0,0,0,0,0,1000,155,0,-60,0,0,0,215,-153,2061,68,66,66,68,1,8,0,1,1,-0.07520422008220405,-0.10366576459242016,4.396484385773716,0,0,0,0,0,0,0,0,0,0,"",""
137,132338450,0,0,0,0,0,0,0,0,0,0,0,0,1000,155,0,-60,0,0,0,215,-153,2061,68,66,66,68,1,8,0,1,1,-0.07519523238069536,-0.10366571122670705,4.396484385773716,0,0,0,0,0,0,0,0,0,0,"",""
138,132339904,0,0,0,0,0,0,0,0,0,0,0,0,1000,155,0,-60,0,0,0,215,-153,2061,69,66,67,68,1,8,0,1,1,-0.07518637517386013,-0.1036656586276895,4.396484385773716,0,0,0,0,0,0,0,0,0,0,"",""
139,132341340,0,0,0,0,0,0,0,0,0,0,0,0,1000,155,0,-60,0,0,0,215,-153,2061,69,66,67,68,1,8,0,1,1,-0.0751776456521731,-0.10366560677903609,4.396484385773716,0,0,0,0,0,0,0,0,0,0,"",""
140,132342794,0,0,0,0,0,0,0,0,0,0,0,0,1000,155,0,-60,0,0,0,215,-153,2061,69,66,67,68,1,8,0,1,1,-0.07516904108618407,-0.1036655556648759,4.396484385773716,0,0,0,0,0,0,0,0,0,0,"",""
141,132344261,0,0,0,0,0,0,0,0,0,0,0,0,1000,155,0,-60,0,0,0,215,-153,2061,69,66,67,68,1,8,0,1,1,-0.07516055882368551,-0.10366550526978242,4.396484385773716,0,0,0,0,0,0,0,0,0,0,"",""
142,132345725,0,0,0,0,0,0,0,0,0,0,0,0,1000,155,0,-60,0,0,0,215,-153,2062,69,66,67,68,1,8,0,1,1,-0.07515190985811643,-0.10366506404012853,4.396484385773716,0,0,0,0,0,0,0,0,0,0,"",""
143,132347313,0,0,0,0,0,0,0,0,0,0,0,0,1000,155,0,-60,0,0,0,215,-153,2062,69,66,67,68,1,8,0,1,1,-0.07514338219199256,-0.10366462899102571,4.396484385773716,0,0,0,0,0,0,0,0,0,0,"",""
144,132348903,0,0,0,0,0,0,0,0,0,0,0,0,1000,155,0,-60,0,0,0,215,-153,2062,69,66,67,68,1,8,0,1,1,-0.07513497330287426,-0.10366419999410649,4.396484385773716,0,0,0,0,0,0,0,0,0,0,"",""
145,132350347,0,0,0,0,0,0,0,0,0,0,0,0,1000,155,0,-60,0,0,0,215,-153,2062,68,66,67,68,1,8,0,1,1,-0.07512668073777819,-0.10366377692453373,4.396484385773716,0,0,0,0,0,0,0,0,0,0,"",""
146,132351798,0,0,0,0,0,0,0,0,0,0,0,0,1000,155,0,-60,0,0,0,215,-153,2062,68,66,67,68,1,8,0,1,1,-0.07511850211080301,-0.10366335966088004,4.396484385773716,0,0,0,0,0,0,0,0,0,0,"",""
147,132353265,0,0,0,0,0,0,0,0,0,0,0,0,1000,155,0,-60,0,0,0,215,-153,2062,68,66,66,68,1,8,0,1,1,-0.07511043510085189,-0.10366294808501222,4.396484385773716,0,0,0,0,0,0,0,0,0,0,"",""
148,132354720,0,0,0,0,0,0,0,0,0,0,0,0,1000,155,0,-60,0,0,0,215,-153,2062,68,66,66,68,1,8,0,1,1,-0.07510247744944708,-0.10366254208198027,4.396484385773716,0,0,0,0,0,0,0,0,0,0,"",""
149,132356174,0,0,0,0,0,0,0,0,0,0,0,0,1000,155,0,-60,0,0,0,215,-153,2063,68,66,66,68,1,8,0,1,1,-0.07509435264186229,-0.10366176628140158,4.396484385773716,0,0,0,0,0,0,0,0,0,0,"",""
150,132357630,0,0,0,0,0,0,0,0,0,0,0,0,1000,155,0,-60,0,0,0,215,-153,2063,68,66,67,68,1,8,0,1,1,-0.07508633658319723,-0.10366100085797704,4.396484385773716,0,0,0,0,0,0,0,0,0,0,"",""
151,132359068,0,0,0,0,0,0,0,0,0,0,0,0,1000,155,0,-60,0,0,0,215,-153,2063,68,66,66,68,1,8,0,1,1,-0.07507842711548825,-0.10366024560592224,4.396484385773716,0,0,0,0,0,0,0,0,0,0,"",""
152,132360520,0,0,0,0,0,0,0,0,0,0,0,0,1000,155,0,-60,0,0,0,215,-153,2063,68,66,67,68,1,8,0,1,1,-0.07507062213749051,-0.10365950032485799,4.396484385773716,0,0,0,0,0,0,0,0,0,0,"",""
153,132362007,0,0,0,0,0,0,0,0,0,0,0,0,1000,155,0,-60,0,0,0,215,-153,2063,68,66,66,68,1,8,0,1,1,-0.07506291960282671,-0.10365876481963399,4.396484385773716,0,0,0,0,0,0,0,0,0,0,"",""
154,132363467,0,0,0,0,0,0,0,0,0,0,0,0,1000,155,0,-60,0,0,0,215,-153,2063,68,66,67,68,1,8,0,1,1,-0.07505531751820783,-0.10365803890015936,4.396484385773716,0,0,0,0,0,0,0,0,0,0,"",""
155,132364916,0,0,0,0,0,0,0,0,0,0,0,0,1000,155,0,-60,0,0,0,215,-153,2063,68,66,67,68,1,8,0,1,1,-0.07504781394172266,-0.10365732238123979,4.396484385773716,0,0,0,0,0,0,0,0,0,0,"",""
156,132366368,0,0,0,0,0,0,0,0,0,0,0,0,1000,155,0,-60,0,0,0,215,-153,2063,68,66,67,68,1,8,0,1,1,-0.07504040698119298,-0.10365661508242083,4.396484385773716,0,0,0,0,0,0,0,0,0,0,"",""
157,132367812,0,0,0,0,0,0,0,0,0,0,0,0,1000,155,0,-60,0,0,0,215,-153,2063,68,66,67,68,1,8,0,1,1,-0.07503309479259157,-0.10365591682783723,4.396484385773716,0,0,0,0,0,0,0,0,0,0,"",""
158,132369273,0,0,0,0,0,0,0,0,0,0,0,0,1000,155,0,-60,0,0,0,215,-153,2062,69,66,67,68,1,8,0,1,1,-0.07502613591356831,-0.10365558388203941,4.396484385773716,0,0,0,0,0,0,0,0,0,0,"",""
159,132370753,0,0,0,0,0,0,0,0,0,0,0,0,1000,155,0,-60,0,0,0,215,-153,2062,69,66,67,69,1,8,0,1,1,-0.07501926491994337,-0.10365525513618377,4.396484385773716,0,0,0,0,0,0,0,0,0,0,"",""
160,132372211,0,0,0,0,0,0,0,0,0,0,0,0,1000,155,0,-60,0,0,0,215,-153,2062,68,65,66,67,1,8,0,1,1,-0.07501248016662361,-0.10365493051174565,4.396484385773716,0,0,0,0,0,0,0,0,0,0,"",""
161,132373666,0,0,0,0,0,0,0,0,0,0,0,0,1000,155,0,-60,0,0,0,215,-153,2062,68,65,66,67,1,8,0,1,1,-0.0750057800493184,-0.10365460993214573,4.396484385773716,0,0,0,0,0,0,0,0,0,0,"",""
162,132375114,0,0,0,0,0,0,0,0,0,0,0,0,1000,155,0,-60,0,0,0,215,-153,2062,68,65,66,67,1,8,0,1,1,-0.07499916300328242,-0.10365429332269013,4.396484385773716,0,0,0,0,0,0,0,0,0,0,"",""
163,132376567,0,0,0,0,0,0,0,0,0,0,0,0,1000,155,0,-60,0,0,0,215,-153,2062,68,65,65,67,1,8,0,1,1,-0.07499262750210461,-0.10365398061051277,4.396484385773716,0,0,0,0,0,0,0,0,0,0,"",""
164,132378029,0,0,0,0,0,0,0,0,0,0,0,0,1000,155,0,-60,0,0,0,215,-153,2062,67,65,65,67,1,8,0,1,1,-0.07498617205654144,-0.10365367172451982,4.396484385773716,0,0,0,0,0,0,0,0,0,0,"",""
165,132379511,0,0,0,0,0,0,0,0,0,0,0,0,1000,155,0,-60,0,0,0,215,-153,2061,67,65,65,67,1,8,0,1,1,-0.07498004576107299,-0.10365370983653921,4.396484385773716,0,0,0,0,0,0,0,0,0,0,"",""
166,132380999,0,0,0,0,0,0,0,0,0,0,0,0,1000,155,0,-60,0,0,0,215,-153,2061,67,65,66,67,1,8,0,1,1,-0.07497399357706604,-0.10365374748371418,4.396484385773716,0,0,0,0,0,0,0,0,0,0,"",""
167,132382590,0,0,0,0,0,0,0,0,0,0,0,0,1000,155,0,-60,0,0,0,215,-153,2061,67,65,66,67,1,8,0,1,1,-0.07496801417602779,-0.1036537846744458,4.396484385773716,0,0,0,0,0,0,0,0,0,0,"",""
168,132384273,0,0,0,0,0,0,0,0,0,0,0,0,1000,155,0,-60,0,0,0,215,-153,2060,68,65,66,67,1,8,0,1,1,-0.07496235287399405,-0.10365415934920658,4.396484385773716,0,0,0,0,0,0,0,0,0,0,"",""
169,132385714,0,0,0,0,0,0,0,0,0,0,0,0,1000,155,0,-60,0,0,0,215,-153,2060,68,65,67,68,1,8,0,1,1,-0.07495675882400946,-0.10365452956984184,4.396484385773716,0,0,0,0,0,0,0,0,0,0,"",""
170,132387178,0,0,0,0,0,0,0,0,0,0,0,0,1000,155,0,-60,0,0,0,214,-153,2060,68,65,66,67,1,8,0,1,1,-0.07495123084241347,-0.103651670858464,4.396484385773716,0,0,0,0,0,0,0,0,0,0,"",""
171,132388774,0,0,0,0,0,0,0,0,0,0,0,0,1000,155,0,-60,0,0,0,214,-153,2059,68,65,66,67,1,8,0,1,1,-0.07494601059647367,-0.10364917850715333,4.396484385773716,0,0,0,0,0,0,0,0,0,0,"",""
172,132390230,0,0,0,0,0,0,0,0,0,0,0,0,1000,155,0,-60,0,0,0,214,-153,2059,68,65,66,67,1,8,0,1,1,-0.07494085126542678,-0.10364671523498988,4.396484385773716,0,0,0,0,0,0,0,0,0,0,"",""
173,132391679,0,0,0,0,0,0,0,0,0,0,0,0,1000,155,0,-60,0,0,0,214,-153,2059,68,65,66,67,1,8,0,1,1,-0.07493575179626658,-0.10364428053936679,4.396484385773716,0,0,0,0,0,0,0,0,0,0,"",""
174,132393127,0,0,0,0,0,0,0,0,0,0,0,0,1000,155,0,-60,0,0,0,214,-153,2058,68,65,66,67,1,8,0,1,1,-0.07493095033106621,-0.10364220176429811,4.396484385773716,0,0,0,0,0,0,0,0,0,0,"",""
175,132394573,0,0,0,0,0,0,0,0,0,0,0,0,1000,155,0,-60,0,0,0,214,-153,2058,68,65,66,68,1,8,0,1,1,-0.07492620391953818,-0.10364014682128049,4.396484385773716,0,0,0,0,0,0,0,0,0,0,"",""
176,132396022,0,0,0,0,0,0,0,0,0,0,0,0,1000,155,0,-60,0,0,0,214,-153,2058,68,65,66,67,1,8,0,1,1,-0.07492151162667994,-0.10363811530561808,4.396484385773716,0,0,0,0,0,0,0,0,0,0,"",""
177,132397508,0,0,0,0,0,0,0,0,0,0,0,0,1000,155,0,-60,0,0,0,214,-153,2057,67,65,66,67,1,8,0,1,1,-0.0749171081871846,-0.10363642987092583,4.396484385773716,0,0,0,0,0,0,0,0,0,0,"",""
178,132398964,0,0,0,0,0,0,0,0,0,0,0,0,1000,155,0,-60,0,0,0,214,-153,2057,68,65,66,67,1,8,0,1,1,-0.0749127543745198,-0.10363476342856585,4.396484385773716,0,0,0,0,0,0,0,0,0,0,"",""
179,132400416,0,0,0,0,0,0,0,0,0,0,0,0,1000,155,0,-60,0,0,0,214,-153,2056,67,65,66,67,1,8,0,1,1,-0.07490868273069808,-0.10363343561445265,4.396484385773716,0,0,0,0,0,0,0,0,0,0,"",""
180,132401870,0,0,0,0,0,0,0,0,0,0,0,0,1000,155,0,-60,0,0,0,214,-153,2056,67,65,66,67,1,8,0,1,1,-0.0749046564491161,-0.10363212259149669,4.396484385773716,0,0,0,0,0,0,0,0,0,0,"",""
181,132403321,0,0,0,0,0,0,0,0,0,0,0,0,1000,155,0,-60,0,0,0,214,-153,2055,67,65,66,67,1,8,0,1,1,-0.074900905927218,-0.10363114104488635,4.396484385773716,0,0,0,0,0,0,0,0,0,0,"",""
182,132404770,0,0,0,0,0,0,0,0,0,0,0,0,1000,155,0,-60,0,0,0,214,-153,2055,67,65,66,67,1,8,0,1,1,-0.07489719671699054,-0.10363017030830544,4.396484385773716,0,0,0,0,0,0,0,0,0,0,"",""
183,132406251,0,0,0,0,0,0,0,0,0,0,0,0,1000,155,0,-60,0,0,0,214,-153,2054,67,65,66,67,1,8,0,1,1,-0.07489375711798252,-0.10362952418112979,4.396484385773716,0,0,0,0,0,0,0,0,0,0,"",""
184,132407727,0,0,0,0,0,0,0,0,0,0,0,0,1000,155,0,-60,0,0,0,214,-153,2054,67,65,66,67,1,8,0,1,1,-0.07489035498176397,-0.1036288850900399,4.396484385773716,0,0,0,0,0,0,0,0,0,0,"",""
185,132409182,0,0,0,0,0,0,0,0,0,0,0,0,1000,155,0,-60,0,0,0,214,-153,2054,67,65,66,67,1,8,0,1,1,-0.07488698970424552,-0.10362825292159955,4.396484385773716,0,0,0,0,0,0,0,0,0,0,"",""
186,132410631,0,0,0,0,0,0,0,0,0,0,0,0,1000,155,0,-60,0,0,0,214,-153,2053,68,65,66,68,1,8,0,1,1,-0.07488388650074358,-0.10362793723428415,4.396484385773716,0,0,0,0,0,0,0,0,0,0,"",""
187,132412083,0,0,0,0,0,0,0,0,0,0,0,0,1000,155,0,-60,0,0,0,214,-153,2053,68,65,66,68,1,8,0,1,1,-0.07488081654701459,-0.10362762492845592,4.396484385773716,0,0,0,0,0,0,0,0,0,0,"",""
188,132413534,0,0,0,0,0,0,0,0,0,0,0,0,1000,155,0,-60,0,0,0,214,-153,2052,68,65,66,68,1,8,0,1,1,-0.07487800307079567,-0.10362762282999648,4.396484385773716,0,0,0,0,0,0,0,0,0,0,"",""
189,132414999,0,0,0,0,0,0,0,0,0,0,0,0,1000,155,0,-60,0,0,0,214,-153,2052,68,65,66,68,1,8,0,1,1,-0.07487521941156632,-0.10362762075297483,4.396484385773716,0,0,0,0,0,0,0,0,0,0,"",""
190,132416467,0,0,0,0,0,0,0,0,0,0,0,0,1000,155,0,-60,0,0,0,214,-153,2051,68,65,66,68,1,8,0,1,1,-0.07487268685151267,-0.10362792284897461,4.396484385773716,0,0,0,0,0,0,0,0,0,0,"",""
191,132418059,0,0,0,0,0,0,0,0,0,0,0,0,1000,155,0,-60,0,0,0,214,-153,2051,68,65,66,68,1,8,0,1,1,-0.07487018084199652,-0.10362822177722975,4.396484385773716,0,0,0,0,0,0,0,0,0,0,"",""
192,132419647,0,0,0,0,0,0,0,0,0,0,0,0,1000,155,0,-60,0,0,0,214,-153,2051,68,66,67,68,1,8,0,1,1,-0.07486770097109488,-0.10362851758689724,4.396484385773716,0,0,0,0,0,0,0,0,0,0,"",""
193,132421103,0,0,0,0,0,0,0,0,0,0,0,0,1000,155,0,-60,0,0,0,214,-153,2050,69,66,67,68,1,8,0,1,1,-0.07486546565917289,-0.10362911049707833,4.396484385773716,0,0,0,0,0,0,0,0,0,0,"",""
194,132422550,0,0,0,0,0,0,0,0,0,0,0,0,1000,155,0,-60,0,0,0,214,-153,2050,68,66,66,68,1,8,0,1,1,-0.07486325341494328,-0.10362969728804092,4.396484385773716,0,0,0,0,0,0,0,0,0,0,"",""
195,132423999,0,0,0,0,0,0,0,0,0,0,0,0,1000,155,0,-60,0,0,0,214,-154,2049,68,66,66,68,1,8,0,1,1,-0.07486417311681236,-0.10363055332217033,4.396484385773716,0,0,0,0,0,0,0,0,0,0,"",""
196,132425459,0,0,0,0,0,0,0,0,0,0,0,0,1000,155,0,-60,0,0,0,214,-154,2049,68,66,67,68,1,8,0,1,1,-0.07486508342694831,-0.1036314006144876,4.396484385773716,0,0,0,0,0,0,0,0,0,0,"",""
197,132426913,0,0,0,0,0,0,0,0,0,0,0,0,1000,155,0,-60,0,0,0,214,-154,2049,68,66,67,68,1,8,0,1,1,-0.07486598448723578,-0.10363223929706236,4.396484385773716,0,0,0,0,0,0,0,0,0,0,"",""
198,132428361,0,0,0,0,0,0,0,0,0,0,0,0,1000,155,0,-60,0,0,0,214,-154,2048,68,66,67,68,1,8,0,1,1,-0.07486709062473992,-0.10363336331662781,4.396484385773716,0,0,0,0,0,0,0,0,0,0,"",""
199,132429810,0,0,0,0,0,0,0,0,0,0,0,0,1000,155,0,-60,0,0,0,214,-154,2048,68,66,67,68,1,8,0,1,1,-0.07486818563882967,-0.10363447603257242,4.396484385773716,0,0,0,0,0,0,0,0,0,0,"",""
200,132431268,0,0,0,0,0,0,0,0,0,0,0,0,1000,155,0,-63,0,0,0,214,-154,2048,68,66,67,68,1,8,0,1,1,-0.074869269694957,-0.10363557761303444,4.396484385773716,0,0,0,0,0,0,0,0,0,0,"",""
201,132432738,0,0,0,0,0,0,0,0,0,0,0,0,1000,155,0,-63,0,0,0,214,-154,2047,68,66,67,68,1,8,0,1,1,-0.0748705544820701,-0.10363695838594232,4.396484385773716,0,0,0,0,0,0,0,0,0,0,"",""
202,132434209,0,0,0,0,0,0,0,0,0,0,0,0,1000,155,0,-63,0,0,0,214,-154,2047,68,66,67,68,1,8,0,1,1,-0.07487182654316865,-0.1036383254815235,4.396484385773716,0,0,0,0,0,0,0,0,0,0,"",""
203,132435665,0,0,0,0,0,0,0,0,0,0,0,0,1000,155,0,-63,0,0,0,214,-154,2047,68,66,67,68,1,8,0,1,1,-0.07487308606466274,-0.10363967910013112,4.396484385773716,0,0,0,0,0,0,0,0,0,0,"",""
204,132437115,0,0,0,0,0,0,0,0,0,0,0,0,1000,155,0,-63,0,0,0,213,-154,2046,68,66,67,68,1,8,0,1,1,-0.07487454217642205,-0.10363854270867534,4.396484385773716,0,0,0,0,0,0,0,0,0,0,"",""
205,132438566,0,0,0,0,0,0,0,0,0,0,0,0,1000,155,0,-63,0,0,0,213,-154,2046,68,66,67,68,1,8,0,1,1,-0.07487598407840886,-0.10363741740645456,4.396484385773716,0,0,0,0,0,0,0,0,0,0,"",""
206,132440008,0,0,0,0,0,0,0,0,0,0,0,0,1000,155,0,-63,0,0,0,213,-154,2046,68,66,66,68,1,8,0,1,1,-0.0748774119756465,-0.10363630303347668,4.396484385773716,0,0,0,0,0,0,0,0,0,0,"",""
207,132441462,0,0,0,0,0,0,0,0,0,0,0,0,1000,155,0,-63,0,0,0,213,-154,2045,68,66,67,68,1,8,0,1,1,-0.07487903251459697,-0.10363548258932456,4.396484385773716,0,0,0,0,0,0,0,0,0,0,"",""
208,132442926,0,0,0,0,0,0,0,0,0,0,0,0,1000,155,0,-63,0,0,0,213,-154,2045,68,66,67,68,1,8,0,1,1,-0.07488063746954066,-0.1036346700346169,4.396484385773716,0,0,0,0,0,0,0,0,0,0,"",""
209,132444380,0,0,0,0,0,0,0,0,0,0,0,0,1000,155,0,-63,0,0,0,213,-154,2045,68,66,67,68,1,8,0,1,1,-0.07488222706200501,-0.1036338652572106,4.396484385773716,0,0,0,0,0,0,0,0,0,0,"",""
210,132445828,0,0,0,0,0,0,0,0,0,0,0,0,1000,155,0,-63,0,0,0,213,-154,2045,68,66,67,69,1,8,0,1,1,-0.07488380150933907,-0.1036330681470778,4.396484385773716,0,0,0,0,0,0,0,0,0,0,"",""
211,132447279,0,0,0,0,0,0,0,0,0,0,0,0,1000,155,0,-63,0,0,0,213,-154,2045,68,66,67,68,1,8,0,1,1,-0.07488536102481141,-0.10363227859625618,4.396484385773716,0,0,0,0,0,0,0,0,0,0,"",""
212,132448718,0,0,0,0,0,0,0,0,0,0,0,0,1000,155,0,-63,0,0,0,213,-154,2045,68,66,66,68,1,8,0,1,1,-0.0748869058177055,-0.10363149649880053,4.396484385773716,0,0,0,0,0,0,0,0,0,0,"",""
213,132450181,0,0,0,0,0,0,0,0,0,0,0,0,1000,155,0,-63,0,0,0,213,-154,2044,68,66,67,68,1,8,0,1,1,-0.07488863775144101,-0.1036309982936279,4.396484385773716,0,0,0,0,0,0,0,0,0,0,"",""
214,132451782,0,0,0,0,0,0,0,0,0,0,0,0,1000,155,0,-63,0,0,0,213,-154,2044,68,66,67,68,1,8,0,1,1,-0.07489035349226407,-0.10363050474612626,4.396484385773716,0,0,0,0,0,0,0,0,0,0,"",""
215,132453377,0,0,0,0,0,0,0,0,0,0,0,0,1000,155,0,-63,0,0,0,213,-154,2044,68,66,67,68,1,8,0,1,1,-0.07489205326386827,-0.10363001579195817,4.396484385773716,0,0,0,0,0,0,0,0,0,0,"",""
216,132454829,0,0,0,0,0,0,0,0,0,0,0,0,1000,155,0,-63,0,0,0,213,-154,2044,68,66,67,68,1,8,0,1,1,-0.07489373728584638,-0.1036295313679656,4.396484385773716,0,0,0,0,0,0,0,0,0,0,"",""
217,132456278,0,0,0,0,0,0,0,0,0,0,0,0,1000,155,0,-65,0,0,0,213,-154,2044,68,66,67,68,1,8,0,1,1,-0.07489540577378379,-0.10362905141214293,4.396484385773716,0,0,0,0,0,0,0,0,0,0,"",""
218,132457728,0,0,0,0,0,0,0,0,0,0,0,0,1000,155,0,-65,0,0,0,213,-153,2044,68,66,67,68,1,8,0,1,1,-0.07489442193418322,-0.10362859622217235,4.396484385773716,0,0,0,0,0,0,0,0,0,0,"",""
219,132459184,0,0,0,0,0,0,0,0,0,0,0,0,1000,155,0,-65,0,0,0,213,-153,2044,68,66,66,68,1,8,0,1,1,-0.07489344708922842,-0.10362814519358546,4.396484385773716,0,0,0,0,0,0,0,0,0,0,"",""
220,132460654,0,0,0,0,0,0,0,0,0,0,0,0,1000,155,0,-65,0,0,0,213,-153,2044,68,66,67,68,1,8,0,1,1,-0.07489248111746508,-0.1036276982701932,4.396484385773716,0,0,0,0,0,0,0,0,0,0,"",""
221,132462111,0,0,0,0,0,0,0,0,0,0,0,0,1000,155,0,-65,0,0,0,213,-153,2044,68,66,67,69,1,8,0,1,1,-0.07489152389961558,-0.10362725539681357,4.396484385773716,0,0,0,0,0,0,0,0,0,0,"",""
222,132463565,0,0,0,0,0,0,0,0,0,0,0,0,1000,155,0,-65,0,0,0,213,-153,2044,69,66,67,69,1,8,0,1,1,-0.07489057531853026,-0.10362681651924888,4.396484385773716,0,0,0,0,0,0,0,0,0,0,"",""
223,132465014,0,0,0,0,0,0,0,0,0,0,0,0,1000,155,0,-65,0,0,0,213,-153,2044,69,66,68,69,1,8,0,1,1,-0.07488963525914032,-0.10362638158426414,4.396484385773716,0,0,0,0,0,0,0,0,0,0,"",""
224,132466463,0,0,0,0,0,0,0,0,0,0,0,0,1000,155,0,-65,0,0,0,213,-153,2045,68,65,67,68,1,8,0,1,1,-0.07488851010017614,-0.10362568518583332,4.396484385773716,0,0,0,0,0,0,0,0,0,0,"",""
225,132467918,0,0,0,0,0,0,0,0,0,0,0,0,1000,155,0,-65,0,0,0,213,-153,2045,68,65,66,67,1,8,0,1,1,-0.07488739496800993,-0.10362499499309434,4.396484385773716,0,0,0,0,0,0,0,0,0,0,"",""
226,132469412,0,0,0,0,0,0,0,0,0,0,0,0,1000,155,0,-65,0,0,0,213,-153,2045,68,65,66,67,1,8,0,1,1,-0.07488628973073203,-0.10362431092440992,4.396484385773716,0,0,0,0,0,0,0,0,0,0,"",""
227,132470870,0,0,0,0,0,0,0,0,0,0,0,0,1000,155,0,-65,0,0,0,213,-153,2045,68,65,66,67,1,8,0,1,1,-0.07488519425873608,-0.10362363289956833,4.396484385773716,0,0,0,0,0,0,0,0,0,0,"",""
228,132472331,0,0,0,0,0,0,0,0,0,0,0,0,1000,155,0,-65,0,0,0,213,-153,2045,68,65,66,67,1,8,0,1,1,-0.07488410842466914,-0.10362296083975227,4.396484385773716,0,0,0,0,0,0,0,0,0,0,"",""
229,132473788,0,0,0,0,0,0,0,0,0,0,0,0,1000,155,0,-65,0,0,0,213,-153,2045,68,65,66,68,1,8,0,1,1,-0.07488303210338285,-0.10362229466750883,4.396484385773716,0,0,0,0,0,0,0,0,0,0,"",""
230,132475240,0,0,0,0,0,0,0,0,0,0,0,0,1000,155,0,-65,0,0,0,213,-153,2045,68,65,66,68,1,8,0,1,1,-0.0748819651718859,-0.10362163430672008,4.396484385773716,0,0,0,0,0,0,0,0,0,0,"",""
231,132476686,0,0,0,0,0,0,0,0,0,0,0,0,1000,155,0,-65,0,0,0,213,-153,2046,68,65,66,68,1,8,0,1,1,-0.07488071880588086,-0.10362072090278186,4.396484385773716,0,0,0,0,0,0,0,0,0,0,"",""
232,132478151,0,0,0,0,0,0,0,0,0,0,0,0,1000,155,0,-65,0,0,0,213,-153,2046,67,65,65,67,1,8,0,1,1,-0.0748794832286776,-0.1036198154051279,4.396484385773716,0,0,0,0,0,0,0,0,0,0,"",""
233,132479607,0,0,0,0,0,0,0,0,0,0,0,0,1000,155,0,-65,0,0,0,213,-153,2046,68,65,66,67,1,8,0,1,1,-0.0748782583024858,-0.10361891771278658,4.396484385773716,0,0,0,0,0,0,0,0,0,0,"",""
234,132481059,0,0,0,0,0,0,0,0,0,0,0,0,1000,155,0,-66,0,0,0,213,-153,2046,68,65,66,68,1,8,0,1,1,-0.07487704389185129,-0.10361802772649804,4.396484385773716,0,0,0,0,0,0,0,0,0,0,"",""
235,132482511,0,0,0,0,0,0,0,0,0,0,0,0,1000,155,0,-66,0,0,0,213,-153,2047,68,65,66,68,1,8,0,1,1,-0.07487565378050327,-0.10361689015424369,4.396484385773716,0,0,0,0,0,0,0,0,0,0,"",""
236,132483969,0,0,0,0,0,0,0,0,0,0,0,0,1000,155,0,-66,0,0,0,213,-153,2047,68,65,66,67,1,8,0,1,1,-0.07487427551179301,-0.10361576227273384,4.396484385773716,0,0,0,0,0,0,0,0,0,0,"",""
237,132485556,0,0,0,0,0,0,0,0,0,0,0,0,1000,155,0,-66,0,0,0,213,-153,2047,68,65,66,67,1,8,0,1,1,-0.07487290893691453,-0.1036146439602076,4.396484385773716,0,0,0,0,0,0,0,0,0,0,"",""
238,132487162,0,0,0,0,0,0,0,0,0,0,0,0,1000,155,0,-66,0,0,0,213,-153,2047,67,65,66,67,1,8,0,1,1,-0.0748715539095441,-0.10361353509693504,4.396484385773716,0,0,0,0,0,0,0,0,0,0,"",""
239,132488618,0,0,0,0,0,0,0,0,0,0,0,0,1000,155,0,-66,0,0,0,213,-153,2048,67,65,66,67,1,8,0,1,1,-0.07487002673812113,-0.10361218384011854,4.396484385773716,0,0,0,0,0,0,0,0,0,0,"",""
240,132490072,0,0,0,0,0,0,0,0,0,0,0,0,1000,155,0,-66,0,0,0,213,-153,2048,67,65,66,67,1,8,0,1,1,-0.07486851237465647,-0.10361084391530202,4.396484385773716,0,0,0,0,0,0,0,0,0,0,"",""
241,132491522,0,0,0,0,0,0,0,0,0,0,0,0,1000,155,0,-66,0,0,0,213,-153,2048,67,65,65,67,1,8,0,1,1,-0.07486701066077138,-0.10360951518236568,4.396484385773716,0,0,0,0,0,0,0,0,0,0,"",""
242,132492974,0,0,0,0,0,0,0,0,0,0,0,0,1000,155,0,-66,0,0,0,213,-153,2049,67,65,65,67,1,8,0,1,1,-0.0748653397418878,-0.10360794830843126,4.396484385773716,0,0,0,0,0,0,0,0,0,0,"",""
243,132494416,0,0,0,0,0,0,0,0,0,0,0,0,1000,155,0,-66,0,0,0,213,-153,2049,67,65,65,67,1,8,0,1,1,-0.07486368267723365,-0.1036063944252618,4.396484385773716,0,0,0,0,0,0,0,0,0,0,"",""
244,132495873,0,0,0,0,0,0,0,0,0,0,0,0,1000,155,0,-66,0,0,0,213,-153,2049,67,65,66,67,1,8,0,1,1,-0.07486203929748349,-0.10360485337409493,4.396484385773716,0,0,0,0,0,0,0,0,0,0,"",""
245,132497337,0,0,0,0,0,0,0,0,0,0,0,0,1000,155,0,-66,0,0,0,213,-153,2049,67,65,65,67,1,8,0,1,1,-0.07486040943605943,-0.10360332499874428,4.396484385773716,0,0,0,0,0,0,0,0,0,0,"",""
246,132498789,0,0,0,0,0,0,0,0,0,0,0,0,1000,155,0,-66,0,0,0,213,-153,2050,67,65,66,67,1,8,0,1,1,-0.07485861362759198,-0.10360156323110394,4.396484385773716,0,0,0,0,0,0,0,0,0,0,"",""
247,132500239,0,0,0,0,0,0,0,0,0,0,0,0,1000,155,0,-66,0,0,0,213,-153,2050,67,65,66,67,1,8,0,1,1,-0.07485683248417582,-0.10359981584956317,4.396484385773716,0,0,0,0,0,0,0,0,0,0,"",""
248,132501690,0,0,0,0,0,0,0,0,0,0,0,0,1000,155,0,-66,0,0,0,213,-153,2050,67,65,65,67,1,8,0,1,1,-0.07485506582934301,-0.10359808268102264,4.396484385773716,0,0,0,0,0,0,0,0,0,0,"",""
249,132503126,0,0,0,0,0,0,0,0,0,0,0,0,1000,155,0,-66,0,0,0,213,-153,2051,67,65,65,67,1,8,0,1,1,-0.07485313593745783,-0.10359612003488781,4.396484385773716,0,0,0,0,0,0,0,0,0,0,"",""
250,132504578,0,0,0,0,0,0,0,0,0,0,0,0,1000,155,0,-66,0,0,0,213,-153,2051,68,65,66,68,1,8,0,1,1,-0.07485122163176504,-0.10359417323830553,4.396484385773716,0,0,0,0,0,0,0,0,0,0,"",""
251,132506052,0,0,0,0,0,0,0,0,0,0,0,0,1000,155,0,-66,0,0,0,213,-153,2051,68,65,66,67,1,8,0,1,1,-0.07484932272683065,-0.10359224210272275,4.396484385773716,0,0,0,0,0,0,0,0,0,0,"",""
252,132507505,0,0,0,0,0,0,0,0,0,0,0,0,1000,155,0,-66,0,0,0,213,-153,2051,68,65,66,67,1,8,0,1,1,-0.07484743904015002,-0.10359032644256491,4.396484385773716,0,0,0,0,0,0,0,0,0,0,"",""
253,132508953,0,0,0,0,0,0,0,0,0,0,0,0,1000,155,0,-66,0,0,0,213,-153,2052,68,65,66,67,1,8,0,1,1,-0.07484539511025902,-0.10358818566172733,4.396484385773716,0,0,0,0,0,0,0,0,0,0,"",""
254,132510406,0,0,0,0,0,0,0,0,0,0,0,0,1000,155,0,-66,0,0,0,213,-153,2052,68,65,66,67,1,8,0,1,1,-0.0748433674456713,-0.10358606191555302,4.396484385773716,0,0,0,0,0,0,0,0,0,0,"",""
255,132511853,0,0,0,0,0,0,0,0,0,0,0,0,1000,155,0,-66,0,0,0,213,-153,2052,68,65,66,67,1,8,0,1,1,-0.07484135585577908,-0.10358395500443471,4.396484385773716,0,0,0,0,0,0,0,0,0,0,"",""
256,132513302,0,0,0,0,0,0,0,0,0,0,0,0,1000,155,0,-66,0,0,0,214,-153,2052,68,65,66,67,1,8,0,1,1,-0.07483936015294057,-0.10358416203284036,4.396484385773716,0,0,0,0,0,0,0,0,0,0,"",""
257,132514799,0,0,0,0,0,0,0,0,0,0,0,0,1000,155,0,-66,0,0,0,214,-153,2053,67,65,66,67,1,8,0,1,1,-0.07483720707211367,-0.10358413002112969,4.396484385773716,0,0,0,0,0,0,0,0,0,0,"",""
258,132516252,0,0,0,0,0,0,0,0,0,0,0,0,1000,155,0,-66,0,0,0,214,-153,2053,67,65,65,67,1,8,0,1,1,-0.07483507087825816,-0.1035840982600208,4.396484385773716,0,0,0,0,0,0,0,0,0,0,"",""
259,132517704,0,0,0,0,0,0,0,0,0,0,0,0,1000,155,0,-66,0,0,0,214,-153,2053,67,65,66,67,1,8,0,1,1,-0.07483295137640653,-0.10358406674662597,4.396484385773716,0,0,0,0,0,0,0,0,0,0,"",""
260,132519165,0,0,0,0,0,0,0,0,0,0,0,0,1000,155,0,-66,0,0,0,214,-153,2053,67,65,65,67,1,8,0,1,1,-0.07483084837458033,-0.10358403547810167,4.396484385773716,0,0,0,0,0,0,0,0,0,0,"",""
261,132520748,0,0,0,0,0,0,0,0,0,0,0,0,1000,155,0,-66,0,0,0,214,-153,2053,67,65,65,67,1,8,0,1,1,-0.07482876168373323,-0.10358400445164771,4.396484385773716,0,0,0,0,0,0,0,0,0,0,"",""
262,132522342,0,0,0,0,0,0,0,0,0,0,0,0,1000,155,0,-66,0,0,0,214,-153,2054,67,65,65,66,1,8,0,1,1,-0.07482652069673287,-0.10358373986884702,4.396484385773716,0,0,0,0,0,0,0,0,0,0,"",""
263,132523804,0,0,0,0,0,0,0,0,0,0,0,0,1000,155,0,-66,0,0,0,214,-153,2054,67,65,65,66,1,8,0,1,1,-0.07482429697334993,-0.10358347732375557,4.396484385773716,0,0,0,0,0,0,0,0,0,0,"",""
264,132525275,0,0,0,0,0,0,0,0,0,0,0,0,1000,155,0,-66,0,0,0,214,-153,2054,67,65,66,67,1,8,0,1,1,-0.07482209031791039,-0.10358321679328308,4.396484385773716,0,0,0,0,0,0,0,0,0,0,"",""
265,132526723,0,0,0,0,0,0,0,0,0,0,0,0,1000,155,0,-66,0,0,0,214,-154,2054,67,65,65,66,1,8,0,1,1,-0.07482215337412418,-0.10358294088699364,4.396484385773716,0,0,0,0,0,0,0,0,0,0,"",""
266,132528173,0,0,0,0,0,0,0,0,0,0,0,0,1000,155,0,-66,0,0,0,214,-154,2054,67,65,65,67,1,8,0,1,1,-0.07482221594985017,-0.10358266708309181,4.396484385773716,0,0,0,0,0,0,0,0,0,0,"",""
267,132529621,0,0,0,0,0,0,0,0,0,0,0,0,1000,155,0,-66,0,0,0,214,-154,2054,67,65,66,67,1,8,0,1,1,-0.07482227805047366,-0.10358239535801406,4.396484385773716,0,0,0,0,0,0,0,0,0,0,"",""
268,132531072,0,0,0,0,0,0,0,0,0,0,0,0,1000,155,0,-66,0,0,0,214,-154,2055,67,65,65,67,1,8,0,1,1,-0.07482217230255866,-0.10358189605705852,4.396484385773716,0,0,0,0,0,0,0,0,0,0,"",""
269,132532545,0,0,0,0,0,0,0,0,0,0,0,0,1000,155,0,-66,0,0,0,214,-154,2055,67,65,66,67,1,8,0,1,1,-0.0748220673522343,-0.10358140052196646,4.396484385773716,0,0,0,0,0,0,0,0,0,0,"",""
270,132534003,0,0,0,0,0,0,0,0,0,0,0,0,1000,155,0,-66,0,0,0,214,-154,2055,68,65,66,67,1,8,0,1,1,-0.0748219631906547,-0.10358090871097259,4.396484385773716,0,0,0,0,0,0,0,0,0,0,"",""
271,132535453,0,0,0,0,0,0,0,0,0,0,0,0,1000,155,0,-66,0,0,0,214,-154,2055,67,65,65,67,1,8,0,1,1,-0.07482185980910441,-0.10358042058292671,4.396484385773716,0,0,0,0,0,0,0,0,0,0,"",""
272,132536901,0,0,0,0,0,0,0,0,0,0,0,0,1000,155,0,-66,0,0,0,214,-154,2056,67,65,65,67,1,8,0,1,1,-0.07482159176937038,-0.10357970914279445,4.396484385773716,0,0,0,0,0,0,0,0,0,0,"",""
273,132538354,0,0,0,0,0,0,0,0,0,0,0,0,1000,155,0,-66,0,0,0,214,-154,2056,67,65,65,67,1,8,0,1,1,-0.07482132572387357,-0.10357900299572266,4.396484385773716,0,0,0,0,0,0,0,0,0,0,"",""
274,132539810,0,0,0,0,0,0,0,0,0,0,0,0,1000,155,0,-66,0,0,0,214,-154,2056,67,65,65,67,1,8,0,1,1,-0.0748210616508053,-0.10357830208382864,4.396484385773716,0,0,0,0,0,0,0,0,0,0,"",""
275,132541270,0,0,0,0,0,0,0,0,0,0,0,0,1000,155,0,-66,0,0,0,214,-154,2056,67,65,65,67,1,8,0,1,1,-0.0748207995286737,-0.10357760635007027,4.396484385773716,0,0,0,0,0,0,0,0,0,0,"",""
276,132542725,0,0,0,0,0,0,0,0,0,0,0,0,1000,155,0,-66,0,0,0,214,-154,2056,68,65,66,67,1,8,0,1,1,-0.0748205393362979,-0.10357691573823093,4.396484385773716,0,0,0,0,0,0,0,0,0,0,"",""
277,132544177,0,0,0,0,0,0,0,0,0,0,0,0,1000,155,0,-66,0,0,0,214,-154,2057,68,65,66,67,1,8,0,1,1,-0.07482011798254551,-0.10357600647871598,4.396484385773716,0,0,0,0,0,0,0,0,0,0,"",""
278,132545630,0,0,0,0,0,0,0,0,0,0,0,0,1000,155,0,-66,0,0,0,214,-155,2057,68,65,66,67,1,8,0,1,1,-0.07482186898285681,-0.10357508714833429,4.396484385773716,0,0,0,0,0,0,0,0,0,0,"",""
279,132547079,0,0,0,0,0,0,0,0,0,0,0,0,1000,155,0,-66,0,0,0,214,-155,2057,67,65,65,66,1,8,0,1,1,-0.07482360721782491,-0.10357417451967471,4.396484385773716,0,0,0,0,0,0,0,0,0,0,"",""
280,132548530,0,0,0,0,0,0,0,0,0,0,0,0,1000,155,0,-66,0,0,0,214,-155,2057,67,65,65,67,1,8,0,1,1,-0.07482533282415385,-0.10357326852097384,4.396484385773716,0,0,0,0,0,0,0,0,0,0,"",""
281,132549981,0,0,0,0,0,0,0,0,0,0,0,0,1000,155,0,-66,0,0,0,214,-155,2057,67,65,65,67,1,8,0,1,1,-0.0748270459366033,-0.10357236908148898,4.396484385773716,0,0,0,0,0,0,0,0,0,0,"",""
282,132551447,0,0,0,0,0,0,0,0,0,0,0,0,1000,155,0,-66,0,0,0,214,-155,2057,68,65,66,67,1,8,0,1,1,-0.07482874668802289,-0.10357147613148,4.396484385773716,0,0,0,0,0,0,0,0,0,0,"",""
283,132552902,0,0,0,0,0,0,0,0,0,0,0,0,1000,155,0,-66,0,0,0,214,-155,2058,68,65,66,67,1,8,0,1,1,-0.07483027483520935,-0.1035703696284992,4.396484385773716,0,0,0,0,0,0,0,0,0,0,"",""
284,132554365,0,0,0,0,0,0,0,0,0,0,0,0,1000,155,0,-66,0,0,0,214,-155,2058,67,65,66,67,1,8,0,1,1,-0.07483179202433644,-0.10356927105955624,4.396484385773716,0,0,0,0,0,0,0,0,0,0,"",""
285,132555956,0,0,0,0,0,0,0,0,0,0,0,0,1000,155,0,-66,0,0,0,214,-155,2058,67,65,66,67,1,8,0,1,1,-0.0748332983707692,-0.10356818034112786,4.396484385773716,0,0,0,0,0,0,0,0,0,0,"",""
286,132557613,0,0,0,0,0,0,0,0,0,0,0,0,1000,155,0,-66,0,0,0,214,-155,2058,67,65,66,67,1,8,0,1,1,-0.07483479398825944,-0.10356709739085877,4.396484385773716,0,0,0,0,0,0,0,0,0,0,"",""
287,132559066,0,0,0,0,0,0,0,0,0,0,0,0,1000,155,0,-66,0,0,0,214,-155,2058,67,65,65,67,1,8,0,1,1,-0.07483627898897384,-0.10356602212754122,4.396484385773716,0,0,0,0,0,0,0,0,0,0,"",""
288,132560527,0,0,0,0,0,0,0,0,0,0,0,0,1000,155,0,-66,0,0,0,214,-155,2058,68,66,67,68,1,8,0,1,1,-0.07483775348352152,-0.10356495447109504,4.396484385773716,0,0,0,0,0,0,0,0,0,0,"",""
289,132561985,0,0,0,0,0,0,0,0,0,0,0,0,1000,155,0,-66,0,0,0,214,-155,2058,68,66,67,68,1,8,0,1,1,-0.07483921758098097,-0.10356389434254806,4.396484385773716,0,0,0,0,0,0,0,0,0,0,"",""
290,132563441,0,0,0,0,0,0,0,0,0,0,0,0,1000,155,0,-66,0,0,0,214,-154,2058,68,66,67,68,1,8,0,1,1,-0.07483857261985889,-0.10356285784490646,4.396484385773716,0,0,0,0,0,0,0,0,0,0,"",""
291,132564891,0,0,0,0,0,0,0,0,0,0,0,0,1000,155,0,-66,0,0,0,214,-154,2059,68,66,67,68,1,8,0,1,1,-0.07483777523567446,-0.10356161338248657,4.396484385773716,0,0,0,0,0,0,0,0,0,0,"",""
292,132566323,0,0,0,0,0,0,0,0,0,0,0,0,1000,155,0,-66,0,0,0,214,-154,2059,68,66,67,69,1,8,0,1,1,-0.07483698342154556,-0.10356037761276372,4.396484385773716,0,0,0,0,0,0,0,0,0,0,"",""
293,132567780,0,0,0,0,0,0,0,0,0,0,0,0,1000,155,0,-66,0,0,0,214,-154,2059,68,66,67,68,1,8,0,1,1,-0.07483619712039809,-0.10355915044667154,4.396484385773716,0,0,0,0,0,0,0,0,0,0,"",""
294,132569248,0,0,0,0,0,0,0,0,0,0,0,0,1000,155,0,-66,0,0,0,214,-154,2059,68,66,66,68,1,8,0,1,1,-0.0748354162759348,-0.10355793179635578,4.396484385773716,0,0,0,0,0,0,0,0,0,0,"",""
295,132570785,0,0,0,0,0,0,0,0,0,0,0,0,1000,155,0,-66,0,0,0,214,-154,2059,68,66,67,69,1,8,0,1,1,-0.07483464083262205,-0.10355672157515382,4.396484385773716,0,0,0,0,0,0,0,0,0,0,"",""
296,132572240,0,0,0,0,0,0,0,0,0,0,0,0,1000,155,0,-66,0,0,0,214,-154,2059,69,66,68,69,1,8,0,1,1,-0.074833870735677,-0.10355551969757454,4.396484385773716,0,0,0,0,0,0,0,0,0,0,"",""
297,132573704,0,0,0,0,0,0,0,0,0,0,0,0,1000,155,0,-66,0,0,0,214,-154,2059,69,66,67,69,1,8,0,1,1,-0.07483310593105483,-0.10355432607927867,4.396484385773716,0,0,0,0,0,0,0,0,0,0,"",""
298,132575145,0,0,0,0,0,0,0,0,0,0,0,0,1000,155,0,-66,0,0,0,214,-154,2059,69,66,68,68,1,8,0,1,1,-0.07483234636543648,-0.10355314063705932,4.396484385773716,0,0,0,0,0,0,0,0,0,0,"",""
299,132576596,0,0,0,0,0,0,0,0,0,0,0,0,1000,155,0,-66,0,0,0,214,-154,2059,69,66,68,68,1,8,0,1,1,-0.0748315919862164,-0.10355196328882309,4.396484385773716,0,0,0,0,0,0,0,0,0,0,"",""
300,132578070,0,0,0,0,0,0,0,0,0,0,1,0,1000,155,0,-66,0,0,0,214,-154,2059,69,66,67,68,1,8,0,1,1,-0.07483084274149075,-0.10355079395357153,4.396484385773716,0,0,0,0,0,0,0,0,0,0,"",""
301,132579527,0,0,0,0,0,0,0,0,0,0,2,0,1000,155,0,-66,0,0,0,214,-154,2059,70,66,68,68,1,8,0,1,1,-0.07483009858004563,-0.10354963255138293,4.396484385773716,0,0,0,0,0,0,0,0,0,0,"",""
302,132580975,0,0,0,0,0,0,0,0,0,0,2,0,1000,155,0,-66,0,0,0,214,-154,2059,71,66,70,68,1,8,0,1,1,-0.07482935945134579,-0.1035484790033944,4.396484385773716,0,0,0,0,0,0,0,0,0,0,"",""
303,132582430,0,0,0,0,0,0,0,0,0,0,3,0,1000,155,0,-66,0,0,0,214,-154,2059,72,66,71,69,1,8,0,1,1,-0.07482862530552327,-0.10354733323178462,4.396484385773716,0,0,0,0,1,0,0,0,-1,0,"",""
304,132583884,0,0,0,0,0,0,0,0,0,0,4,0,1000,155,0,-66,0,0,0,214,-154,2059,73,66,72,69,1,8,0,1,1,-0.07482789609336658,-0.10354619515975642,4.396484385773716,0,0,0,0,1,0,0,0,-1,0,"",""
305,132585337,0,0,0,0,0,0,0,0,0,0,4,0,1000,155,0,-66,0,0,0,214,-154,2059,74,66,73,69,1,8,0,1,1,-0.07482717176630979,-0.10354506471152017,4.396484385773716,0,0,0,0,1,0,0,0,-1,0,"",""
306,132586821,0,0,0,0,0,0,0,0,0,0,5,0,1000,155,0,-66,0,0,0,213,-154,2059,75,66,73,69,1,8,0,1,1,-0.0748264522764221,-0.10354194428285454,4.396484385773716,0,0,0,0,2,0,0,0,-2,0,"",""
307,132588289,0,0,0,0,0,0,0,0,0,0,5,0,1000,155,0,-66,0,0,0,213,-154,2059,75,66,74,68,1,8,0,1,1,-0.07482573757639738,-0.10353884462577528,4.396484385773716,0,0,0,0,2,0,0,0,-2,0,"",""
308,132589878,0,0,0,0,0,0,0,0,0,0,5,0,1000,155,0,-66,0,0,0,213,-154,2060,75,66,74,68,1,8,0,1,1,-0.0748248774334482,-0.1035355595917188,4.396484385773716,0,0,0,0,2,0,0,0,-2,0,"",""
309,132591465,0,0,0,0,0,0,0,0,0,0,5,0,1000,155,0,-66,0,0,0,213,-154,2060,76,66,74,68,1,8,0,1,1,-0.07482402298462922,-0.10353229630223042,4.396484385773716,0,0,0,0,2,0,0,0,-2,0,"",""
310,132592909,0,0,0,0,0,0,0,0,0,0,5,0,1000,155,0,-66,0,0,0,213,-154,2060,76,66,75,69,1,8,0,1,1,-0.07482317417475746,-0.1035290545466024,4.396484385773716,0,0,0,0,2,0,0,0,-2,0,"",""
311,132594366,0,0,0,0,0,0,0,0,0,0,6,0,1000,155,0,-66,0,0,0,213,-154,2060,76,66,75,69,1,8,0,1,1,-0.0748223309493604,-0.10352583411683935,4.396484385773716,0,0,0,0,2,0,0,0,-2,0,"",""
312,132595837,0,0,0,0,0,0,0,0,0,0,6,0,1000,155,0,-66,0,0,0,213,-153,2060,77,66,75,69,1,8,0,1,1,-0.07481950951648296,-0.10352265009187656,4.396484385773716,0,0,0,0,2,0,0,0,-2,0,"",""
313,132597289,0,0,0,0,0,0,0,0,0,0,6,0,1000,155,0,-66,0,0,0,213,-153,2060,77,66,75,69,1,8,0,1,1,-0.07481670653188835,-0.10351948688315299,4.396484385773716,0,0,0,0,2,0,0,0,-2,0,"",""
314,132598738,0,0,0,0,0,0,0,0,0,0,6,0,1000,155,0,-66,0,0,0,213,-153,2060,77,66,75,69,1,8,0,1,1,-0.07481392181907535,-0.10351634429154125,4.396484385773716,0,0,0,0,2,0,0,0,-2,0,"",""
315,132600192,0,0,0,0,0,0,0,0,0,0,6,0,1000,155,0,-66,0,0,0,213,-153,2060,77,66,75,69,1,8,0,1,1,-0.07481115520378605,-0.10351322212044455,4.396484385773716,0,0,0,0,2,0,0,0,-2,0,"",""
316,132601643,0,0,0,0,0,0,0,0,0,0,6,0,1000,155,0,-66,0,0,0,213,-153,2060,77,66,75,69,1,8,0,1,1,-0.07480840651397028,-0.10351012017575635,4.396484385773716,0,0,0,0,2,0,0,0,-2,0,"",""
317,132603097,0,0,0,0,0,0,0,0,0,0,6,0,1000,155,0,-66,0,0,0,213,-153,2060,77,66,76,69,1,8,0,1,1,-0.07480567557975076,-0.10350703826582137,4.396484385773716,0,0,0,0,2,0,0,0,-2,0,"",""
